"name";"name_ascii";"abbr";"latitude";"longitude"
"faculdade adventista de hortolândia";"faculdade adventista de hortolandia";"";-22.858;-47.22
"faculdade católica rainha da paz de araputanga";"faculdade catolica rainha da paz de araputanga";"";-15.471;-58.353
"faculdade de ciências administrativas e de tecnologia";"faculdade de ciencias administrativas e de tecnologia";"";-8.762;-63.904
"centro universitário facvest";"centro universitario facvest";"";-27.816;-50.326
"faculdade regional palmitos";"faculdade regional palmitos";"";-27.068;-53.161
"universidade feevale";"universidade feevale";"";-29.678;-51.131
"faculdade guaianás";"faculdade guaianas";"";-23.548;-46.636
"faculdade hélio rocha";"faculdade helio rocha";"";-12.971;-38.511
"faculdade herrero";"faculdade herrero";"";-25.428;-49.273
"faculdade integrada do brasil";"faculdade integrada do brasil";"";-5.089;-42.802
"faculdade de ciências humanas e sociais de igarassu";"faculdade de ciencias humanas e sociais de igarassu";"";-7.834;-34.906
"faculdade de educação, administração e tecnologia de ibaiti";"faculdade de educacao, administracao e tecnologia de ibaiti";"";-23.849;-50.188
"faculdade de filosofia ciências e letras professora nair fortes abu-merhy";"faculdade de filosofia ciencias e letras professora nair fortes abu-merhy";"";-21.888;-42.704
"faculdade de tecnologia da serra gaúcha - bento conçalves";"faculdade de tecnologia da serra gaucha - bento concalves";"";-29.171;-51.519
"faculdade de são paulo";"faculdade de sao paulo";"";-23.548;-46.636
"faculdade do vale do ipojuca";"faculdade do vale do ipojuca";"";-8.283;-35.976
"universidade cândido mendes";"universidade candido mendes";"";-22.903;-43.208
"universidade tuiuti do paraná";"universidade tuiuti do parana";"";-25.428;-49.273
"universidade federal de mato grosso";"universidade federal de mato grosso";"ufmt";-15.596;-56.097
"faculdade são lucas";"faculdade sao lucas";"";-8.762;-63.904
"faculdade apogeu";"faculdade apogeu";"";-15.78;-47.93
"faculdade arquidiocesana de mariana";"faculdade arquidiocesana de mariana";"";-20.378;-43.416
"faculdade atenas maranhense de imperatriz";"faculdade atenas maranhense de imperatriz";"";-5.526;-47.476
"faculdade autônoma de direito";"faculdade autonoma de direito";"";-23.548;-46.636
"faculdade itop";"faculdade itop";"";-10.167;-48.333
"faculdade jk - unidade i - gama";"faculdade jk - unidade i - gama";"";-15.78;-47.93
"faculdade lourenço filho";"faculdade lourenco filho";"";-3.717;-38.543
"faculdade metropolitana são carlos";"faculdade metropolitana sao carlos";"";-22.107;-41.472
"faculdade nacional";"faculdade nacional";"";-20.319;-40.338
"faculdade diadema";"faculdade diadema";"";-23.686;-46.623
"faculdade do sertão baiano";"faculdade do sertao baiano";"";-10.438;-39.333
"faculdade do vale elvira dayrell - faved";"faculdade do vale elvira dayrell - faved";"";-18.823;-42.704
"faculdade integrada de santa maria";"faculdade integrada de santa maria";"";-29.684;-53.807
"faculdade de tecnologia de tatuí - prof. wilson roberto ribeiro de camargo";"faculdade de tecnologia de tatui - prof. wilson roberto ribeiro de camargo";"";-23.356;-47.857
"faculdades integradas einstein de limeira";"faculdades integradas einstein de limeira";"";-22.565;-47.402
"faculdade carlos drummond de andrade";"faculdade carlos drummond de andrade";"";-23.548;-46.636
"faculdade de tecnologia gestão & marketing";"faculdade de tecnologia gestao & marketing";"";-8.054;-34.881
"faculdade raimundo marinho";"faculdade raimundo marinho";"";-9.666;-35.735
"faculdade esamc campinas";"faculdade esamc campinas";"";-22.906;-47.061
"faculdade gama e souza";"faculdade gama e souza";"";-22.903;-43.208
"faculdade ibmec";"faculdade ibmec";"";-19.817;-43.956
"faculdade farias brito";"faculdade farias brito";"";-3.717;-38.543
"faculdade fasipe";"faculdade fasipe";"";-11.864;-55.504
"faculdade flama";"faculdade flama";"";-22.786;-43.312
"faculdade fleming";"faculdade fleming";"";-22.906;-47.061
"faculdade santa cruz";"faculdade santa cruz";"";-7.957;-36.205
"faculdade de ampére";"faculdade de ampere";"";-25.915;-53.473
"faculdade de ciências da fundação instituto tecnológico de osasco";"faculdade de ciencias da fundacao instituto tecnologico de osasco";"";-23.533;-46.792
"faculdade do instituto nacional de pós-graduação de são josé dos campos";"faculdade do instituto nacional de pos-graduacao de sao jose dos campos";"";-23.179;-45.887
"faculdade moraes júnior - mackenzie rio";"faculdade moraes junior - mackenzie rio";"";-22.903;-43.208
"faculdade paulus de tecnologia e comunicação";"faculdade paulus de tecnologia e comunicacao";"";-23.548;-46.636
"faculdade del rey";"faculdade del rey";"";-19.817;-43.956
"faculdade unissa de sarandi";"faculdade unissa de sarandi";"";-23.444;-51.874
"faculdade verde norte";"faculdade verde norte";"";-15.397;-42.866
"faculdade estadual de ciências econômicas de apucarana";"faculdade estadual de ciencias economicas de apucarana";"";-23.551;-51.461
"faculdades integradas de aracruz";"faculdades integradas de aracruz";"";-19.82;-40.273
"instituto de ensino superior de itapira";"instituto de ensino superior de itapira";"";-22.436;-46.822
"instituto federal de educação, ciência e tecnologia do sul de minas gerais";"instituto federal de educacao, ciencia e tecnologia do sul de minas gerais";"";-22.317;-46.328
"faculdade presidente antônio carlos de governador valadares";"faculdade presidente antonio carlos de governador valadares";"";-18.851;-41.949
"faculdades da fundação de ensino de mococa";"faculdades da fundacao de ensino de mococa";"";-21.468;-47.005
"faculdade uberlandense de núcleos integrados de ensino, serviço social e aprendizagem";"faculdade uberlandense de nucleos integrados de ensino, servico social e aprendizagem";"";-18.919;-48.277
"instituto de educação e ensino superior de samambaia";"instituto de educacao e ensino superior de samambaia";"";-15.78;-47.93
"faculdade de tecnologia senai florianópolis";"faculdade de tecnologia senai florianopolis";"";-27.597;-48.549
"faculdade doutor leocádio josé correia";"faculdade doutor leocadio jose correia";"";-25.428;-49.273
"faculdade integrada de araguatins";"faculdade integrada de araguatins";"";-5.651;-48.124
"faculdade maurício de nassau de caruaru";"faculdade mauricio de nassau de caruaru";"";-8.283;-35.976
"faculdade padre anchieta de várzea paulista";"faculdade padre anchieta de varzea paulista";"";-23.211;-46.828
"faculdade de tecnologia senac blumenau";"faculdade de tecnologia senac blumenau";"";-26.919;-49.066
"faculdade anchieta";"faculdade anchieta";"";-23.694;-46.565
"pontifícia universidade católica de goiás";"pontificia universidade catolica de goias";"";-16.679;-49.254
"pontifícia universidade católica de são paulo";"pontificia universidade catolica de sao paulo";"";-23.548;-46.636
"universidade de mogi das cruzes";"universidade de mogi das cruzes";"";-23.523;-46.188
"universidade guarulhos";"universidade guarulhos";"";-23.463;-46.533
"centro universitário de maringá - ceumar";"centro universitario de maringa - ceumar";"";-23.425;-51.939
"universidade federal de alagoas";"universidade federal de alagoas";"ufal";-9.666;-35.735
"faculdade praia grande";"faculdade praia grande";"";-24.006;-46.403
"faculdade estácio de sá de santa catarina";"faculdade estacio de sa de santa catarina";"";-27.615;-48.628
"faculdade einstein";"faculdade einstein";"";-12.971;-38.511
"faculdade estação";"faculdade estacao";"";-25.428;-49.273
"faculdade paraíso";"faculdade paraiso";"";-22.827;-43.054
"faculdade de sorriso";"faculdade de sorriso";"";-12.545;-55.711
"faculdade paranapanema";"faculdade paranapanema";"";-22.756;-51.379
"faculdade paulista de educação e comunicação";"faculdade paulista de educacao e comunicacao";"";-23.656;-47.223
"faculdade paulista de pesquisa e ensino superior";"faculdade paulista de pesquisa e ensino superior";"";-23.548;-46.636
"faculdade paulista de serviço social";"faculdade paulista de servico social";"";-23.548;-46.636
"faculdade de educação de jaru";"faculdade de educacao de jaru";"";-10.439;-62.466
"faculdade de presidente prudente";"faculdade de presidente prudente";"";-22.126;-51.389
"faculdade presidente antônio carlos de teófilo otoni";"faculdade presidente antonio carlos de teofilo otoni";"";-17.858;-41.505
"instituto salvador de ensino e cultura";"instituto salvador de ensino e cultura";"";-12.971;-38.511
"faculdade santa rita";"faculdade santa rita";"";-20.66;-43.786
"faculdade santo agostinho";"faculdade santo agostinho";"";-5.089;-42.802
"faculdades integradas dos campos gerais";"faculdades integradas dos campos gerais";"";-25.095;-50.162
"faculdades integradas rio branco";"faculdades integradas rio branco";"";-23.548;-46.636
"faculdade de ciências humanas de cruzeiro";"faculdade de ciencias humanas de cruzeiro";"";-22.576;-44.963
"faculdade faccentro";"faculdade faccentro";"";-30.033;-51.23
"universidade presbiteriana mackenzie";"universidade presbiteriana mackenzie";"";-23.548;-46.636
"faculdade união araruama de ensino s/s ltda.";"faculdade uniao araruama de ensino s/s ltda.";"";-22.873;-42.343
"faculdade de tecnologia ensitec";"faculdade de tecnologia ensitec";"";-25.428;-49.273
"faculdade união de goyazes";"faculdade uniao de goyazes";"";-16.649;-49.489
"faculdade visconde de cairú";"faculdade visconde de cairu";"";-12.971;-38.511
"instituto de ensino superior fucapi";"instituto de ensino superior fucapi";"";-3.102;-60.025
"instituto federal de educação, ciência e tecnologia do rio grande do sul";"instituto federal de educacao, ciencia e tecnologia do rio grande do sul";"";-29.171;-51.519
"faculdade minas gerais";"faculdade minas gerais";"";-19.817;-43.956
"escola superior de teologia";"escola superior de teologia";"";-29.76;-51.147
"faculdade adelmar rosado";"faculdade adelmar rosado";"";-5.089;-42.802
"faculdade adventista paranaense";"faculdade adventista paranaense";"";-23.619;-52.221
"faculdade alfacastelo";"faculdade alfacastelo";"";-23.511;-46.876
"instituto superior de educação de barretos";"instituto superior de educacao de barretos";"";-20.557;-48.568
"faculdade dehoniana";"faculdade dehoniana";"";-23.026;-45.555
"imp de ensino superior - imp";"imp de ensino superior - imp";"";-15.78;-47.93
"insper instituto de ensino e pesquisa";"insper instituto de ensino e pesquisa";"";-23.548;-46.636
"instituto de ensino superior franciscano";"instituto de ensino superior franciscano";"";-2.532;-44.108
"faculdade de tecnologia cachoeiro de itapemirim";"faculdade de tecnologia cachoeiro de itapemirim";"";-20.849;-41.113
"faculdade seqüencial";"faculdade sequencial";"";-23.548;-46.636
"faculdade uirapuru";"faculdade uirapuru";"";-23.502;-47.458
"fundação universidade federal do tocantins";"fundacao universidade federal do tocantins";"";-10.167;-48.333
"universidade estadual de goiás";"universidade estadual de goias";"";-16.327;-48.953
"universidade são francisco";"universidade sao francisco";"";-22.952;-46.542
"instituto santo tomás de aquino";"instituto santo tomas de aquino";"";-19.817;-43.956
"instituto superior de educação alvorada plus";"instituto superior de educacao alvorada plus";"";-23.548;-46.636
"instituto superior de educação ateneu";"instituto superior de educacao ateneu";"";-20.33;-40.292
"instituto superior de educação da serra";"instituto superior de educacao da serra";"";-20.129;-40.308
"faculdade de jaguariúna";"faculdade de jaguariuna";"";-22.706;-46.986
"faculdade da igreja ministério fama";"faculdade da igreja ministerio fama";"";-16.679;-49.254
"faculdade de administração";"faculdade de administracao";"";-7.191;-48.207
"faculdade de administração da fespsp";"faculdade de administracao da fespsp";"";-23.548;-46.636
"faculdade de administração de assis";"faculdade de administracao de assis";"";-22.662;-50.412
"faculdade de administração de cataguases";"faculdade de administracao de cataguases";"";-21.389;-42.697
"faculdade de comunicação pitágoras unidade guarapari";"faculdade de comunicacao pitagoras unidade guarapari";"";-20.658;-40.511
"centro universitário facex";"centro universitario facex";"";-5.795;-35.209
"centro universitário luterano de manaus";"centro universitario luterano de manaus";"";-3.102;-60.025
"centro universitário metropolitano de são paulo";"centro universitario metropolitano de sao paulo";"";-23.463;-46.533
"centro universitário módulo";"centro universitario modulo";"";-23.62;-45.413
"faculdade de informática lemos de castro";"faculdade de informatica lemos de castro";"";-22.903;-43.208
"faculdade de tecnologia senai anchieta";"faculdade de tecnologia senai anchieta";"";-23.548;-46.636
"faculdade octógono";"faculdade octogono";"";-23.664;-46.538
"instituto nacional de ensino superior e pós-graduação padre gervásio";"instituto nacional de ensino superior e pos-graduacao padre gervasio";"";-22.23;-45.936
"faculdade canção nova";"faculdade cancao nova";"";-22.665;-45.009
"faculdade casa branca";"faculdade casa branca";"";-21.774;-47.086
"faculdade cásper líbero";"faculdade casper libero";"";-23.548;-46.636
"faculdade católica santa teresinha";"faculdade catolica santa teresinha";"";-6.458;-37.098
"instituto superior de educação de matias barbosa";"instituto superior de educacao de matias barbosa";"";-21.869;-43.319
"faculdade intermunicipal do noroeste do paraná";"faculdade intermunicipal do noroeste do parana";"";-22.923;-53.137
"centro universitário da faculdade de saúde, ciências humanas e tecnológicas do piauí";"centro universitario da faculdade de saude, ciencias humanas e tecnologicas do piaui";"";-5.089;-42.802
"centro regional universitário de espírito santo do pinhal";"centro regional universitario de espirito santo do pinhal";"";-22.191;-46.741
"centro universitário toledo";"centro universitario toledo";"";-21.209;-50.433
"faculdade da serra gaúcha";"faculdade da serra gaucha";"";-29.168;-51.179
"faculdade de americana";"faculdade de americana";"";-22.739;-47.331
"universidade federal do rio grande do norte";"universidade federal do rio grande do norte";"ufrn";-5.795;-35.209
"faculdade de ciências contábeis de nova andradina - facinan";"faculdade de ciencias contabeis de nova andradina - facinan";"";-22.233;-53.343
"faculdade de ilha solteira";"faculdade de ilha solteira";"";-20.433;-51.343
"instituto tecnológico e das ciências sociais aplicadas e da saúde do centro educ. n. srª auxiliadora";"instituto tecnologico e das ciencias sociais aplicadas e da saude do centro educ. n. srª auxiliadora";"";-21.754;-41.324
"escola superior de tecnologia e educação de rio claro";"escola superior de tecnologia e educacao de rio claro";"";-22.411;-47.561
"faculdade alagoana de administração";"faculdade alagoana de administracao";"";-9.666;-35.735
"faculdades integradas padre albino";"faculdades integradas padre albino";"";-21.138;-48.973
"faculdade do guarujá";"faculdade do guaruja";"";-23.993;-46.256
"faculdade do maranhão";"faculdade do maranhao";"";-2.53;-44.303
"faculdade do norte novo de apucarana";"faculdade do norte novo de apucarana";"";-23.551;-51.461
"faculdade do sudeste mineiro";"faculdade do sudeste mineiro";"";-21.764;-43.35
"faculdade de tecnologia rubens lara";"faculdade de tecnologia rubens lara";"";-23.961;-46.334
"faculdade de telêmaco borba";"faculdade de telemaco borba";"";-24.324;-50.616
"faculdade afirmativo";"faculdade afirmativo";"";-15.596;-56.097
"faculdade adjetivo cetep";"faculdade adjetivo cetep";"";-20.378;-43.416
"faculdade de tecnologia estácio de curitiba";"faculdade de tecnologia estacio de curitiba";"";-25.428;-49.273
"faculdade de tecnologia evolução";"faculdade de tecnologia evolucao";"";-3.717;-38.543
"instituto manchester paulista de ensino superior";"instituto manchester paulista de ensino superior";"";-23.502;-47.458
"christus faculdade do piauí";"christus faculdade do piaui";"";-4.273;-41.777
"escola brasileira de administração pública e de empresas";"escola brasileira de administracao publica e de empresas";"";;
"faculdade de roseira";"faculdade de roseira";"";-22.898;-45.305
"faculdade redentor";"faculdade redentor";"";-21.205;-41.888
"faculdade anglo-americano de chapecó";"faculdade anglo-americano de chapeco";"";-27.096;-52.618
"faculdade de educação ciências e letras de paraíso";"faculdade de educacao ciencias e letras de paraiso";"";-10.176;-48.867
"faculdade metropolitana de caieiras";"faculdade metropolitana de caieiras";"";-23.364;-46.741
"faculdade de minas bh";"faculdade de minas bh";"";-19.817;-43.956
"faculdades integradas urubupungá";"faculdades integradas urubupunga";"";-20.638;-51.109
"faculdades integradas vianna júnior";"faculdades integradas vianna junior";"";-21.764;-43.35
"faculdade sul fluminense";"faculdade sul fluminense";"";-22.523;-44.104
"faculdade vale do gorutuba";"faculdade vale do gorutuba";"";-15.803;-43.301
"trevisan escola superior de negócios";"trevisan escola superior de negocios";"";-23.548;-46.636
"união latino-americada de tecnologia";"uniao latino-americada de tecnologia";"";-24.251;-49.706
"faculdade de filosofia, ciências e letras de ibitinga";"faculdade de filosofia, ciencias e letras de ibitinga";"";-21.758;-48.829
"faculdade de ciências sociais aplicadas";"faculdade de ciencias sociais aplicadas";"";-26.962;-52.535
"centro universitário de sete lagoas";"centro universitario de sete lagoas";"";-19.466;-44.247
"universidade municipal de são caetano do sul";"universidade municipal de sao caetano do sul";"";-23.623;-46.551
"universidade federal rural de pernambuco";"universidade federal rural de pernambuco";"ufrpe";-8.054;-34.881
"faculdade entre rios do piauí";"faculdade entre rios do piaui";"";-5.089;-42.802
"faculdade táhirih";"faculdade tahirih";"";-3.102;-60.025
"faculdade cearense";"faculdade cearense";"";-3.717;-38.543
"faculdade presidente antônio carlos de arcos";"faculdade presidente antonio carlos de arcos";"";-20.282;-45.539
"faculdade presidente antônio carlos de elói mendes";"faculdade presidente antonio carlos de eloi mendes";"";-21.61;-45.565
"faculdade presidente antônio carlos de são lourenço";"faculdade presidente antonio carlos de sao lourenco";"";-22.116;-45.054
"faculdade cenecista de sete lagoas";"faculdade cenecista de sete lagoas";"";-19.466;-44.247
"faculdade de direito de contagem";"faculdade de direito de contagem";"";-19.932;-44.054
"faculdade de tecnologia senai jaraguá do sul";"faculdade de tecnologia senai jaragua do sul";"";-26.486;-49.067
"faculdade de belém";"faculdade de belem";"";-1.456;-48.504
"faculdade stella maris";"faculdade stella maris";"";-3.717;-38.543
"faculdade três pontas";"faculdade tres pontas";"";-21.367;-45.513
"universidade estadual de campinas";"universidade estadual de campinas";"";-22.906;-47.061
"faculdade são fidelis";"faculdade sao fidelis";"";-21.646;-41.747
"faculdade são francisco de juazeiro";"faculdade sao francisco de juazeiro";"";-9.414;-40.503
"escola superior de aviação civil";"escola superior de aviacao civil";"";-7.231;-35.881
"faculdade de ciências humanas de fortaleza";"faculdade de ciencias humanas de fortaleza";"";-3.717;-38.543
"faculdade decision de negócios";"faculdade decision de negocios";"";-30.033;-51.23
"faculdade de enfermagem são vicente de paula";"faculdade de enfermagem sao vicente de paula";"";-7.115;-34.863
"faculdade de tecnologia senai antônio adolpho lobbe";"faculdade de tecnologia senai antonio adolpho lobbe";"";-22.018;-47.891
"faculdade de tecnologia senai cetind";"faculdade de tecnologia senai cetind";"";-12.894;-38.327
"faculdade palotina";"faculdade palotina";"";-29.684;-53.807
"faculdade de tecnologia de jahu";"faculdade de tecnologia de jahu";"";-22.296;-48.558
"faculdade escritor osman da costa lins";"faculdade escritor osman da costa lins";"";-8.118;-35.291
"faculdade presidente antônio carlos de almenara";"faculdade presidente antonio carlos de almenara";"";-16.184;-40.694
"faculdade de engenharia e inovação técnico profissi";"faculdade de engenharia e inovacao tecnico profissi";"";-23.425;-51.939
"faculdade de engenharia souza marques";"faculdade de engenharia souza marques";"";-22.903;-43.208
"faculdade de ensino superior da amazônia";"faculdade de ensino superior da amazonia";"";0.039;-51.066
"faculdade de ensino superior de marechal cândido rondon";"faculdade de ensino superior de marechal candido rondon";"";-24.556;-54.057
"faculdade de ensino superior do nordeste";"faculdade de ensino superior do nordeste";"";-7.115;-34.863
"faculdade santa cecília";"faculdade santa cecilia";"";-22.924;-45.462
"pontifícia universidade católica de minas gerais";"pontificia universidade catolica de minas gerais";"";-19.817;-43.956
"universidade federal de juiz de fora";"universidade federal de juiz de fora";"ufjf";-21.764;-43.35
"universidade federal de pelotas";"universidade federal de pelotas";"ufpel";-31.772;-52.343
"universidade federal do amazonas";"universidade federal do amazonas";"ufam";-3.102;-60.025
"faculdade sedac";"faculdade sedac";"";-15.647;-56.133
"faculdade de enfermagem de passos";"faculdade de enfermagem de passos";"";-20.719;-46.61
"faculdade de enfermagem luiza de marillac";"faculdade de enfermagem luiza de marillac";"";-22.903;-43.208
"faculdade de enfermagem nova esperança";"faculdade de enfermagem nova esperanca";"";-7.115;-34.863
"faculdade polis das artes";"faculdade polis das artes";"";-23.649;-46.852
"faculdade de ensino superior da paraíba";"faculdade de ensino superior da paraiba";"";-7.115;-34.863
"instituto taquaritinguense de ensino superior dr. aristides de carvalho schlobach";"instituto taquaritinguense de ensino superior dr. aristides de carvalho schlobach";"";-21.406;-48.505
"faculdade bezerra de araújo";"faculdade bezerra de araujo";"";-22.903;-43.208
"universidade salvador";"universidade salvador";"";-12.971;-38.511
"faculdade brasileira";"faculdade brasileira";"";-20.319;-40.338
"centro universitário senac";"centro universitario senac";"";-23.548;-46.636
"faculdade ccaa";"faculdade ccaa";"";-22.903;-43.208
"universidade severino sombra";"universidade severino sombra";"";-22.404;-43.663
"faculdade pitágoras de ipatinga";"faculdade pitagoras de ipatinga";"";-19.468;-42.537
"faculdade pitágoras de teixeira de freitas";"faculdade pitagoras de teixeira de freitas";"";-17.535;-39.742
"faculdade presidente antônio carlos de uberlândia";"faculdade presidente antonio carlos de uberlandia";"";-18.919;-48.277
"faculdades integradas barros melo";"faculdades integradas barros melo";"";-8.009;-34.855
"faculdade seama";"faculdade seama";"";0.039;-51.066
"faculdade anhangüera de são josé";"faculdade anhanguera de sao jose";"";-23.179;-45.887
"faculdade campo grande";"faculdade campo grande";"";-20.443;-54.646
"faculdade campo real";"faculdade campo real";"";-25.395;-51.458
"faculdade da aldeia de carapicuíba";"faculdade da aldeia de carapicuiba";"";-23.523;-46.836
"faculdade do norte goiano";"faculdade do norte goiano";"";-13.441;-49.149
"faculdade alfa";"faculdade alfa";"";-24.006;-46.403
"faculdade de jussara";"faculdade de jussara";"";-15.865;-50.868
"faculdade de tecnologia de catalão";"faculdade de tecnologia de catalao";"";-18.17;-47.942
"faculdade de tecnologia de diadema luigi papaiz";"faculdade de tecnologia de diadema luigi papaiz";"";-23.686;-46.623
"faculdade de tecnologia de jacareí";"faculdade de tecnologia de jacarei";"";-23.305;-45.966
"faculdade de tecnologia de palmas";"faculdade de tecnologia de palmas";"";-10.167;-48.333
"faculdade de tecnologia de valença";"faculdade de tecnologia de valenca";"";-13.37;-39.073
"faculdade cotemig";"faculdade cotemig";"";-19.817;-43.956
"faculdade ação";"faculdade acao";"";-27.214;-49.643
"faculdade madre tereza";"faculdade madre tereza";"";-0.058;-51.182
"instituto superior de educação de goiana";"instituto superior de educacao de goiana";"";-7.561;-35.003
"instituto superior de educação de guaratuba";"instituto superior de educacao de guaratuba";"";-25.883;-48.575
"universidade federal de são carlos";"universidade federal de sao carlos";"ufscar";-22.018;-47.891
"faculdades futurão";"faculdades futurao";"";-28.935;-49.486
"faculdade de guararapes";"faculdade de guararapes";"";-21.261;-50.643
"faculdade de tecnologia interamérica";"faculdade de tecnologia interamerica";"";-23.548;-46.636
"faculdade politécnica de campinas";"faculdade politecnica de campinas";"";-22.906;-47.061
"faculdades atibaia";"faculdades atibaia";"";-23.117;-46.55
"faculdade de almenara";"faculdade de almenara";"";-16.184;-40.694
"faculdade anhanguera de passo fundo";"faculdade anhanguera de passo fundo";"";-28.263;-52.407
"faculdade anhanguera de pelotas";"faculdade anhanguera de pelotas";"";-31.772;-52.343
"faculdade arthur sá earp neto";"faculdade arthur sa earp neto";"";-22.505;-43.179
"faculdade avantis";"faculdade avantis";"";-26.991;-48.635
"instituto superior de educação de santos dumont";"instituto superior de educacao de santos dumont";"";-21.457;-43.553
"instituto superior de educação de são paulo";"instituto superior de educacao de sao paulo";"";-23.548;-46.636
"instituto superior de educação de tupi paulista";"instituto superior de educacao de tupi paulista";"";-21.381;-51.571
"instituto superior de educação do alto são francisco";"instituto superior de educacao do alto sao francisco";"";-19.16;-45.446
"faculdade reinaldo ramos";"faculdade reinaldo ramos";"";-7.231;-35.881
"universidade estadual de londrina";"universidade estadual de londrina";"";-23.31;-51.163
"faculdade estácio de sá de belo horizonte";"faculdade estacio de sa de belo horizonte";"";-19.817;-43.956
"faculdades integradas de santa fé do sul";"faculdades integradas de santa fe do sul";"";-20.211;-50.926
"universidade federal de uberlândia";"universidade federal de uberlandia";"ufu";-18.919;-48.277
"faculdade vasco da gama";"faculdade vasco da gama";"";-12.971;-38.511
"faculdade cesmac do agreste";"faculdade cesmac do agreste";"";-9.752;-36.661
"faculdade comunitária de guarapari";"faculdade comunitaria de guarapari";"";-20.658;-40.511
"faculdade comunitária de vila velha";"faculdade comunitaria de vila velha";"";-20.33;-40.292
"faculdade comunitária de vitória";"faculdade comunitaria de vitoria";"";-20.319;-40.338
"faculdades integradas paulista";"faculdades integradas paulista";"";-23.548;-46.636
"faculdade de santa catarina";"faculdade de santa catarina";"";-27.615;-48.628
"faculdade de são josé dos campos";"faculdade de sao jose dos campos";"";-23.179;-45.887
"faculdade de sorocaba";"faculdade de sorocaba";"";-23.502;-47.458
"faculdade de tecnologia alfa de umuarama";"faculdade de tecnologia alfa de umuarama";"";-23.766;-53.325
"faculdade de tecnologia álvares de azevedo";"faculdade de tecnologia alvares de azevedo";"";-23.548;-46.636
"faculdade de ciências sociais e agrárias de itapeva";"faculdade de ciencias sociais e agrarias de itapeva";"";-23.982;-48.876
"faculdade faccat";"faculdade faccat";"";-21.935;-50.514
"faculdade juvêncio terra";"faculdade juvencio terra";"";-14.866;-40.839
"faculdade latino americana de educação";"faculdade latino americana de educacao";"";-3.717;-38.543
"faculdade líder";"faculdade lider";"";-8.002;-35.018
"faculdade maranhense são josé dos cocais";"faculdade maranhense sao jose dos cocais";"";-5.094;-42.837
"faculdade maria milza - campus factae";"faculdade maria milza - campus factae";"";-12.67;-39.102
"faculdade anglicana de erechim";"faculdade anglicana de erechim";"";-27.634;-52.274
"faculdade batista do rio de janeiro";"faculdade batista do rio de janeiro";"";-22.903;-43.208
"faculdade brasília de são paulo";"faculdade brasilia de sao paulo";"";-23.548;-46.636
"faculdade calafiori";"faculdade calafiori";"";-20.917;-46.991
"faculdade capivari";"faculdade capivari";"";-28.445;-48.958
"faculdade católica de fortaleza";"faculdade catolica de fortaleza";"";-3.717;-38.543
"faculdade do acre";"faculdade do acre";"";-9.975;-67.81
"faculdade batista de minas gerais";"faculdade batista de minas gerais";"";-19.817;-43.956
"faculdade de tecnologia oswaldo cruz";"faculdade de tecnologia oswaldo cruz";"";-23.548;-46.636
"faculdade de tecnologia pastor dohms";"faculdade de tecnologia pastor dohms";"";-30.033;-51.23
"faculdade de teologia, filosofia e ciências humanas gamaliel";"faculdade de teologia, filosofia e ciencias humanas gamaliel";"";-3.768;-49.673
"faculdade de educação são luís";"faculdade de educacao sao luis";"";-21.255;-48.322
"faculdade da saúde e ecologia humana";"faculdade da saude e ecologia humana";"";-19.692;-43.923
"libertas - faculdades integradas";"libertas - faculdades integradas";"";-20.917;-46.991
"nova faculdade";"nova faculdade";"";-19.932;-44.054
"união de ensino superior de nova mutum";"uniao de ensino superior de nova mutum";"";-13.838;-56.084
"centro universitário municipal de são josé";"centro universitario municipal de sao jose";"";-27.615;-48.628
"faculdade de direito promove";"faculdade de direito promove";"";-19.817;-43.956
"faculdade sant´anna de salto";"faculdade sant´anna de salto";"";-23.201;-47.287
"faculdade de tecnologia senai londrina";"faculdade de tecnologia senai londrina";"";-23.31;-51.163
"faculdade shalom de ensino superior";"faculdade shalom de ensino superior";"";-18.919;-48.277
"faculdades integradas de angeles";"faculdades integradas de angeles";"";-21.209;-50.433
"faculdades integradas de ponta porã";"faculdades integradas de ponta pora";"";-22.536;-55.726
"faculdade de pindamonhangaba";"faculdade de pindamonhangaba";"";-22.924;-45.462
"escola de direito de brasília";"escola de direito de brasilia";"";-15.78;-47.93
"faculdade do seridó";"faculdade do serido";"";-6.261;-36.515
"faculdade educação física de passos";"faculdade educacao fisica de passos";"";-20.719;-46.61
"faculdade educacional de cornélio procópio";"faculdade educacional de cornelio procopio";"";-23.181;-50.647
"faculdade educacional de matelândia";"faculdade educacional de matelandia";"";-25.241;-53.996
"sinal - faculdade de teologia e filosofia";"sinal - faculdade de teologia e filosofia";"";-9.975;-67.81
"faculdade serra do carmo";"faculdade serra do carmo";"";-10.167;-48.333
"faculdade serrana de ensino superior";"faculdade serrana de ensino superior";"";-15.78;-47.93
"faculdades evangélicas integradas cantares de salomão";"faculdades evangelicas integradas cantares de salomao";"";-15.596;-56.097
"faculdade sinergia";"faculdade sinergia";"";-26.899;-48.654
"faculdades integradas adventistas de minas gerais";"faculdades integradas adventistas de minas gerais";"";-21.245;-45
"universidade bandeirante de são paulo";"universidade bandeirante de sao paulo";"";-23.548;-46.636
"universidade nove de julho";"universidade nove de julho";"";-23.548;-46.636
"universidade de são paulo";"universidade de sao paulo";"";-23.548;-46.636
"instituto federal de educação, ciência e tecnologia de goiás";"instituto federal de educacao, ciencia e tecnologia de goias";"";-16.679;-49.254
"centro universitário moacyr sreder bastos";"centro universitario moacyr sreder bastos";"";-22.903;-43.208
"faculdade satc";"faculdade satc";"";-28.678;-49.37
"faculdade guaraí";"faculdade guarai";"";-8.834;-48.51
"faculdade da amazônia";"faculdade da amazonia";"";-1.366;-48.372
"faculdade de mirandópolis";"faculdade de mirandopolis";"";-21.134;-51.102
"faculdade anhangüera de bauru";"faculdade anhanguera de bauru";"";-22.315;-49.061
"faculdade católica rainha do sertão";"faculdade catolica rainha do sertao";"";-4.971;-39.015
"faculdade de ciências sociais aplicadas de cascavel";"faculdade de ciencias sociais aplicadas de cascavel";"";-24.956;-53.455
"faculdade de administração e ciências contábeis de são roque";"faculdade de administracao e ciencias contabeis de sao roque";"";-23.529;-47.135
"faculdade victor hugo";"faculdade victor hugo";"";-22.116;-45.054
"faculdade de nova serrana";"faculdade de nova serrana";"";-19.876;-44.984
"faculdade de palmas";"faculdade de palmas";"";-10.167;-48.333
"faculdade de patrocinio";"faculdade de patrocinio";"";-18.944;-46.993
"faculdade de porto feliz";"faculdade de porto feliz";"";-23.215;-47.524
"faculdade de porto velho";"faculdade de porto velho";"";-8.762;-63.904
"faculdade santo antônio de pádua";"faculdade santo antonio de padua";"";-21.539;-42.18
"faculdade são bento da bahia";"faculdade sao bento da bahia";"";-12.971;-38.511
"faculdade são camilo";"faculdade sao camilo";"";-19.817;-43.956
"faculdade são gabriel";"faculdade sao gabriel";"";-5.089;-42.802
"faculdade são judas tadeu de pinhais";"faculdade sao judas tadeu de pinhais";"";-25.445;-49.193
"faculdade senac pernambuco";"faculdade senac pernambuco";"";-8.054;-34.881
"faculdade ingá";"faculdade inga";"";-23.425;-51.939
"faculdade de castelo";"faculdade de castelo";"";-20.604;-41.185
"faculdade de ceres";"faculdade de ceres";"";-15.308;-49.598
"faculdade de ciência e educação do caparaó";"faculdade de ciencia e educacao do caparao";"";-20.776;-41.679
"faculdade de ciência e tecnologia";"faculdade de ciencia e tecnologia";"";-24.284;-53.84
"faculdade de ciências administrativas";"faculdade de ciencias administrativas";"";-15.596;-56.097
"faculdade de ciências educacionais capim grosso";"faculdade de ciencias educacionais capim grosso";"";-11.381;-40.013
"avm - faculdade integrada";"avm - faculdade integrada";"";;
"faculdade de ciências sociais aplicadas - facisa";"faculdade de ciencias sociais aplicadas - facisa";"";-7.231;-35.881
"faculdade de educação ciências e letras don domênico";"faculdade de educacao ciencias e letras don domenico";"";-23.993;-46.256
"faculdade de ensino superior do centro do paraná";"faculdade de ensino superior do centro do parana";"";-24.757;-51.761
"faculdade de educação física de foz do iguaçu";"faculdade de educacao fisica de foz do iguacu";"";-25.548;-54.588
"universidade federal do rio de janeiro";"universidade federal do rio de janeiro";"ufrj";-22.903;-43.208
"faculdade cal de artes cênicas";"faculdade cal de artes cenicas";"";-22.903;-43.208
"faculdade norte paranaense";"faculdade norte paranaense";"";-23.31;-51.163
"centro universitário campos de andrade";"centro universitario campos de andrade";"";-25.428;-49.273
"faculdade do povo";"faculdade do povo";"";-23.548;-46.636
"faculdade unida de vitória";"faculdade unida de vitoria";"";-20.319;-40.338
"universidade vila velha";"universidade vila velha";"";-20.33;-40.292
"universidade do contestado";"universidade do contestado";"";-26.177;-50.39
"faculdade parque";"faculdade parque";"";-12.971;-38.511
"faculdade modelo";"faculdade modelo";"";-25.428;-49.273
"faculdade montenegro";"faculdade montenegro";"";-14.865;-39.588
"faculdade murialdo";"faculdade murialdo";"";-29.168;-51.179
"faculdade noroeste";"faculdade noroeste";"";-16.679;-49.254
"faculdade xv de agosto";"faculdade xv de agosto";"";-22.591;-46.529
"faculdade de tecnologia de indaiatuba";"faculdade de tecnologia de indaiatuba";"";-23.09;-47.218
"faculdade de agudos";"faculdade de agudos";"";-22.469;-48.988
"faculdade de amambai";"faculdade de amambai";"";;
"faculdade de aracaju";"faculdade de aracaju";"";-10.911;-37.072
"faculdade de cariacica";"faculdade de cariacica";"";-20.264;-40.42
"faculdade de ciências da saúde";"faculdade de ciencias da saude";"";-22.211;-49.656
"faculdades integradas de cataguases";"faculdades integradas de cataguases";"";-21.389;-42.697
"faculdade alfa brasil";"faculdade alfa brasil";"";-24.956;-53.455
"faculdade de odontologia de manaus";"faculdade de odontologia de manaus";"";-3.102;-60.025
"faculdade pitágoras de betim";"faculdade pitagoras de betim";"";-19.968;-44.198
"faculdade guairacá";"faculdade guairaca";"";-25.395;-51.458
"faculdades integradas de jahu";"faculdades integradas de jahu";"";-22.296;-48.558
"faculdade das américas";"faculdade das americas";"";-23.548;-46.636
"faculdade de ciências exatas e humanas da campanha";"faculdade de ciencias exatas e humanas da campanha";"";-21.836;-45.401
"instituto luterano de ensino superior de porto velho";"instituto luterano de ensino superior de porto velho";"";-8.762;-63.904
"faculdade de viçosa";"faculdade de vicosa";"";-20.754;-42.882
"faculdade cidade verde";"faculdade cidade verde";"";-23.425;-51.939
"faculdade comunitária de joão monlevade";"faculdade comunitaria de joao monlevade";"";-19.81;-43.174
"faculdade da alta paulista";"faculdade da alta paulista";"";-21.935;-50.514
"faculdade da fronteira - faf";"faculdade da fronteira - faf";"";-26.254;-53.633
"faculdade sant'ana";"faculdade sant'ana";"";-25.095;-50.162
"faculdades integradas associação de ensino de santa catarina";"faculdades integradas associacao de ensino de santa catarina";"";-27.597;-48.549
"faculdade presbiteriana gammon";"faculdade presbiteriana gammon";"";-21.245;-45
"faculdade presidente antônio carlos de campo belo";"faculdade presidente antonio carlos de campo belo";"";-20.897;-45.277
"faculdade presidente antônio carlos de itabira";"faculdade presidente antonio carlos de itabira";"";-19.619;-43.227
"faculdade presidente antônio carlos de montes claros";"faculdade presidente antonio carlos de montes claros";"";-16.735;-43.862
"faculdade aiec";"faculdade aiec";"";;
"faculdade unida de suzano";"faculdade unida de suzano";"";-23.543;-46.311
"faculdade aum";"faculdade aum";"";-15.596;-56.097
"faculdade zacarias de góes";"faculdade zacarias de goes";"";-13.37;-39.073
"instituto federal de educação, ciência e tecnologia do pará";"instituto federal de educacao, ciencia e tecnologia do para";"";-1.456;-48.504
"universidade estadual de mato grosso do sul";"universidade estadual de mato grosso do sul";"";-22.221;-54.806
"centro universitário barriga verde";"centro universitario barriga verde";"";-28.359;-49.291
"faculdade de ciências e tecnologia do maranhão";"faculdade de ciencias e tecnologia do maranhao";"";-4.859;-43.356
"faculdade de ciências exatas e tecnológicas santo agostinho - facet";"faculdade de ciencias exatas e tecnologicas santo agostinho - facet";"";-16.735;-43.862
"faculdade saberes";"faculdade saberes";"";-20.319;-40.338
"faculdade ceres";"faculdade ceres";"";-20.82;-49.379
"faculdade missioneira do paraná";"faculdade missioneira do parana";"";-24.956;-53.455
"faculdade de tecnologia novo rumo";"faculdade de tecnologia novo rumo";"";-19.817;-43.956
"faculdades riograndenses";"faculdades riograndenses";"";-30.033;-51.23
"faculdade de ciências biomédicas de cacoal";"faculdade de ciencias biomedicas de cacoal";"";-11.438;-61.448
"universidade paulista";"universidade paulista";"";-23.548;-46.636
"universidade estácio de sá";"universidade estacio de sa";"";-22.903;-43.208
"universidade estadual de montes claros";"universidade estadual de montes claros";"";;
"universidade federal de campina grande";"universidade federal de campina grande";"ufcg";-7.231;-35.881
"faculdade pitágoras de poços de caldas";"faculdade pitagoras de pocos de caldas";"";-21.788;-46.561
"faculdade pitágoras de tecnologia de contagem";"faculdade pitagoras de tecnologia de contagem";"";-19.932;-44.054
"faculdade porto-alegrense";"faculdade porto-alegrense";"";-30.033;-51.23
"faculdade redentor de campos";"faculdade redentor de campos";"";-21.754;-41.324
"faculdade regional de alagoinhas";"faculdade regional de alagoinhas";"";-12.136;-38.419
"universidade salgado de oliveira";"universidade salgado de oliveira";"";-22.827;-43.054
"instituto superior de educação do paraná";"instituto superior de educacao do parana";"";;
"faculdade ls";"faculdade ls";"";-15.78;-47.93
"faculdade de macapá";"faculdade de macapa";"";0.039;-51.066
"faculdade frutal";"faculdade frutal";"";-20.025;-48.941
"faculdade global de umuarama";"faculdade global de umuarama";"";-23.766;-53.325
"faculdade paraense de ensino";"faculdade paraense de ensino";"";-1.456;-48.504
"faculdade equipe";"faculdade equipe";"";-29.839;-51.144
"faculdade paranaense";"faculdade paranaense";"";-25.428;-49.273
"faculdade santa amélia";"faculdade santa amelia";"";-25.095;-50.162
"faculdade santa maria";"faculdade santa maria";"";-6.89;-38.562
"faculdade de tecnologia paulista";"faculdade de tecnologia paulista";"";-22.415;-49.817
"faculdade omni";"faculdade omni";"";-22.744;-42.859
"faculdade prisma";"faculdade prisma";"";-16.735;-43.862
"instituto superior de educação de salgueiro";"instituto superior de educacao de salgueiro";"";-8.067;-39.12
"instituto superior de educação equipe";"instituto superior de educacao equipe";"";-29.839;-51.144
"faculdade cathedral";"faculdade cathedral";"";2.82;-60.673
"faculdade hsm";"faculdade hsm";"";-21.71;-47.478
"universidade metropolitana de santos";"universidade metropolitana de santos";"";;
"faculdade pedro ii";"faculdade pedro ii";"";-19.817;-43.956
"faculdade de orlândia";"faculdade de orlandia";"";-20.72;-47.887
"faculdades integradas da união de ensino superior certo";"faculdades integradas da uniao de ensino superior certo";"";-15.78;-47.93
"faneesp - faculdade nacional de educação e ensino superior do paraná";"faneesp - faculdade nacional de educacao e ensino superior do parana";"";-25.593;-49.41
"instituto de educação superior unyahna de barreiras";"instituto de educacao superior unyahna de barreiras";"";-12.153;-44.99
"centro universitário de desenvolvimento do centro-oeste";"centro universitario de desenvolvimento do centro-oeste";"";-16.253;-47.95
"faculdades integradas de rondonópolis";"faculdades integradas de rondonopolis";"";-16.471;-54.636
"faculdade energia de administração e negócios";"faculdade energia de administracao e negocios";"";-27.597;-48.549
"faculdade estácio de sá de vitória";"faculdade estacio de sa de vitoria";"";-20.319;-40.338
"faculdade ibgen - instituto brasileiro de gestão de negócios";"faculdade ibgen - instituto brasileiro de gestao de negocios";"";-30.033;-51.23
"faculdade ined de rio claro";"faculdade ined de rio claro";"";-22.411;-47.561
"faculdade nossa cidade";"faculdade nossa cidade";"";-23.523;-46.836
"faculdade anhanguera de jacareí";"faculdade anhanguera de jacarei";"";-23.305;-45.966
"universidade católica de brasília";"universidade catolica de brasilia";"";-15.78;-47.93
"faculdade anchieta do recife";"faculdade anchieta do recife";"";-8.054;-34.881
"faculdade dom pedro ii";"faculdade dom pedro ii";"";-12.971;-38.511
"faculdade kurios";"faculdade kurios";"";-3.89;-38.686
"faculdade sudamérica";"faculdade sudamerica";"";-21.389;-42.697
"instituto tecnológico de aeronáutica";"instituto tecnologico de aeronautica";"";-23.179;-45.887
"instituto de ensino superior de rondônia";"instituto de ensino superior de rondonia";"";-9.913;-63.041
"instituto federal de educação, ciência e tecnologia de pernambuco";"instituto federal de educacao, ciencia e tecnologia de pernambuco";"";-8.054;-34.881
"universidade de cruz alta";"universidade de cruz alta";"";-28.639;-53.606
"faculdade de pato branco";"faculdade de pato branco";"";-26.229;-52.671
"universidade federal fluminense";"universidade federal fluminense";"uff";-22.883;-43.104
"faculdade evangélica cristo rei";"faculdade evangelica cristo rei";"";-7.359;-41.138
"faculdade guilherme guimbala";"faculdade guilherme guimbala";"";-26.304;-48.846
"faculdade de formação de professores de araripina";"faculdade de formacao de professores de araripina";"";-7.576;-40.498
"faculdade de campina grande";"faculdade de campina grande";"";-7.231;-35.881
"faculdade de ciências econômicas, administrativas e da computação dom bosco";"faculdade de ciencias economicas, administrativas e da computacao dom bosco";"";-22.469;-44.447
"faculdade de ciências e tecnologia de unaí - factu";"faculdade de ciencias e tecnologia de unai - factu";"";-16.358;-46.906
"centro universitário univates";"centro universitario univates";"";-29.467;-51.961
"centro universitário das faculdades associadas de ensino - fae";"centro universitario das faculdades associadas de ensino - fae";"";-21.969;-46.798
"instituto de filosofia e teologia de goiás";"instituto de filosofia e teologia de goias";"";-16.679;-49.254
"instituto galileo de ensino superior";"instituto galileo de ensino superior";"";-5.089;-42.802
"instituto superior de educação de garça";"instituto superior de educacao de garca";"";-22.211;-49.656
"faculdade da fundação educacional araçatuba";"faculdade da fundacao educacional aracatuba";"";-21.209;-50.433
"faculdade de administração de governador valadares";"faculdade de administracao de governador valadares";"";-18.851;-41.949
"faculdade de administração e negócios";"faculdade de administracao e negocios";"";-9.666;-35.735
"faculdade de araçatuba";"faculdade de aracatuba";"";-21.209;-50.433
"faculdade de arte e design";"faculdade de arte e design";"";-20.139;-44.884
"centro universitário de brusque";"centro universitario de brusque";"";-27.098;-48.918
"faculdade salesiana dom bosco de piracicaba";"faculdade salesiana dom bosco de piracicaba";"";-22.725;-47.649
"faculdades unidas do vale do araguaia";"faculdades unidas do vale do araguaia";"";-15.89;-52.257
"faculdade união das américas";"faculdade uniao das americas";"";-25.548;-54.588
"faculdade de tecnologia de teresina";"faculdade de tecnologia de teresina";"";-5.089;-42.802
"faculdade anhanguera de osasco";"faculdade anhanguera de osasco";"";-23.533;-46.792
"universidade do tocantins";"universidade do tocantins";"";;
"faculdade cdl";"faculdade cdl";"";-3.717;-38.543
"faculdade santa catarina";"faculdade santa catarina";"";-8.054;-34.881
"faculdade de tecnologia ibta";"faculdade de tecnologia ibta";"";-23.548;-46.636
"faculdade de tecnologia senai cimatec";"faculdade de tecnologia senai cimatec";"";-12.971;-38.511
"instituto teológico franciscano";"instituto teologico franciscano";"";-22.505;-43.179
"faculdade cidade luz";"faculdade cidade luz";"";-20.433;-51.343
"faculdades unificadas de iúna";"faculdades unificadas de iuna";"";-20.346;-41.536
"universidade regional de blumenau";"universidade regional de blumenau";"";-26.919;-49.066
"centro universitário euro-americano";"centro universitario euro-americano";"";-15.78;-47.93
"pontifícia universidade católica do rio de janeiro";"pontificia universidade catolica do rio de janeiro";"";-22.903;-43.208
"faculdade presidente antônio carlos de bocaiúva";"faculdade presidente antonio carlos de bocaiuva";"";-17.108;-43.815
"universidade federal rural do rio de janeiro";"universidade federal rural do rio de janeiro";"ufrrj";-22.744;-43.708
"faculdade brasil norte";"faculdade brasil norte";"";0.039;-51.066
"faculdade salesiana dom bosco";"faculdade salesiana dom bosco";"";-3.102;-60.025
"universidade do grande rio professor josé de souza herdy";"universidade do grande rio professor jose de souza herdy";"";-22.786;-43.312
"instituto uvb.br";"instituto uvb.br";"";;
"faculdade de tecnologia do senai horácio augusto da silveira";"faculdade de tecnologia do senai horacio augusto da silveira";"";-23.548;-46.636
"faculdade de tecnologia estudante rafael almeida camarinha - marilia";"faculdade de tecnologia estudante rafael almeida camarinha - marilia";"";-22.214;-49.946
"faculdade de administração de itabirito";"faculdade de administracao de itabirito";"";-20.253;-43.801
"universidade são judas tadeu";"universidade sao judas tadeu";"";-23.548;-46.636
"centro universitário claretiano";"centro universitario claretiano";"";;
"faculdade cenecista nossa senhora dos anjos";"faculdade cenecista nossa senhora dos anjos";"";-29.944;-50.992
"faculdade centro mato-grossense";"faculdade centro mato-grossense";"";-12.545;-55.711
"faculdade centro oeste";"faculdade centro oeste";"";-25.408;-52.416
"faculdade centro paulista";"faculdade centro paulista";"";-21.758;-48.829
"faculdade escola paulista de direito";"faculdade escola paulista de direito";"";-23.548;-46.636
"faculdade metodista granbery";"faculdade metodista granbery";"";-21.764;-43.35
"faculdade delta";"faculdade delta";"";-12.971;-38.511
"faculdade arthur thomas";"faculdade arthur thomas";"";-23.31;-51.163
"faculdade iseib de betim";"faculdade iseib de betim";"";-19.968;-44.198
"faculdade asa de brumadinho";"faculdade asa de brumadinho";"";-20.143;-44.2
"faculdade bertioga";"faculdade bertioga";"";-23.854;-46.139
"faculdade educacional de francisco beltrão";"faculdade educacional de francisco beltrao";"";-26.081;-53.055
"faculdades integradas de tangará da serra";"faculdades integradas de tangara da serra";"";-14.619;-57.486
"instituto macapaense de ensino superior";"instituto macapaense de ensino superior";"";0.039;-51.066
"faculdade da academia brasileira de educação e cultura";"faculdade da academia brasileira de educacao e cultura";"";-22.903;-43.208
"faculdade de ciências aplicadas e sociais de petrolina";"faculdade de ciencias aplicadas e sociais de petrolina";"";-9.393;-40.508
"faculdade terra nordeste";"faculdade terra nordeste";"";-3.733;-38.656
"faculdade luterana são marcos";"faculdade luterana sao marcos";"";-29.99;-51.084
"faculdade master de parauapebas - famap";"faculdade master de parauapebas - famap";"";-6.068;-49.902
"faculdade metodista de teologia e ciências humanas da amazônia";"faculdade metodista de teologia e ciencias humanas da amazonia";"";-8.762;-63.904
"faculdade metropolitana do planalto norte";"faculdade metropolitana do planalto norte";"";-26.177;-50.39
"centro universitário una";"centro universitario una";"";-19.817;-43.956
"centro universitário paulistano";"centro universitario paulistano";"";-23.548;-46.636
"faculdade anhanguera de joinville";"faculdade anhanguera de joinville";"";-26.304;-48.846
"faculdade anhanguera de taubaté";"faculdade anhanguera de taubate";"";-23.026;-45.555
"faculdade dinâmica das cataratas";"faculdade dinamica das cataratas";"";-25.548;-54.588
"centro universitário de goiás";"centro universitario de goias";"";-16.679;-49.254
"faculdade horizontina";"faculdade horizontina";"";-27.626;-54.308
"faculdade barretos";"faculdade barretos";"";-20.557;-48.568
"faculdade castro alves";"faculdade castro alves";"";-12.971;-38.511
"faculdade cenecista de joinville - face";"faculdade cenecista de joinville - face";"";-26.304;-48.846
"faculdade do norte pioneiro";"faculdade do norte pioneiro";"";-23.295;-50.077
"faculdade estácio cotia - estácio faac";"faculdade estacio cotia - estacio faac";"";-23.604;-46.919
"faculdade estácio de natal";"faculdade estacio de natal";"";-5.795;-35.209
"faculdade rio claro";"faculdade rio claro";"";-28.388;-53.915
"faculdade baiana de direito e gestão";"faculdade baiana de direito e gestao";"";-12.971;-38.511
"faculdades integradas da upis";"faculdades integradas da upis";"";-15.78;-47.93
"faculdade interação americana";"faculdade interacao americana";"";-23.694;-46.565
"faculdade jesus maria josé";"faculdade jesus maria jose";"";-15.78;-47.93
"faculdade maria milza";"faculdade maria milza";"";-12.67;-39.102
"faculdade processus";"faculdade processus";"";-15.78;-47.93
"faculdade metodista de santa maria";"faculdade metodista de santa maria";"";-29.684;-53.807
"faculdade de tecnologia insaeos";"faculdade de tecnologia insaeos";"";-24.956;-53.455
"faculdade ciências da vida";"faculdade ciencias da vida";"";-19.466;-44.247
"faculdade estácio do pará - estácio fap";"faculdade estacio do para - estacio fap";"";-1.456;-48.504
"faculdade integral diferencial";"faculdade integral diferencial";"";-5.089;-42.802
"instituto de educação superior da paraíba";"instituto de educacao superior da paraiba";"";-7.115;-34.863
"faculdade de tecnologia américa do sul";"faculdade de tecnologia america do sul";"";-23.425;-51.939
"centro universitário fluminense";"centro universitario fluminense";"";-21.754;-41.324
"faculdade tobias barreto";"faculdade tobias barreto";"";-10.911;-37.072
"faculdade educacional da lapa";"faculdade educacional da lapa";"";-25.77;-49.716
"universidade cidade de são paulo";"universidade cidade de sao paulo";"";-23.548;-46.636
"faculdade atenas maranhense";"faculdade atenas maranhense";"";-2.53;-44.303
"faculdade atenas";"faculdade atenas";"";-17.222;-46.875
"universidade santa cecília";"universidade santa cecilia";"";-23.961;-46.334
"faculdade de informática de passos";"faculdade de informatica de passos";"";-20.719;-46.61
"faculdade cândido rondon - fcr";"faculdade candido rondon - fcr";"";-15.596;-56.097
"faculdades integradas da união educacional do planalto central - faciplac";"faculdades integradas da uniao educacional do planalto central - faciplac";"";-15.78;-47.93
"faculdades integradas de ourinhos";"faculdades integradas de ourinhos";"";-22.979;-49.871
"universidade gama filho";"universidade gama filho";"";-22.903;-43.208
"pontifícia universidade católica do paraná";"pontificia universidade catolica do parana";"";-25.428;-49.273
"centro universitário la salle";"centro universitario la salle";"";-29.918;-51.184
"faculdade anglo-americano";"faculdade anglo-americano";"";-25.548;-54.588
"faculdade flamingo";"faculdade flamingo";"";-23.548;-46.636
"faculdades opet";"faculdades opet";"";-25.428;-49.273
"faculdade de odontologia do recife";"faculdade de odontologia do recife";"";-8.054;-34.881
"centro universitário de lins";"centro universitario de lins";"";-21.679;-49.743
"centro universitário do estado do pará";"centro universitario do estado do para";"";-1.456;-48.504
"centro universitário do instituto de ensino superior coc";"centro universitario do instituto de ensino superior coc";"";-21.178;-47.81
"centro universitário do planalto de araxá";"centro universitario do planalto de araxa";"";-19.593;-46.941
"faculdades integradas aparício carvalho";"faculdades integradas aparicio carvalho";"";-8.762;-63.904
"faculdade santa fé";"faculdade santa fe";"";-2.53;-44.303
"faculdade de tecnologia do cooperativismo";"faculdade de tecnologia do cooperativismo";"";-30.033;-51.23
"faculdade de tecnologia em saúde cieph";"faculdade de tecnologia em saude cieph";"";-27.597;-48.549
"faculdade integração tiete";"faculdade integracao tiete";"";-23.102;-47.715
"faculdade la salle";"faculdade la salle";"";-13.05;-55.911
"faculdade lions";"faculdade lions";"";-16.679;-49.254
"faculdade machado de assis";"faculdade machado de assis";"";-22.903;-43.208
"faculdade nova roma";"faculdade nova roma";"";-8.054;-34.881
"faculdade novo hamburgo";"faculdade novo hamburgo";"";-29.678;-51.131
"faculdade pan americana";"faculdade pan americana";"";-1.196;-47.181
"faculdade pitágoras de maceió";"faculdade pitagoras de maceio";"";-9.666;-35.735
"faculdade porto das águas";"faculdade porto das aguas";"";-27.158;-48.553
"faculdade idc";"faculdade idc";"";-30.033;-51.23
"faculdade amadeus";"faculdade amadeus";"";-10.911;-37.072
"universidade de franca";"universidade de franca";"";-20.539;-47.401
"universidade de santa cruz do sul";"universidade de santa cruz do sul";"";-29.718;-52.426
"faculdade de taquaritinga";"faculdade de taquaritinga";"";-21.406;-48.505
"faculdade anglicana de tapejara";"faculdade anglicana de tapejara";"";-28.068;-52.014
"faculdade antonio propicio aguiar franco";"faculdade antonio propicio aguiar franco";"";-10.443;-49.182
"faculdade arquidiocesana de curvelo";"faculdade arquidiocesana de curvelo";"";-18.756;-44.431
"faculdade maurício de nassau de salvador";"faculdade mauricio de nassau de salvador";"";-12.971;-38.511
"faculdades integradas claretianas";"faculdades integradas claretianas";"";-22.411;-47.561
"faculdade sumaré";"faculdade sumare";"";-23.548;-46.636
"faculdade mater dei";"faculdade mater dei";"";-26.229;-52.671
"faculdade fortium";"faculdade fortium";"";-15.78;-47.93
"faculdade meta";"faculdade meta";"";-9.975;-67.81
"faculdade do espírito santo";"faculdade do espirito santo";"";-20.849;-41.113
"faculdade dottori";"faculdade dottori";"";-23.548;-46.636
"faculdades integradas de naviraí";"faculdades integradas de navirai";"";-23.065;-54.191
"faculdade comunitária de administração da serra";"faculdade comunitaria de administracao da serra";"";-20.129;-40.308
"faculdade de administração de empresas ibrafem";"faculdade de administracao de empresas ibrafem";"";-22.761;-47.154
"universidade estadual de maringá";"universidade estadual de maringa";"";-23.425;-51.939
"universidade federal de viçosa";"universidade federal de vicosa";"ufv";-20.754;-42.882
"faculdade de fortaleza";"faculdade de fortaleza";"";-3.717;-38.543
"faculdade portal";"faculdade portal";"";-28.263;-52.407
"faculdade itanhaém";"faculdade itanhaem";"";-24.183;-46.789
"faculdade fidelis";"faculdade fidelis";"";-25.428;-49.273
"faculdade são francisco da paraíba";"faculdade sao francisco da paraiba";"";-6.89;-38.562
"faculdade são geraldo";"faculdade sao geraldo";"";-20.264;-40.42
"faculdade são judas tadeu";"faculdade sao judas tadeu";"";-22.903;-43.208
"faculdade são luís de frança";"faculdade sao luis de franca";"";-10.911;-37.072
"faculdade senac minas";"faculdade senac minas";"";-19.932;-44.054
"faculdades joão paulo ii";"faculdades joao paulo ii";"";-28.263;-52.407
"escola superior de propaganda e marketing de porto alegre";"escola superior de propaganda e marketing de porto alegre";"";-30.033;-51.23
"escola superior de propaganda e marketing do rio de janeiro";"escola superior de propaganda e marketing do rio de janeiro";"";-22.903;-43.208
"faculdade de ciências sociais aplicadas do vale do são lourenço";"faculdade de ciencias sociais aplicadas do vale do sao lourenco";"";-15.965;-54.968
"faculdade de comunicação e marketing da - fundação armando álvares penteado";"faculdade de comunicacao e marketing da - fundacao armando alvares penteado";"";-23.548;-46.636
"faculdade ranchariense";"faculdade ranchariense";"";-22.229;-50.893
"faculdade anhanguera de anápolis";"faculdade anhanguera de anapolis";"";-16.327;-48.953
"faculdade impacta de tecnologia";"faculdade impacta de tecnologia";"";-23.548;-46.636
"faculdade evangélica";"faculdade evangelica";"";-15.78;-47.93
"instituto paulista de ensino";"instituto paulista de ensino";"";-23.533;-46.792
"faculdade de ensino de minas gerais";"faculdade de ensino de minas gerais";"";-19.817;-43.956
"faculdade presidente antônio carlos de raul soares";"faculdade presidente antonio carlos de raul soares";"";-20.102;-42.453
"instituto superior de educação de iguape";"instituto superior de educacao de iguape";"";-24.708;-47.555
"centro universitário fundação santo andré";"centro universitario fundacao santo andre";"";-23.664;-46.538
"faculdades integradas do extremo sul da bahia";"faculdades integradas do extremo sul da bahia";"";-16.378;-39.58
"faculdade astorga";"faculdade astorga";"";-23.233;-51.666
"faculdade dom bosco de ubiratã";"faculdade dom bosco de ubirata";"";-24.545;-52.988
"faculdade cenecista de sinop";"faculdade cenecista de sinop";"";-11.864;-55.504
"faculdade reges de osvaldo cruz";"faculdade reges de osvaldo cruz";"";-21.797;-50.89
"faculdade regional serrana";"faculdade regional serrana";"";-20.34;-41.135
"faculdade reunida";"faculdade reunida";"";-20.433;-51.343
"faculdade salesiana de santa teresa";"faculdade salesiana de santa teresa";"";-18.507;-54.76
"faculdade santa helena";"faculdade santa helena";"";-8.054;-34.881
"faculdade santa rita de cássia";"faculdade santa rita de cassia";"";-18.42;-49.218
"instituto superior de ciências da saúde";"instituto superior de ciencias da saude";"";-19.817;-43.956
"instituto superior de educação de pesqueira";"instituto superior de educacao de pesqueira";"";-8.358;-36.696
"faculdade de administração da associação brasiliense de educação";"faculdade de administracao da associacao brasiliense de educacao";"";-28.449;-52.2
"faculdade cenecista ilha do governador";"faculdade cenecista ilha do governador";"";-22.903;-43.208
"faculdade cesmac do sertão";"faculdade cesmac do sertao";"";-9.407;-36.628
"faculdade alternativa de ensino superior do agreste - faesa";"faculdade alternativa de ensino superior do agreste - faesa";"";-9.752;-36.661
"faculdade de minas";"faculdade de minas";"";-21.131;-42.366
"pontifícia universidade católica de campinas";"pontificia universidade catolica de campinas";"";-22.906;-47.061
"faculdade estácio de santo andré";"faculdade estacio de santo andre";"";-23.664;-46.538
"faculdade evangélica do paraná";"faculdade evangelica do parana";"";-25.428;-49.273
"faculdade fapan";"faculdade fapan";"";-23.694;-46.565
"faculdade de tecnologia fama";"faculdade de tecnologia fama";"";-8.054;-34.881
"faculdades integradas olga mettig";"faculdades integradas olga mettig";"";-12.971;-38.511
"faculdade araguaia";"faculdade araguaia";"";-16.679;-49.254
"faculdade boa viagem";"faculdade boa viagem";"";-8.054;-34.881
"universidade de passo fundo";"universidade de passo fundo";"";-28.263;-52.407
"faculdade eça de queiros";"faculdade eca de queiros";"";-23.528;-46.903
"faculdade barddal";"faculdade barddal";"";-27.597;-48.549
"faculdade de ciências humanas, econômicas e da saúde de araguaína";"faculdade de ciencias humanas, economicas e da saude de araguaina";"";-7.191;-48.207
"faculdade evilásio formiga";"faculdade evilasio formiga";"";-6.89;-38.562
"faculdade evolução alto oeste potiguar";"faculdade evolucao alto oeste potiguar";"";-6.111;-38.209
"faculdade geremário dantas";"faculdade geremario dantas";"";-22.903;-43.208
"faculdade ideal paulista";"faculdade ideal paulista";"";-23.356;-47.857
"faculdade sudoeste paulista";"faculdade sudoeste paulista";"";-23.099;-48.926
"faculdade de informática e administração paulista";"faculdade de informatica e administracao paulista";"";-23.548;-46.636
"faculdade de medicina do abc";"faculdade de medicina do abc";"";-23.664;-46.538
"instituto federal de educação, ciência e tecnologia de roraima";"instituto federal de educacao, ciencia e tecnologia de roraima";"";2.82;-60.673
"instituto federal de educação, ciência e tecnologia do sertão pernambucano";"instituto federal de educacao, ciencia e tecnologia do sertao pernambucano";"";-9.393;-40.508
"escola bahiana de medicina e saúde pública";"escola bahiana de medicina e saude publica";"";-12.971;-38.511
"faculdade de tecnologia apoena";"faculdade de tecnologia apoena";"";-3.717;-38.543
"faculdade guarapuava";"faculdade guarapuava";"";-25.395;-51.458
"faculdade de educação da serra";"faculdade de educacao da serra";"";-20.129;-40.308
"faculdade curitibana";"faculdade curitibana";"";-25.428;-49.273
"faculdade de castanhal";"faculdade de castanhal";"";-1.297;-47.922
"faculdade presidente antônio carlos de ponte nova";"faculdade presidente antonio carlos de ponte nova";"";-20.416;-42.909
"faculdade projeção de sobradinho";"faculdade projecao de sobradinho";"";-15.78;-47.93
"faculdade anhanguera de valparaíso";"faculdade anhanguera de valparaiso";"";-16.066;-47.979
"escola de estudos superiores de viçosa";"escola de estudos superiores de vicosa";"";-20.754;-42.882
"pontifícia universidade católica do rio grande do sul";"pontificia universidade catolica do rio grande do sul";"";-30.033;-51.23
"faculdade unime de educação e comunicação";"faculdade unime de educacao e comunicacao";"";-12.894;-38.327
"instituto católico de estudos superiores do piauí";"instituto catolico de estudos superiores do piaui";"";-5.089;-42.802
"faculdade são bento do rio de janeiro";"faculdade sao bento do rio de janeiro";"";-22.903;-43.208
"faculdade caraguá";"faculdade caragua";"";-23.62;-45.413
"faculdade de direito da serra";"faculdade de direito da serra";"";-20.129;-40.308
"instituto federal de educação, ciencia e tecnologia de brasilia";"instituto federal de educacao, ciencia e tecnologia de brasilia";"";-15.78;-47.93
"instituto federal de educação, ciência e tecnologia de sergipe";"instituto federal de educacao, ciencia e tecnologia de sergipe";"";-10.911;-37.072
"instituto superior de educação anísio teixeira";"instituto superior de educacao anisio teixeira";"";-20.022;-44.059
"faculdade anhanguera de rio claro";"faculdade anhanguera de rio claro";"";-22.411;-47.561
"universidade federal do maranhão";"universidade federal do maranhao";"ufma";-2.53;-44.303
"faculdade de tecnologia de porto alegre";"faculdade de tecnologia de porto alegre";"";-30.033;-51.23
"faculdade de tecnologia equipe darwin";"faculdade de tecnologia equipe darwin";"";-15.78;-47.93
"faculdade luso-brasileira";"faculdade luso-brasileira";"";-7.851;-35.255
"centro universitário de araras -";"centro universitario de araras -";"";-22.357;-47.384
"faculdade de caldas novas";"faculdade de caldas novas";"";-17.744;-48.626
"faculdade presidente antônio carlos de betim";"faculdade presidente antonio carlos de betim";"";-19.968;-44.198
"faculdades integradas antônio eufrásio de toledo de presidente prudente";"faculdades integradas antonio eufrasio de toledo de presidente prudente";"";-22.126;-51.389
"faculdade de ciências econômicas e administrativas santa rita de cássia";"faculdade de ciencias economicas e administrativas santa rita de cassia";"";-23.548;-46.636
"faculdade projeção";"faculdade projecao";"";-15.78;-47.93
"faculdade assis gurgacz";"faculdade assis gurgacz";"";-24.956;-53.455
"faculdade são paulo";"faculdade sao paulo";"";-11.733;-61.778
"universidade santa úrsula";"universidade santa ursula";"";-22.903;-43.208
"faculdade de filosofia ciências e letras de congonhas";"faculdade de filosofia ciencias e letras de congonhas";"";-20.5;-43.858
"faculdade evangélica do meio norte";"faculdade evangelica do meio norte";"";-4.13;-44.124
"faculdade filadélfia";"faculdade filadelfia";"";-21.178;-47.81
"faculdade finom de patos de minas";"faculdade finom de patos de minas";"";-18.579;-46.518
"faculdade marista";"faculdade marista";"";-8.054;-34.881
"faculdade de getúlio vargas";"faculdade de getulio vargas";"";-27.89;-52.228
"faculdade piauiense";"faculdade piauiense";"";-2.905;-41.777
"faculdade de tecnologia senai itajaí";"faculdade de tecnologia senai itajai";"";-26.908;-48.662
"faculdade nordeste";"faculdade nordeste";"";-3.717;-38.543
"faculdade integrada das cataratas";"faculdade integrada das cataratas";"";-25.548;-54.588
"faculdade internacional do delta";"faculdade internacional do delta";"";-2.905;-41.777
"faculdade internacional signorelli";"faculdade internacional signorelli";"";-22.903;-43.208
"faculdade de ciências jurídicas e sociais aplicadas do araguaia";"faculdade de ciencias juridicas e sociais aplicadas do araguaia";"";-15.89;-52.257
"faculdade metropolitana de rio do sul";"faculdade metropolitana de rio do sul";"";-27.214;-49.643
"faculdade de tecnologia de itapetininga - prof.antônio belizandro barbosa rezende";"faculdade de tecnologia de itapetininga - prof.antonio belizandro barbosa rezende";"";-23.592;-48.053
"faculdade de tecnologia ibratec de joão pessoa";"faculdade de tecnologia ibratec de joao pessoa";"";-7.115;-34.863
"faculdade dinâmica do vale do piranga";"faculdade dinamica do vale do piranga";"";-20.416;-42.909
"faculdade são francisco de barreiras - fasb";"faculdade sao francisco de barreiras - fasb";"";-12.153;-44.99
"escola superior de administração de empresas";"escola superior de administracao de empresas";"";-23.179;-45.887
"faculdade divinópolis";"faculdade divinopolis";"";-20.139;-44.884
"instituto de ensino superior thathi";"instituto de ensino superior thathi";"";-21.209;-50.433
"faculdade de ciências, saúde, exatas e jurídicas de teresina";"faculdade de ciencias, saude, exatas e juridicas de teresina";"";-5.089;-42.802
"faculdade jk - asa norte";"faculdade jk - asa norte";"";-15.78;-47.93
"faculdade estácio de curitiba";"faculdade estacio de curitiba";"";-25.428;-49.273
"faculdade estácio montessori de ibiúna";"faculdade estacio montessori de ibiuna";"";-23.656;-47.223
"faculdade jesuíta de filosofia e teologia";"faculdade jesuita de filosofia e teologia";"";-19.817;-43.956
"faculdade jk - brasília - unidade plano piloto";"faculdade jk - brasilia - unidade plano piloto";"";-15.78;-47.93
"faculdade jk de tecnologia";"faculdade jk de tecnologia";"";-15.78;-47.93
"faculdade jk - unidade ii - gama";"faculdade jk - unidade ii - gama";"";-15.78;-47.93
"faculdade espírito santense";"faculdade espirito santense";"";-20.264;-40.42
"centro universitário da fundação educacional inaciana pe sabóia de medeiros";"centro universitario da fundacao educacional inaciana pe saboia de medeiros";"";-23.694;-46.565
"faculdade espírito santense de ciências jurídicas";"faculdade espirito santense de ciencias juridicas";"";-20.264;-40.42
"universidade nilton lins";"universidade nilton lins";"";-3.102;-60.025
"centro universitário franciscano";"centro universitario franciscano";"";-29.684;-53.807
"centro universitário padre anchieta";"centro universitario padre anchieta";"";-23.186;-46.884
"faculdade santa terezinha";"faculdade santa terezinha";"";-15.78;-47.93
"faculdade fipecafi";"faculdade fipecafi";"";-23.548;-46.636
"faculdade de tecnologia de sorocaba";"faculdade de tecnologia de sorocaba";"";-23.502;-47.458
"faculdade de tecnologia senai cic";"faculdade de tecnologia senai cic";"";-25.428;-49.273
"faculdade américa latina";"faculdade america latina";"";-29.168;-51.179
"centro universitário ritter dos reis";"centro universitario ritter dos reis";"";-30.033;-51.23
"faculdade de direito de passos";"faculdade de direito de passos";"";-20.719;-46.61
"faculdade de tecnologia de ourinhos";"faculdade de tecnologia de ourinhos";"";-22.979;-49.871
"faculdade cbes";"faculdade cbes";"";-25.428;-49.273
"instituto superior de educação elvira dayrell";"instituto superior de educacao elvira dayrell";"";-18.823;-42.704
"universidade estadual do norte fluminense darcy ribeiro";"universidade estadual do norte fluminense darcy ribeiro";"";-21.754;-41.324
"instituto municipal de ensino superior de catanduva";"instituto municipal de ensino superior de catanduva";"";-21.138;-48.973
"faculdade capixaba de nova venécia";"faculdade capixaba de nova venecia";"";-18.711;-40.401
"faculdade cruz azul";"faculdade cruz azul";"";-23.548;-46.636
"faculdade cuiabá";"faculdade cuiaba";"";-15.596;-56.097
"faculdade cenecista de nova petrópolis";"faculdade cenecista de nova petropolis";"";-29.376;-51.114
"faculdade de colider";"faculdade de colider";"";-10.813;-55.455
"faculdade messianica";"faculdade messianica";"";-23.548;-46.636
"faculdade zumbi dos palmares";"faculdade zumbi dos palmares";"";-23.548;-46.636
"instituto superior de ensino e pesquisa de ituiutaba";"instituto superior de ensino e pesquisa de ituiutaba";"";-18.969;-49.465
"faculdade prudente de moraes";"faculdade prudente de moraes";"";-23.264;-47.299
"união de escolas superiores da funeso";"uniao de escolas superiores da funeso";"";-8.009;-34.855
"unidade de ensino superior dom bosco";"unidade de ensino superior dom bosco";"";-2.53;-44.303
"faculdade das águas emendadas - fae";"faculdade das aguas emendadas - fae";"";-15.78;-47.93
"faculdade itapuranga";"faculdade itapuranga";"";-15.562;-49.949
"faculdade pinhalzinho";"faculdade pinhalzinho";"";-26.848;-52.992
"instituto superior de educação padrão";"instituto superior de educacao padrao";"";-16.679;-49.254
"faculdade do amazonas";"faculdade do amazonas";"";-3.102;-60.025
"instituto de educação superior de pouso alegre";"instituto de educacao superior de pouso alegre";"";-22.23;-45.936
"instituto de ensino superior materdei";"instituto de ensino superior materdei";"";-3.102;-60.025
"instituto de filosofia e de teologia paulo vi";"instituto de filosofia e de teologia paulo vi";"";-22.759;-43.451
"instituto logos de educação superior";"instituto logos de educacao superior";"";-9.558;-37.381
"faculdade de filosofia ciências e letras de ituverava";"faculdade de filosofia ciencias e letras de ituverava";"";-20.339;-47.781
"faculdade de filosofia, ciências e letras do alto são francisco";"faculdade de filosofia, ciencias e letras do alto sao francisco";"";-19.801;-45.686
"faculdade santo augusto";"faculdade santo augusto";"";-27.851;-53.777
"faculdade européia de administração e marketing";"faculdade europeia de administracao e marketing";"";-8.113;-35.015
"faculdade de medicina estácio de juazeiro do norte";"faculdade de medicina estacio de juazeiro do norte";"";-7.213;-39.315
"faculdade de pará de minas";"faculdade de para de minas";"";-19.86;-44.608
"instituto superior do litoral do paraná";"instituto superior do litoral do parana";"";-25.52;-48.509
"faculdade anhanguera de matão";"faculdade anhanguera de matao";"";-21.603;-48.366
"faculdade ruy barbosa";"faculdade ruy barbosa";"";-12.971;-38.511
"faculdades integradas ipiranga";"faculdades integradas ipiranga";"";-1.456;-48.504
"faculdades integradas interamericanas";"faculdades integradas interamericanas";"";-23.548;-46.636
"faculdade santa marcelina";"faculdade santa marcelina";"";-23.548;-46.636
"faculdade serigy";"faculdade serigy";"";-10.911;-37.072
"universidade de rio verde";"universidade de rio verde";"";-17.798;-50.928
"faculdade de odontologia";"faculdade de odontologia";"";-7.191;-48.207
"faculdade rio sono";"faculdade rio sono";"";-8.968;-48.175
"faculdade de tecnologia intensiva de parnaíba";"faculdade de tecnologia intensiva de parnaiba";"";-2.905;-41.777
"centro universitário fecap";"centro universitario fecap";"";-23.548;-46.636
"faculdade do sertão";"faculdade do sertao";"";-11.304;-41.856
"universidade do estado do amazonas";"universidade do estado do amazonas";"";-3.102;-60.025
"escola dominicana de teologia";"escola dominicana de teologia";"";-23.548;-46.636
"faculdade de imperatriz";"faculdade de imperatriz";"";-5.526;-47.476
"universidade federal do piauí";"universidade federal do piaui";"ufpi";-5.089;-42.802
"faculdade de apucarana";"faculdade de apucarana";"";-23.551;-51.461
"faculdade do sul";"faculdade do sul";"";-14.786;-39.28
"faculdade asces";"faculdade asces";"";-8.283;-35.976
"faculdade projeção de ceilândia";"faculdade projecao de ceilandia";"";-15.78;-47.93
"faculdade vale do salgado";"faculdade vale do salgado";"";-6.401;-38.862
"faculdade vizinhança vale do iguaçu";"faculdade vizinhanca vale do iguacu";"";-25.734;-53.057
"faculdade catuaí";"faculdade catuai";"";-23.276;-51.278
"faculdade pitágoras de governador valadares";"faculdade pitagoras de governador valadares";"";-18.851;-41.949
"faculdade angel vianna";"faculdade angel vianna";"";-22.903;-43.208
"faculdade de arujá";"faculdade de aruja";"";-23.396;-46.321
"faculdade projeção do guará";"faculdade projecao do guara";"";-15.78;-47.93
"faculdade nossa senhora de fátima";"faculdade nossa senhora de fatima";"";-29.168;-51.179
"faculdade do noroeste paranaense";"faculdade do noroeste paranaense";"";-23.184;-52.205
"universidade de taubaté";"universidade de taubate";"";-23.026;-45.555
"faculdade associada brasil";"faculdade associada brasil";"";-23.548;-46.636
"faculdade evangélica de são paulo";"faculdade evangelica de sao paulo";"";-23.548;-46.636
"faculdade meridional";"faculdade meridional";"";-28.263;-52.407
"faculdade sergipana";"faculdade sergipana";"";-10.911;-37.072
"faculdade de tecnologia de taquaritinga";"faculdade de tecnologia de taquaritinga";"";-21.406;-48.505
"faculdade de tecnologia ipanema";"faculdade de tecnologia ipanema";"";-23.502;-47.458
"faculdade mato grosso do sul";"faculdade mato grosso do sul";"";-20.443;-54.646
"faculdade de tecnologia de osasco - prefeito hirant sanazar";"faculdade de tecnologia de osasco - prefeito hirant sanazar";"";-23.533;-46.792
"faculdade de tecnologia do amapá";"faculdade de tecnologia do amapa";"";0.039;-51.066
"centro universitário de volta redonda";"centro universitario de volta redonda";"";-22.523;-44.104
"faculdade sinop";"faculdade sinop";"";-11.864;-55.504
"faculdade comunitária de carangola";"faculdade comunitaria de carangola";"";-20.733;-42.029
"faculdade anhanguera de são caetano";"faculdade anhanguera de sao caetano";"";-23.623;-46.551
"faculdade integrada euclides fernandes";"faculdade integrada euclides fernandes";"";-13.858;-40.084
"faculdade paschoal dantas";"faculdade paschoal dantas";"";-23.548;-46.636
"centro universitário do instituto de educação superior de brasília - iesb";"centro universitario do instituto de educacao superior de brasilia - iesb";"";-15.78;-47.93
"faculdade da escada";"faculdade da escada";"";-8.359;-35.224
"centro universitário do norte";"centro universitario do norte";"";-3.102;-60.025
"faculdade eniac";"faculdade eniac";"";-23.463;-46.533
"faculdades spei";"faculdades spei";"";-25.428;-49.273
"faculdades magsul";"faculdades magsul";"";-22.536;-55.726
"faculdade cenecista de itaboraí";"faculdade cenecista de itaborai";"";-22.744;-42.859
"faculdade maringá";"faculdade maringa";"";-23.425;-51.939
"instituto de ensino superior blauro cardoso de mattos";"instituto de ensino superior blauro cardoso de mattos";"";-20.129;-40.308
"faculdade são luís";"faculdade sao luis";"";-27.098;-48.918
"instituto federal de educação, ciência e tecnologia de mato grosso do sul";"instituto federal de educacao, ciencia e tecnologia de mato grosso do sul";"";-22.536;-55.726
"faculdade integral cantareira";"faculdade integral cantareira";"";-23.548;-46.636
"faculdade arnaldo horácio ferreira";"faculdade arnaldo horacio ferreira";"";-12.092;-45.805
"faculdade de artes plásticas da fundação armando alvares penteado";"faculdade de artes plasticas da fundacao armando alvares penteado";"";-23.548;-46.636
"faculdade maurício de nassau de lauro freitas";"faculdade mauricio de nassau de lauro freitas";"";-12.894;-38.327
"faculdade pitágoras de contagem";"faculdade pitagoras de contagem";"";-19.932;-44.054
"faculdade presidente antônio carlos de congonhas";"faculdade presidente antonio carlos de congonhas";"";-20.5;-43.858
"faculdade batista pioneira";"faculdade batista pioneira";"";-28.388;-53.915
"escola superior de administração e gestão da baixada santista";"escola superior de administracao e gestao da baixada santista";"";-23.961;-46.334
"escola superior nacional de seguros de são paulo";"escola superior nacional de seguros de sao paulo";"";-23.548;-46.636
"faculdade católica de santa catarina";"faculdade catolica de santa catarina";"";-27.597;-48.549
"faculdade apoio";"faculdade apoio";"";-12.894;-38.327
"faculdade fae blumenau";"faculdade fae blumenau";"";-26.919;-49.066
"instituto de estudos superiores da amazônia";"instituto de estudos superiores da amazonia";"";-1.456;-48.504
"centro universitário católico salesiano auxilium";"centro universitario catolico salesiano auxilium";"";-21.209;-50.433
"faculdade de ciências jurídicas e gerenciais de garça";"faculdade de ciencias juridicas e gerenciais de garca";"";-22.211;-49.656
"faculdade marechal rondon";"faculdade marechal rondon";"";-22.731;-48.571
"faculdade de mato grosso";"faculdade de mato grosso";"";-15.596;-56.097
"faculdade de educação e ciências humanas de anicuns";"faculdade de educacao e ciencias humanas de anicuns";"";-16.461;-49.962
"faculdade de ensino superior santa barbara";"faculdade de ensino superior santa barbara";"";-23.356;-47.857
"faculdade de ponta porã";"faculdade de ponta pora";"";-22.536;-55.726
"faculdade de tecnologia albert einstein";"faculdade de tecnologia albert einstein";"";-23.548;-46.636
"centro universitário metodista izabela hendrix";"centro universitario metodista izabela hendrix";"";-19.817;-43.956
"faculdade aldete maria alves";"faculdade aldete maria alves";"";-19.728;-50.196
"faculdades integradas de itapetininga";"faculdades integradas de itapetininga";"";-23.592;-48.053
"faculdade campos elíseos";"faculdade campos eliseos";"";-23.548;-46.636
"universidade positivo";"universidade positivo";"";-25.428;-49.273
"universidade cruzeiro do sul";"universidade cruzeiro do sul";"";-23.548;-46.636
"faculdades integradas torricelli";"faculdades integradas torricelli";"";-23.463;-46.533
"universidade católica dom bosco";"universidade catolica dom bosco";"";-20.443;-54.646
"universidade do vale do itajaí";"universidade do vale do itajai";"";-26.908;-48.662
"universidade federal de ouro preto";"universidade federal de ouro preto";"ufop";-20.288;-43.508
"universidade federal do oeste do pará";"universidade federal do oeste do para";"ufopa";-2.443;-54.708
"universidade de cuiabá";"universidade de cuiaba";"";-15.596;-56.097
"faculdade metropolitana de marabá";"faculdade metropolitana de maraba";"";-5.369;-49.118
"faculdade união";"faculdade uniao";"";-23.548;-46.636
"faculdade orígenes lessa";"faculdade origenes lessa";"";-22.599;-48.8
"faculdade santíssimo sacramento";"faculdade santissimo sacramento";"";-12.136;-38.419
"escola superior da amazônia";"escola superior da amazonia";"";-1.456;-48.504
"faculdade ibmec distrito federal";"faculdade ibmec distrito federal";"";-15.78;-47.93
"faculdade de estudos sociais aplicados de viana";"faculdade de estudos sociais aplicados de viana";"";-20.39;-40.496
"instituto de ensino superior e formação avançada de vitória";"instituto de ensino superior e formacao avancada de vitoria";"";-20.319;-40.338
"faculdade de direito professor damásio de jesus";"faculdade de direito professor damasio de jesus";"";-23.548;-46.636
"faculdade de ensino superior km 125";"faculdade de ensino superior km 125";"";-23.181;-50.647
"faculdade de farmácia e bioquímica";"faculdade de farmacia e bioquimica";"";-7.191;-48.207
"faculdade de filosofia ciências e letras";"faculdade de filosofia ciencias e letras";"";-7.114;-34.978
"faculdade de conchas";"faculdade de conchas";"";-23.015;-48.011
"faculdade são francisco de assis";"faculdade sao francisco de assis";"";-30.033;-51.23
"faculdade dos guararapes";"faculdade dos guararapes";"";-8.113;-35.015
"faculdade dom alberto";"faculdade dom alberto";"";-29.718;-52.426
"faculdade fucape";"faculdade fucape";"";-20.319;-40.338
"faculdade gammon";"faculdade gammon";"";-22.413;-50.576
"faculdade gennari e peartree";"faculdade gennari e peartree";"";-22.352;-48.775
"faculdade atual";"faculdade atual";"";0.039;-51.066
"faculdade presidente antônio carlos de nova lima";"faculdade presidente antonio carlos de nova lima";"";-19.986;-43.847
"faculdade anchieta de ensino superior do paraná";"faculdade anchieta de ensino superior do parana";"";-25.428;-49.273
"faculdade avec de vilhena";"faculdade avec de vilhena";"";-12.741;-60.146
"faculdade béthencourt da silva";"faculdade bethencourt da silva";"";-22.903;-43.208
"faculdade betim";"faculdade betim";"";-19.968;-44.198
"faculdade cambury de formosa";"faculdade cambury de formosa";"";-15.537;-47.334
"faculdade católica de anápolis";"faculdade catolica de anapolis";"";-16.327;-48.953
"faculdade de ensino superior dom bosco";"faculdade de ensino superior dom bosco";"";-23.181;-50.647
"instituto de educação superior raimundo sá";"instituto de educacao superior raimundo sa";"";-7.077;-41.467
"faculdade de filosofia, ciências e letras de itapetininga";"faculdade de filosofia, ciencias e letras de itapetininga";"";-23.592;-48.053
"faculdade monteiro lobato";"faculdade monteiro lobato";"";-30.033;-51.23
"faculdade padre anchieta de cajamar";"faculdade padre anchieta de cajamar";"";-23.356;-46.877
"faculdade do tapajós";"faculdade do tapajos";"";-4.276;-55.984
"instituto militar de engenharia";"instituto militar de engenharia";"";-22.903;-43.208
"faculdade de formação de professores de penedo";"faculdade de formacao de professores de penedo";"";-10.29;-36.586
"faculdade de mantena";"faculdade de mantena";"";-18.782;-40.98
"faculdade de marília";"faculdade de marilia";"";-22.214;-49.946
"faculdade de tecnologia do ipiranga";"faculdade de tecnologia do ipiranga";"";-23.548;-46.636
"faculdade de tecnologia e ciências de jequié";"faculdade de tecnologia e ciencias de jequie";"";-13.858;-40.084
"universidade braz cubas";"universidade braz cubas";"";-23.523;-46.188
"faculdade presidente antônio carlos de ubá";"faculdade presidente antonio carlos de uba";"";-21.12;-42.943
"faculdade três de maio";"faculdade tres de maio";"";-27.773;-54.24
"faculdade de engenharia de resende";"faculdade de engenharia de resende";"";-22.469;-44.447
"faculdades esefap";"faculdades esefap";"";-21.935;-50.514
"faculdade são vicente";"faculdade sao vicente";"";-9.748;-37.437
"faculdade serra da mesa";"faculdade serra da mesa";"";-14.525;-49.141
"faculdade novos horizontes";"faculdade novos horizontes";"";-19.817;-43.956
"faculdade tamandaré";"faculdade tamandare";"";-16.679;-49.254
"faculdade castelo branco";"faculdade castelo branco";"";-19.539;-40.631
"faculdades integradas soares de oliveira";"faculdades integradas soares de oliveira";"";-20.557;-48.568
"faculdades integradas stella maris de andradina";"faculdades integradas stella maris de andradina";"";-20.896;-51.379
"escola superior de ciências da santa casa de misericórdia de vitória";"escola superior de ciencias da santa casa de misericordia de vitoria";"";-20.319;-40.338
"faculdade corporativa cespi";"faculdade corporativa cespi";"";-23.194;-49.384
"faculdade cristo rei";"faculdade cristo rei";"";-23.181;-50.647
"faculdade comunitária de pedagogia da serra";"faculdade comunitaria de pedagogia da serra";"";-20.129;-40.308
"faculdade de administração da fundação armando alvares penteado";"faculdade de administracao da fundacao armando alvares penteado";"";-23.548;-46.636
"faculdade de biblioteconomia e ciência da informação";"faculdade de biblioteconomia e ciencia da informacao";"";-23.548;-46.636
"faculdade metropolitana";"faculdade metropolitana";"";-8.762;-63.904
"centro universitário de votuporanga";"centro universitario de votuporanga";"";-20.423;-49.973
"instituto superior de educação ceres";"instituto superior de educacao ceres";"";-20.82;-49.379
"faculdade do sul da bahia";"faculdade do sul da bahia";"";-17.535;-39.742
"universidade estadual do rio grande do sul";"universidade estadual do rio grande do sul";"";-30.039;-52.894
"centro de ensino superior de uberaba";"centro de ensino superior de uberaba";"";-19.748;-47.932
"faculdade sete de setembro";"faculdade sete de setembro";"";-3.717;-38.543
"centro de ensino superior de vitória";"centro de ensino superior de vitoria";"";-20.319;-40.338
"centro de ensino superior do vale do parnaíba";"centro de ensino superior do vale do parnaiba";"";-5.089;-42.802
"faculdade de administração ciências econ e contábeis de guaratinguetá";"faculdade de administracao ciencias econ e contabeis de guaratingueta";"";-22.816;-45.193
"faculdade de administração de chapadão do sul";"faculdade de administracao de chapadao do sul";"";-18.794;-52.623
"universidade de itaúna";"universidade de itauna";"";-20.075;-44.576
"universidade estadual do oeste do paraná";"universidade estadual do oeste do parana";"";-24.956;-53.455
"faculdade são josé";"faculdade sao jose";"";-22.903;-43.208
"faculdade esamc santos";"faculdade esamc santos";"";-23.961;-46.334
"faculdade figueiredo costa - fic";"faculdade figueiredo costa - fic";"";-9.666;-35.735
"faculdade intesp";"faculdade intesp";"";-23.057;-49.626
"faculdade do vale do jaguaribe";"faculdade do vale do jaguaribe";"";-4.562;-37.77
"universidade federal da paraíba";"universidade federal da paraiba";"ufpb";-7.115;-34.863
"faculdade são salvador";"faculdade sao salvador";"";-12.971;-38.511
"faculdade educacional de araucária";"faculdade educacional de araucaria";"";-25.593;-49.41
"faculdade facmil";"faculdade facmil";"";-20.82;-49.379
"faculdade juiz de fora";"faculdade juiz de fora";"";-21.764;-43.35
"faculdade machado sobrinho";"faculdade machado sobrinho";"";-21.764;-43.35
"universidade católica de pelotas";"universidade catolica de pelotas";"";-31.772;-52.343
"faculdade são tomás de aquino";"faculdade sao tomas de aquino";"";-9.407;-36.628
"instituto educacional de castro";"instituto educacional de castro";"";-24.791;-50.012
"faculdade de são lourenço";"faculdade de sao lourenco";"";-22.116;-45.054
"faculdade de são vicente";"faculdade de sao vicente";"";-23.963;-46.392
"faculdade do centro leste";"faculdade do centro leste";"";-20.129;-40.308
"faculdade max planck";"faculdade max planck";"";-23.09;-47.218
"faculdade cidade de joão pinheiro";"faculdade cidade de joao pinheiro";"";-17.743;-46.173
"faculdade anhanguera de cuiabá";"faculdade anhanguera de cuiaba";"";-15.596;-56.097
"instituto belo horizonte de ensino superior";"instituto belo horizonte de ensino superior";"";-19.817;-43.956
"faculdade mercúrio";"faculdade mercurio";"";-22.903;-43.208
"faculdade metodista de ciências humanas e exatas";"faculdade metodista de ciencias humanas e exatas";"";-21.289;-50.34
"faculdade de rondônia";"faculdade de rondonia";"";-8.762;-63.904
"faculdade novo milênio";"faculdade novo milenio";"";-20.33;-40.292
"faculdade pitágoras de divinópolis - fpd";"faculdade pitagoras de divinopolis - fpd";"";-20.139;-44.884
"faculdade pitágoras de londrina";"faculdade pitagoras de londrina";"";-23.31;-51.163
"faculdades integradas de taquara";"faculdades integradas de taquara";"";-29.651;-50.781
"faculdade ateneu";"faculdade ateneu";"";-3.717;-38.543
"centro universitário da grande dourados";"centro universitario da grande dourados";"";-22.221;-54.806
"faculdade de informática de cuiabá";"faculdade de informatica de cuiaba";"";-15.596;-56.097
"faculdade pio décimo";"faculdade pio decimo";"";-10.911;-37.072
"faculdades unificadas de foz do iguaçu";"faculdades unificadas de foz do iguacu";"";-25.548;-54.588
"faculdades network - campus sumaré";"faculdades network - campus sumare";"";-22.822;-47.267
"faculdades universitas";"faculdades universitas";"";-23.961;-46.334
"faculdade dom bosco";"faculdade dom bosco";"";-25.428;-49.273
"faculdade cidade do salvador";"faculdade cidade do salvador";"";-12.971;-38.511
"faculdade santo agostinho de sete lagoas";"faculdade santo agostinho de sete lagoas";"";-19.466;-44.247
"faculdades integradas desembargador sávio brandão - fausb";"faculdades integradas desembargador savio brandao - fausb";"";-15.647;-56.133
"centro de estudos superiores aprendiz";"centro de estudos superiores aprendiz";"";-21.226;-43.774
"universidade de santo amaro";"universidade de santo amaro";"";-23.548;-46.636
"faculdade network";"faculdade network";"";-22.778;-47.296
"faculdade da cidade de maceió";"faculdade da cidade de maceio";"";-9.666;-35.735
"faculdade de administração e artes de limeira";"faculdade de administracao e artes de limeira";"";-22.565;-47.402
"faculdade do bico do papagaio";"faculdade do bico do papagaio";"";-5.466;-47.888
"faculdade do médio parnaíba";"faculdade do medio parnaiba";"";-5.929;-42.719
"faculdade mineirense";"faculdade mineirense";"";-17.569;-52.551
"faculdade de jandaia do sul";"faculdade de jandaia do sul";"";-23.603;-51.643
"faculdade educacional araucária";"faculdade educacional araucaria";"";-25.428;-49.273
"faculdade educacional de ponta grossa";"faculdade educacional de ponta grossa";"";-25.095;-50.162
"faculdade estácio de sá de vila velha";"faculdade estacio de sa de vila velha";"";-20.33;-40.292
"universidade de sorocaba";"universidade de sorocaba";"";-23.502;-47.458
"faculdade de realeza";"faculdade de realeza";"";-25.767;-53.527
"faculdade de informática de ouro preto do oeste";"faculdade de informatica de ouro preto do oeste";"";-10.716;-62.248
"faculdade de inhumas - fac-mais";"faculdade de inhumas - fac-mais";"";-16.358;-49.496
"faculdade de itapecerica da serra";"faculdade de itapecerica da serra";"";-23.717;-46.849
"faculdade de tecnologia nova palhoça";"faculdade de tecnologia nova palhoca";"";-27.645;-48.668
"instituto florence de ensino superior";"instituto florence de ensino superior";"";-2.53;-44.303
"faculdade ideal";"faculdade ideal";"";-1.456;-48.504
"faculdade do piauí";"faculdade do piaui";"";-5.089;-42.802
"faculdade eduvale de avaré";"faculdade eduvale de avare";"";-23.099;-48.926
"faculdades pitágoras unidade guarapari";"faculdades pitagoras unidade guarapari";"";-20.658;-40.511
"faculdade pernambucana de saúde";"faculdade pernambucana de saude";"";-8.054;-34.881
"faculdade peruibe";"faculdade peruibe";"";-24.32;-46.998
"fiam-faam - centro universitário";"fiam-faam - centro universitario";"";-23.548;-46.636
"escola superior são francisco de assis";"escola superior sao francisco de assis";"";-19.936;-40.6
"faculdade anhangüera de ribeirão preto";"faculdade anhanguera de ribeirao preto";"";-21.178;-47.81
"faculdade maurício de nassau de belém";"faculdade mauricio de nassau de belem";"";-1.456;-48.504
"faculdade morumbi sul";"faculdade morumbi sul";"";-23.548;-46.636
"escola de medicina souza marques da fundação técnico-educacional souza marques";"escola de medicina souza marques da fundacao tecnico-educacional souza marques";"";-22.903;-43.208
"faculdade mundial";"faculdade mundial";"";-23.548;-46.636
"instituto superior e centro educacional luterano - bom jesus - ielusc";"instituto superior e centro educacional luterano - bom jesus - ielusc";"";-26.304;-48.846
"faculdades integradas de caratinga";"faculdades integradas de caratinga";"";-19.79;-42.139
"escola de ciências do trabalho";"escola de ciencias do trabalho";"";-23.548;-46.636
"universidade estadual de alagoas - uneal";"universidade estadual de alagoas - uneal";"";-9.752;-36.661
"universidade federal de lavras";"universidade federal de lavras";"ufla";-21.245;-45
"faculdades integradas machado de assis";"faculdades integradas machado de assis";"";-27.871;-54.481
"faculdade albert einstein";"faculdade albert einstein";"";-15.78;-47.93
"faculdade anhanguera de santa bárbara";"faculdade anhanguera de santa barbara";"";-22.754;-47.414
"faculdade estácio de sá de juiz de fora";"faculdade estacio de sa de juiz de fora";"";-21.764;-43.35
"faculdade integrada metropolitana de campinas";"faculdade integrada metropolitana de campinas";"";-22.906;-47.061
"faculdade literatus";"faculdade literatus";"";-3.102;-60.025
"instituto metropolitano de ensino superior";"instituto metropolitano de ensino superior";"";-19.468;-42.537
"faculdade sul brasil";"faculdade sul brasil";"";-24.714;-53.743
"centro de ensino superior do amapá";"centro de ensino superior do amapa";"";0.039;-51.066
"faculdade triângulo mineiro";"faculdade triangulo mineiro";"";-18.969;-49.465
"faculdade villas boas";"faculdade villas boas";"";-23.548;-46.636
"faculdade de saúde de paulista";"faculdade de saude de paulista";"";-7.941;-34.873
"faculdade de sistema de informação";"faculdade de sistema de informacao";"";-7.191;-48.207
"faculdade de tecnologia de barretos";"faculdade de tecnologia de barretos";"";-20.557;-48.568
"faculdade de tecnologia inspirar";"faculdade de tecnologia inspirar";"";-25.428;-49.273
"faculdade de tecnologia integral";"faculdade de tecnologia integral";"";-25.428;-49.273
"universidade fumec";"universidade fumec";"";-19.817;-43.956
"faculdade de tecnologia de presidente prudente";"faculdade de tecnologia de presidente prudente";"";-22.126;-51.389
"faculdade de ciências sociais aplicadas de sinop";"faculdade de ciencias sociais aplicadas de sinop";"";-11.864;-55.504
"centro universitário do triângulo";"centro universitario do triangulo";"";-18.919;-48.277
"faculdade esamc sorocaba";"faculdade esamc sorocaba";"";-23.502;-47.458
"universidade camilo castelo branco";"universidade camilo castelo branco";"";-23.548;-46.636
"universidade católica do salvador";"universidade catolica do salvador";"";-12.971;-38.511
"faculdade raízes";"faculdade raizes";"";-16.327;-48.953
"centro universitário geraldo di biase";"centro universitario geraldo di biase";"";-22.523;-44.104
"centro universitário internacional";"centro universitario internacional";"";-25.428;-49.273
"faculdade kennedy";"faculdade kennedy";"";-19.81;-43.174
"faculdades integradas campos salles";"faculdades integradas campos salles";"";-23.548;-46.636
"faculdades integradas simonsen";"faculdades integradas simonsen";"";-22.903;-43.208
"faculdade social da bahia";"faculdade social da bahia";"";-12.971;-38.511
"faculdade cenecista de varginha";"faculdade cenecista de varginha";"";-21.551;-45.43
"faculdade cidade de coromandel";"faculdade cidade de coromandel";"";-18.473;-47.2
"faculdade comunitária de juiz de fora";"faculdade comunitaria de juiz de fora";"";-21.764;-43.35
"faculdade de alta floresta";"faculdade de alta floresta";"";-9.876;-56.086
"faculdade de tecnologia senac criciúma";"faculdade de tecnologia senac criciuma";"";-28.678;-49.37
"universidade do grande abc";"universidade do grande abc";"";-23.664;-46.538
"faculdade de medicina de campos";"faculdade de medicina de campos";"";-21.754;-41.324
"faculdade eficaz";"faculdade eficaz";"";-23.425;-51.939
"faculdade bi minas";"faculdade bi minas";"";-19.817;-43.956
"faculdades unificadas de teófilo otoni";"faculdades unificadas de teofilo otoni";"";-17.858;-41.505
"fundação universidade federal do vale do são francisco";"fundacao universidade federal do vale do sao francisco";"";-9.393;-40.508
"instituto de ensino superior de alagoas";"instituto de ensino superior de alagoas";"";-9.666;-35.735
"faculdade de tecnologia de barueri";"faculdade de tecnologia de barueri";"";-23.511;-46.876
"instituto de ensino superior de londrina - inesul";"instituto de ensino superior de londrina - inesul";"";-23.31;-51.163
"faculdade educacional de arapoti";"faculdade educacional de arapoti";"";-24.158;-49.827
"centro universitário do espírito santo";"centro universitario do espirito santo";"";-19.539;-40.631
"instituto são paulo de estudos superiores";"instituto sao paulo de estudos superiores";"";-23.548;-46.636
"faculdade de engenharia de sorocaba";"faculdade de engenharia de sorocaba";"";-23.502;-47.458
"faculdade de ouro preto do oeste";"faculdade de ouro preto do oeste";"";-10.716;-62.248
"faculdade de direito de franca";"faculdade de direito de franca";"";-20.539;-47.401
"centro universitário franciscano do paraná";"centro universitario franciscano do parana";"";-25.428;-49.273
"centro universitário luterano de ji-paraná";"centro universitario luterano de ji-parana";"";-10.882;-61.944
"faculdade de direito da fundação armando alvares penteado";"faculdade de direito da fundacao armando alvares penteado";"";-23.548;-46.636
"faculdade de direito de garanhuns";"faculdade de direito de garanhuns";"";-8.89;-36.493
"faculdade de direito de tangará da serra";"faculdade de direito de tangara da serra";"";-14.619;-57.486
"faculdade de lucélia";"faculdade de lucelia";"";-21.72;-51.019
"faculdade de sabará";"faculdade de sabara";"";-19.886;-43.807
"instituto cenecista fayal de ensino superior";"instituto cenecista fayal de ensino superior";"";-26.908;-48.662
"instituto de educação e ensino superior de campinas";"instituto de educacao e ensino superior de campinas";"";-22.906;-47.061
"instituto de ensino superior de mato grosso";"instituto de ensino superior de mato grosso";"";-15.596;-56.097
"faculdade adventista da bahia";"faculdade adventista da bahia";"";-12.618;-38.956
"universidade federal de santa maria";"universidade federal de santa maria";"ufsm";-29.684;-53.807
"faculdade de tecnologia senai telêmaco borba";"faculdade de tecnologia senai telemaco borba";"";-24.324;-50.616
"instituto de ensino superior joão alfredo de andrade";"instituto de ensino superior joao alfredo de andrade";"";-19.952;-44.343
"instituto de ensino superior santa cecília";"instituto de ensino superior santa cecilia";"";-9.752;-36.661
"instituto de estudos superiores do maranhão";"instituto de estudos superiores do maranhao";"";-2.53;-44.303
"faculdade de tecnologia de guarulhos";"faculdade de tecnologia de guarulhos";"";-23.463;-46.533
"universidade tiradentes";"universidade tiradentes";"";-10.911;-37.072
"faculdade de tecnologia intensiva";"faculdade de tecnologia intensiva";"";-3.717;-38.543
"faculdade de educação e tecnologia da região missioneira";"faculdade de educacao e tecnologia da regiao missioneira";"";-28.021;-54.936
"faculdade de tecnologia de pindamonhangaba";"faculdade de tecnologia de pindamonhangaba";"";-22.924;-45.462
"faculdade de enfermagem do hospital israelita albert einstein";"faculdade de enfermagem do hospital israelita albert einstein";"";-23.548;-46.636
"faculdade são sebastião";"faculdade sao sebastiao";"";-23.76;-45.41
"faculdades associadas de uberaba - fazu";"faculdades associadas de uberaba - fazu";"";-19.748;-47.932
"faculdade de bauru";"faculdade de bauru";"";-22.315;-49.061
"faculdade central de cristalina";"faculdade central de cristalina";"";-16.769;-47.614
"escola superior de criciúma - esucri";"escola superior de criciuma - esucri";"";-28.678;-49.37
"faculdade unime de ciências sociais";"faculdade unime de ciencias sociais";"";-12.894;-38.327
"faculdade vértice";"faculdade vertice";"";-20.284;-42.341
"instituto de ensino superior da grande florianópolis";"instituto de ensino superior da grande florianopolis";"";-27.615;-48.628
