Id,Label,Modularity Class,City,State,Country,Latitude,Longitude,Source,Target,Kind,Type,Weight,In-Degree,Out-Degree,Degree,Weighted Degree,Weighted In-Degree,Weighted Out-Degree
1,florianopolis,,florianopolis,santa catarina,brazil,-27.597,-48.549,,,,,,227,124,351,7657.0,3552.0,4105.0
2,philadelphia,,philadelphia,pennsylvania,united states,39.95233,-75.16379,,,,,,3,28,31,113.0,6.0,107.0
3,braga,,braga,braga,portugal,41.55032,-8.42005,,,,,,19,60,79,386.0,102.0,284.0
4,ottawa,,ottawa,ontario,canada,45.41117,-75.69812,,,,,,6,23,29,71.0,15.0,56.0
5,sao paulo,,sao paulo,sao paulo,brazil,-23.548,-46.636,,,,,,315,314,629,49575.0,19566.0,30009.0
6,ithaca,,ithaca,new york,united states,42.44063,-76.49661,,,,,,8,51,59,214.0,15.0,199.0
7,lavras,,lavras,minas gerais,brazil,-21.245,-45.0,,,,,,81,95,176,1995.0,788.0,1207.0
8,alfenas,,alfenas,minas gerais,brazil,-21.429,-45.947,,,,,,49,21,70,517.0,446.0,71.0
9,brasilia,,brasilia,federal district,brazil,-15.78,-47.93,,,,,,236,117,353,6746.0,3900.0,2846.0
10,londrina,,londrina,parana,brazil,-23.31,-51.163,,,,,,109,61,170,2163.0,1551.0,612.0
11,feira de santana,,feira de santana,bahia,brazil,-12.267,-38.967,,,,,,58,24,82,587.0,485.0,102.0
12,cambridge,,cambridge,england,united kingdom,52.2,0.11667,,,,,,12,42,54,234.0,31.0,203.0
13,rio de janeiro,,rio de janeiro,rio de janeiro,brazil,-22.903,-43.208,,,,,,262,190,452,26102.0,11643.0,14459.0
14,rio grande,,rio grande,rio grande do sul,brazil,-32.035,-52.099,,,,,,61,43,104,1017.0,667.0,350.0
15,curitiba,,curitiba,parana,brazil,-25.428,-49.273,,,,,,253,136,389,10341.0,6336.0,4005.0
16,sao luis,,sao luis,maranhao,brazil,-2.53,-44.303,,,,,,93,19,112,1323.0,1195.0,128.0
17,manaus,,manaus,amazonas,brazil,-3.102,-60.025,,,,,,121,55,176,1884.0,1358.0,526.0
18,uberlandia,,uberlandia,minas gerais,brazil,-18.919,-48.277,,,,,,130,90,220,2636.0,1749.0,887.0
19,caceres,,caceres,mato grosso,brazil,-16.071,-57.679,,,,,,47,5,52,365.0,357.0,8.0
20,niteroi,,niteroi,rio de janeiro,brazil,-22.883,-43.104,,,,,,160,106,266,4442.0,2643.0,1799.0
21,ilheus,,ilheus,bahia,brazil,-14.789,-39.049,,,,,,74,17,91,522.0,459.0,63.0
22,santos,,santos,sao paulo,brazil,-23.961,-46.334,,,,,,21,10,31,231.0,207.0,24.0
23,montevideo,,montevideo,montevideo,uruguay,-34.90328,-56.18816,,,,,,23,13,36,78.0,49.0,29.0
24,breves,,breves,para,brazil,-1.682,-50.48,,,,,,28,7,35,105.0,96.0,9.0
25,bauru,,bauru,sao paulo,brazil,-22.315,-49.061,,,,,,233,228,461,13073.0,5467.0,7606.0
26,new haven,,new haven,connecticut,united states,41.30815,-72.92816,,,,,,4,27,31,127.0,11.0,116.0
27,belem,,belem,para,brazil,-1.456,-48.504,,,,,,148,56,204,3278.0,2250.0,1028.0
28,santa maria,,santa maria,rio grande do sul,brazil,-29.684,-53.807,,,,,,137,84,221,2811.0,1775.0,1036.0
29,canoas,,canoas,rio grande do sul,brazil,-29.918,-51.184,,,,,,37,20,57,414.0,350.0,64.0
30,bage,,bage,rio grande do sul,brazil,-31.331,-54.107,,,,,,55,4,59,516.0,510.0,6.0
31,atlanta,,atlanta,georgia,united states,33.749,-84.38798,,,,,,5,25,30,72.0,8.0,64.0
32,fort collins,,fort collins,colorado,united states,40.58526,-105.08442,,,,,,5,29,34,55.0,5.0,50.0
33,passo fundo,,passo fundo,rio grande do sul,brazil,-28.263,-52.407,,,,,,50,13,63,340.0,299.0,41.0
34,salamanca,,salamanca,madrid,spain,40.42972,-3.67975,,,,,,4,48,52,196.0,27.0,169.0
35,valladolid,,valladolid,castille and león,spain,41.65518,-4.72372,,,,,,5,25,30,70.0,16.0,54.0
36,campinas,,campinas,sao paulo,brazil,-22.906,-47.061,,,,,,234,229,463,15459.0,4991.0,10468.0
37,apucarana,,apucarana,parana,brazil,-23.551,-51.461,,,,,,7,1,8,11.0,10.0,1.0
38,garching bei munchen,,garching bei munchen,bavaria,germany,48.24896,11.65101,,,,,,5,35,40,148.0,12.0,136.0
39,vitoria,,vitoria,espirito santo,brazil,-20.319,-40.338,,,,,,127,60,187,2102.0,1642.0,460.0
40,evora,,evora,évora,portugal,38.56667,-7.9,,,,,,8,29,37,90.0,31.0,59.0
41,umuarama,,umuarama,parana,brazil,-23.766,-53.325,,,,,,26,4,30,108.0,100.0,8.0
42,pelotas,,pelotas,rio grande do sul,brazil,-31.772,-52.343,,,,,,111,69,180,2057.0,1272.0,785.0
43,sao leopoldo,,sao leopoldo,rio grande do sul,brazil,-29.76,-51.147,,,,,,76,80,156,986.0,491.0,495.0
44,taubate,,taubate,sao paulo,brazil,-23.026,-45.555,,,,,,26,18,44,298.0,254.0,44.0
45,cambridge,,cambridge,massachusetts,united states,42.3751,-71.10561,,,,,,11,51,62,249.0,19.0,230.0
46,minneapolis,,minneapolis,minnesota,united states,44.97997,-93.26384,,,,,,6,32,38,112.0,12.0,100.0
47,tokyo,,tokyo,tōkyō,japan,35.6895,139.69171,,,,,,2,15,17,29.0,2.0,27.0
48,vitoria da conquista,,vitoria da conquista,bahia,brazil,-14.866,-40.839,,,,,,49,14,63,486.0,444.0,42.0
49,salvador,,salvador,bahia,brazil,-12.971,-38.511,,,,,,185,83,268,5205.0,3052.0,2153.0
50,belo horizonte,,belo horizonte,minas gerais,brazil,-19.817,-43.956,,,,,,245,151,396,10828.0,5323.0,5505.0
51,maringa,,maringa,parana,brazil,-23.425,-51.939,,,,,,100,76,176,2248.0,1390.0,858.0
52,goiania,,goiania,goias,brazil,-16.679,-49.254,,,,,,156,62,218,3322.0,2380.0,942.0
53,paulinia,,paulinia,sao paulo,brazil,-22.761,-47.154,,,,,,2,0,2,5.0,5.0,0.0
54,recife,,recife,pernambuco,brazil,-8.054,-34.881,,,,,,222,100,322,7930.0,4232.0,3698.0
55,americana,,americana,sao paulo,brazil,-22.739,-47.331,,,,,,6,0,6,20.0,20.0,0.0
56,vicosa,,vicosa,minas gerais,brazil,-20.754,-42.882,,,,,,119,122,241,3720.0,1328.0,2392.0
57,araras,,araras,sao paulo,brazil,-22.357,-47.384,,,,,,10,3,13,73.0,69.0,4.0
58,medford,,medford,massachusetts,united states,42.41843,-71.10616,,,,,,2,12,14,35.0,4.0,31.0
59,guarulhos,,guarulhos,sao paulo,brazil,-23.463,-46.533,,,,,,132,120,252,5734.0,2501.0,3233.0
60,porto alegre,,porto alegre,rio grande do sul,brazil,-30.033,-51.23,,,,,,239,160,399,12522.0,4925.0,7597.0
61,oxford,,oxford,england,united kingdom,51.75222,-1.25596,,,,,,8,55,63,286.0,19.0,267.0
62,castanhal,,castanhal,para,brazil,-1.297,-47.922,,,,,,2,0,2,2.0,2.0,0.0
63,los angeles,,los angeles,california,united states,34.05223,-118.24368,,,,,,8,38,46,185.0,14.0,171.0
64,new york city,,new york city,new york,united states,40.71427,-74.00597,,,,,,11,59,70,437.0,30.0,407.0
65,riverside,,riverside,california,united states,33.95335,-117.39616,,,,,,12,41,53,114.0,16.0,98.0
66,baltimore,,baltimore,maryland,united states,39.29038,-76.61219,,,,,,7,32,39,129.0,11.0,118.0
67,berlin,,berlin,berlin,germany,52.52437,13.41053,,,,,,3,47,50,152.0,8.0,144.0
68,tres coracoes,,tres coracoes,minas gerais,brazil,-21.697,-45.253,,,,,,8,5,13,35.0,27.0,8.0
69,medellin,,medellin,departamento de antioquia,colombia,6.25184,-75.56359,,,,,,11,2,13,21.0,17.0,4.0
70,guarapuava,,guarapuava,parana,brazil,-25.395,-51.458,,,,,,41,5,46,392.0,374.0,18.0
71,ribeirao preto,,ribeirao preto,sao paulo,brazil,-21.178,-47.81,,,,,,50,105,155,1870.0,553.0,1317.0
72,paris,,paris,île-de-france,france,48.85341,2.3488,,,,,,28,99,127,1292.0,96.0,1196.0
73,lorena,,lorena,sao paulo,brazil,-22.731,-45.125,,,,,,11,22,33,141.0,73.0,68.0
74,barcelona,,barcelona,catalonia,spain,41.38879,2.15899,,,,,,10,100,110,696.0,86.0,610.0
75,joao pessoa,,joao pessoa,paraiba,brazil,-7.115,-34.863,,,,,,148,64,212,3376.0,1986.0,1390.0
76,palo alto,,palo alto,california,united states,37.44188,-122.14302,,,,,,8,46,54,252.0,21.0,231.0
77,santiago,,santiago,santiago,chile,-33.45694,-70.64827,,,,,,16,18,34,68.0,34.0,34.0
78,padova,,padova,veneto,italy,45.40797,11.88586,,,,,,3,19,22,41.0,4.0,37.0
79,macapa,,macapa,amapa,brazil,0.039,-51.066,,,,,,150,38,188,2418.0,2326.0,92.0
80,juiz de fora,,juiz de fora,minas gerais,brazil,-21.764,-43.35,,,,,,93,37,130,1431.0,1189.0,242.0
81,utrecht,,utrecht,utrecht,netherlands,52.09083,5.12222,,,,,,4,12,16,28.0,6.0,22.0
82,ica,,ica,ica,peru,-14.06777,-75.72861,,,,,,0,0,0,0.0,0.0,0.0
83,chatenay malabry,,chatenay malabry,île-de-france,france,48.76507,2.26655,,,,,,3,37,40,125.0,4.0,121.0
84,seropedica,,seropedica,rio de janeiro,brazil,-22.744,-43.708,,,,,,79,79,158,1780.0,993.0,787.0
85,madrid,,madrid,madrid,spain,40.4165,-3.70256,,,,,,15,77,92,519.0,62.0,457.0
86,la plata,,la plata,buenos aires,argentina,-34.92145,-57.95453,,,,,,5,15,20,71.0,25.0,46.0
87,santa fe de la vera cruz,,santa fe de la vera cruz,santa fe,argentina,-31.63333,-60.7,,,,,,6,15,21,59.0,18.0,41.0
88,covilha,,covilha,castelo branco,portugal,40.28601,-7.50396,,,,,,8,13,21,44.0,20.0,24.0
89,centro habana,,centro habana,ciudad de la habana,cuba,23.13833,-82.36417,,,,,,9,29,38,124.0,38.0,86.0
90,fortaleza,,fortaleza,ceara,brazil,-3.717,-38.543,,,,,,191,72,263,5003.0,2917.0,2086.0
91,buenos aires,,buenos aires,buenos aires f.d.,argentina,-34.61315,-58.37723,,,,,,16,45,61,252.0,66.0,186.0
92,rome,,rome,latium,italy,41.89193,12.51133,,,,,,4,50,54,230.0,24.0,206.0
93,cuiaba,,cuiaba,mato grosso,brazil,-15.596,-56.097,,,,,,104,34,138,1504.0,1326.0,178.0
94,cascavel,,cascavel,parana,brazil,-24.956,-53.455,,,,,,61,18,79,736.0,659.0,77.0
95,aveiro,,aveiro,aveiro,portugal,40.64427,-8.64554,,,,,,18,55,73,303.0,85.0,218.0
96,barretos,,barretos,sao paulo,brazil,-20.557,-48.568,,,,,,16,2,18,93.0,90.0,3.0
97,araxa,,araxa,minas gerais,brazil,-19.593,-46.941,,,,,,6,0,6,13.0,13.0,0.0
98,joliet,,joliet,illinois,united states,41.52519,-88.0834,,,,,,3,29,32,118.0,7.0,111.0
99,rottenburg,,rottenburg,baden-württemberg region,germany,48.47629,8.93528,,,,,,3,31,34,67.0,7.0,60.0
100,caracas,,caracas,distrito federal,venezuela,10.48801,-66.87919,,,,,,7,8,15,26.0,13.0,13.0
101,albany,,albany,new york,united states,42.65258,-73.75623,,,,,,4,26,30,54.0,4.0,50.0
102,campo grande,,campo grande,mato grosso do sul,brazil,-20.443,-54.646,,,,,,92,24,116,1200.0,987.0,213.0
103,almenara,,almenara,minas gerais,brazil,-16.184,-40.694,,,,,,6,0,6,23.0,23.0,0.0
104,porto,,porto,porto,portugal,41.14961,-8.61099,,,,,,16,63,79,450.0,87.0,363.0
105,davis,,davis,california,united states,38.54491,-121.74052,,,,,,6,35,41,102.0,9.0,93.0
106,valparaiso,,valparaiso,valparaíso,chile,-33.03932,-71.62725,,,,,,6,16,22,42.0,13.0,29.0
107,london,,london,england,united kingdom,51.50853,-0.12574,,,,,,12,95,107,735.0,41.0,694.0
108,maceio,,maceio,alagoas,brazil,-9.666,-35.735,,,,,,100,38,138,1230.0,980.0,250.0
109,leuven,,leuven,flanders,belgium,50.87959,4.70093,,,,,,3,32,35,95.0,13.0,82.0
110,wageningen,,wageningen,gelderland,netherlands,51.97,5.66667,,,,,,5,26,31,74.0,12.0,62.0
111,natal,,natal,rio grande do norte,brazil,-5.795,-35.209,,,,,,149,67,216,3552.0,2164.0,1388.0
112,cleveland,,cleveland,ohio,united states,41.4995,-81.69541,,,,,,4,17,21,48.0,5.0,43.0
113,sheffield,,sheffield,england,united kingdom,53.38297,-1.4659,,,,,,5,32,37,77.0,5.0,72.0
114,manizales,,manizales,caldas,colombia,5.06889,-75.51738,,,,,,8,5,13,23.0,15.0,8.0
115,toronto,,toronto,ontario,canada,43.70011,-79.4163,,,,,,11,46,57,206.0,24.0,182.0
116,itajai,,itajai,santa catarina,brazil,-26.908,-48.662,,,,,,35,26,61,322.0,262.0,60.0
117,presidente prudente,,presidente prudente,sao paulo,brazil,-22.126,-51.389,,,,,,41,6,47,321.0,308.0,13.0
118,zaragoza,,zaragoza,aragon,spain,41.65606,-0.87734,,,,,,2,28,30,67.0,11.0,56.0
119,chapeco,,chapeco,santa catarina,brazil,-27.096,-52.618,,,,,,46,2,48,354.0,352.0,2.0
120,novo hamburgo,,novo hamburgo,rio grande do sul,brazil,-29.678,-51.131,,,,,,17,4,21,122.0,113.0,9.0
121,caxias do sul,,caxias do sul,rio grande do sul,brazil,-29.168,-51.179,,,,,,48,17,65,434.0,371.0,63.0
122,iowa city,,iowa city,iowa,united states,41.66113,-91.53017,,,,,,4,22,26,75.0,7.0,68.0
123,sao jose dos campos,,sao jose dos campos,sao paulo,brazil,-23.179,-45.887,,,,,,123,91,214,1942.0,943.0,999.0
124,milano,,milano,lombardy,italy,45.46427,9.18951,,,,,,4,37,41,123.0,21.0,102.0
125,lisbon,,lisbon,lisbon,portugal,38.71667,-9.13333,,,,,,40,91,131,946.0,185.0,761.0
126,bento goncalves,,bento goncalves,rio grande do sul,brazil,-29.171,-51.519,,,,,,22,1,23,242.0,241.0,1.0
127,boston,,boston,massachusetts,united states,42.35843,-71.05977,,,,,,4,34,38,142.0,8.0,134.0
128,denver,,denver,colorado,united states,39.73915,-104.9847,,,,,,1,17,18,41.0,1.0,40.0
129,nottingham,,nottingham,england,united kingdom,52.9536,-1.15047,,,,,,2,32,34,91.0,10.0,81.0
130,gainesville,,gainesville,florida,united states,29.65163,-82.32483,,,,,,15,75,90,405.0,39.0,366.0
131,araraquara,,araraquara,sao paulo,brazil,-21.794,-48.176,,,,,,19,12,31,127.0,106.0,21.0
132,petropolis,,petropolis,rio de janeiro,brazil,-22.505,-43.179,,,,,,29,43,72,279.0,150.0,129.0
133,sevilla,,sevilla,andalusia,spain,37.38283,-5.97317,,,,,,6,35,41,103.0,24.0,79.0
134,madison,,madison,wisconsin,united states,43.07305,-89.40123,,,,,,10,60,70,232.0,17.0,215.0
135,rochester,,rochester,new york,united states,43.15478,-77.61556,,,,,,3,19,22,51.0,6.0,45.0
136,duque de caxias,,duque de caxias,rio de janeiro,brazil,-22.786,-43.312,,,,,,40,13,53,317.0,284.0,33.0
137,piracicaba,,piracicaba,sao paulo,brazil,-22.725,-47.649,,,,,,22,91,113,668.0,271.0,397.0
138,chicago,,chicago,illinois,united states,41.85003,-87.65005,,,,,,4,16,20,52.0,10.0,42.0
139,erechim,,erechim,rio grande do sul,brazil,-27.634,-52.274,,,,,,22,7,29,123.0,109.0,14.0
140,compiegne,,compiegne,picardie,france,49.41794,2.82606,,,,,,2,15,17,41.0,3.0,38.0
141,edmonton,,edmonton,alberta,canada,53.55014,-113.46871,,,,,,8,34,42,123.0,18.0,105.0
142,new orleans,,new orleans,louisiana,united states,29.95465,-90.07507,,,,,,5,8,13,21.0,6.0,15.0
143,teresina,,teresina,piaui,brazil,-5.089,-42.802,,,,,,69,22,91,1136.0,1021.0,115.0
144,anapolis,,anapolis,goias,brazil,-16.327,-48.953,,,,,,41,4,45,305.0,297.0,8.0
145,sao jose do rio preto,,sao jose do rio preto,sao paulo,brazil,-20.82,-49.379,,,,,,20,22,42,478.0,299.0,179.0
146,ann arbor,,ann arbor,michigan,united states,42.27756,-83.74088,,,,,,10,45,55,167.0,14.0,153.0
147,aracaju,,aracaju,sergipe,brazil,-10.911,-37.072,,,,,,43,7,50,188.0,176.0,12.0
148,rio branco,,rio branco,acre,brazil,-9.975,-67.81,,,,,,41,2,43,283.0,276.0,7.0
149,gent,,gent,flanders,belgium,51.05,3.71667,,,,,,2,21,23,50.0,8.0,42.0
150,uberaba,,uberaba,minas gerais,brazil,-19.748,-47.932,,,,,,41,21,62,725.0,620.0,105.0
151,la jolla,,la jolla,california,united states,32.84727,-117.2742,,,,,,3,30,33,103.0,10.0,93.0
152,champaign,,champaign,illinois,united states,40.11642,-88.24338,,,,,,9,46,55,137.0,12.0,125.0
153,coronel fabriciano,,coronel fabriciano,minas gerais,brazil,-19.519,-42.629,,,,,,11,1,12,30.0,29.0,1.0
154,campo mourao,,campo mourao,parana,brazil,-24.046,-52.383,,,,,,11,1,12,40.0,39.0,1.0
155,pamplona,,pamplona,navarre,spain,42.81687,-1.64323,,,,,,2,18,20,25.0,2.0,23.0
156,sao cristovao,,sao cristovao,sergipe,brazil,-11.015,-37.206,,,,,,99,38,137,1245.0,1006.0,239.0
157,hamburg,,hamburg,free and hanseatic city of hamburg,germany,53.57532,10.01534,,,,,,4,27,31,56.0,7.0,49.0
158,santo andre,,santo andre,sao paulo,brazil,-23.664,-46.538,,,,,,76,35,111,895.0,749.0,146.0
159,franca,,franca,sao paulo,brazil,-20.539,-47.401,,,,,,22,9,31,183.0,153.0,30.0
160,erlangen,,erlangen,bavaria,germany,49.59099,11.00783,,,,,,2,14,16,30.0,3.0,27.0
161,itajuba,,itajuba,minas gerais,brazil,-22.426,-45.453,,,,,,45,31,76,474.0,346.0,128.0
162,sao bernardo do campo,,sao bernardo do campo,sao paulo,brazil,-23.694,-46.565,,,,,,38,56,94,498.0,306.0,192.0
163,ponta grossa,,ponta grossa,parana,brazil,-25.095,-50.162,,,,,,53,19,72,535.0,484.0,51.0
164,vila velha,,vila velha,espirito santo,brazil,-20.33,-40.292,,,,,,24,2,26,73.0,70.0,3.0
165,cedar rapids,,cedar rapids,iowa,united states,42.00833,-91.64407,,,,,,4,33,37,82.0,10.0,72.0
166,ouro preto,,ouro preto,minas gerais,brazil,-20.288,-43.508,,,,,,73,33,106,825.0,634.0,191.0
167,marilia,,marilia,sao paulo,brazil,-22.214,-49.946,,,,,,23,10,33,196.0,179.0,17.0
168,sao carlos,,sao carlos,sao paulo,brazil,-22.018,-47.891,,,,,,147,150,297,4296.0,1710.0,2586.0
169,reading,,reading,england,united kingdom,51.45625,-0.97113,,,,,,4,34,38,103.0,5.0,98.0
170,bologna,,bologna,emilia-romagna,italy,44.49381,11.33875,,,,,,3,22,25,53.0,7.0,46.0
171,washington d c,,washington d c,"washington, d.c.",united states,38.89511,-77.03637,,,,,,4,28,32,58.0,4.0,54.0
172,bloomington,,bloomington,indiana,united states,39.16533,-86.52639,,,,,,9,28,37,91.0,9.0,82.0
173,mogi das cruzes,,mogi das cruzes,sao paulo,brazil,-23.523,-46.188,,,,,,24,12,36,186.0,139.0,47.0
174,ourinhos,,ourinhos,sao paulo,brazil,-22.979,-49.871,,,,,,9,0,9,20.0,20.0,0.0
175,athens,,athens,georgia,united states,33.96095,-83.37794,,,,,,10,37,47,120.0,17.0,103.0
176,botucatu,,botucatu,sao paulo,brazil,-22.886,-48.445,,,,,,8,34,42,188.0,42.0,146.0
177,santa cruz,,santa cruz,california,united states,36.97412,-122.0308,,,,,,5,37,42,139.0,5.0,134.0
178,seattle,,seattle,washington,united states,47.60621,-122.33207,,,,,,4,28,32,100.0,8.0,92.0
179,campina grande,,campina grande,paraiba,brazil,-7.231,-35.881,,,,,,104,46,150,1973.0,1378.0,595.0
180,resende,,resende,rio de janeiro,brazil,-22.469,-44.447,,,,,,2,2,4,7.0,3.0,4.0
181,brussels,,brussels,brussels capital region,belgium,50.85045,4.34878,,,,,,2,27,29,92.0,12.0,80.0
182,edinburgh,,edinburgh,scotland,united kingdom,55.95206,-3.19648,,,,,,7,32,39,93.0,10.0,83.0
183,raleigh,,raleigh,north carolina,united states,35.7721,-78.63861,,,,,,6,36,42,161.0,8.0,153.0
184,stuttgart,,stuttgart,baden-württemberg region,germany,48.78232,9.17702,,,,,,2,19,21,39.0,5.0,34.0
185,east lansing,,east lansing,michigan,united states,42.73698,-84.48387,,,,,,8,39,47,151.0,10.0,141.0
186,state college,,state college,pennsylvania,united states,40.79339,-77.86,,,,,,6,30,36,84.0,13.0,71.0
187,munster,,munster,lower saxony,germany,52.98569,10.08756,,,,,,3,26,29,51.0,3.0,48.0
188,fort washington,,fort washington,maryland,united states,38.70734,-77.02303,,,,,,0,20,20,37.0,0.0,37.0
189,waterloo,,waterloo,ontario,canada,43.4668,-80.51639,,,,,,2,33,35,98.0,5.0,93.0
190,montpellier,,montpellier,languedoc-roussillon,france,43.61092,3.87723,,,,,,0,25,25,61.0,0.0,61.0
191,turin,,turin,piedmont,italy,45.07049,7.68682,,,,,,1,16,17,36.0,5.0,31.0
192,glasgow,,glasgow,scotland,united kingdom,55.86515,-4.25763,,,,,,6,36,42,98.0,13.0,85.0
193,porto velho,,porto velho,rondonia,brazil,-8.762,-63.904,,,,,,56,7,63,352.0,326.0,26.0
194,guanambi,,guanambi,bahia,brazil,-14.223,-42.781,,,,,,22,0,22,112.0,112.0,0.0
195,skokie,,skokie,illinois,united states,42.03336,-87.73339,,,,,,4,24,28,89.0,6.0,83.0
196,avare,,avare,sao paulo,brazil,-23.099,-48.926,,,,,,7,2,9,24.0,22.0,2.0
197,manchester,,manchester,england,united kingdom,53.48095,-2.23743,,,,,,5,40,45,163.0,5.0,158.0
198,varginha,,varginha,minas gerais,brazil,-21.551,-45.43,,,,,,4,1,5,7.0,6.0,1.0
199,sao goncalo,,sao goncalo,rio de janeiro,brazil,-22.827,-43.054,,,,,,24,10,34,106.0,90.0,16.0
200,santiago de compostela,,santiago de compostela,galicia,spain,42.88052,-8.54569,,,,,,3,45,48,177.0,30.0,147.0
201,cordoba,,cordoba,andalusia,spain,37.89155,-4.77275,,,,,,3,27,30,50.0,3.0,47.0
202,tubarao,,tubarao,santa catarina,brazil,-28.467,-49.007,,,,,,34,17,51,250.0,220.0,30.0
203,jundiai,,jundiai,sao paulo,brazil,-23.186,-46.884,,,,,,11,2,13,100.0,97.0,3.0
204,charlottesville,,charlottesville,virginia,united states,38.02931,-78.47668,,,,,,3,20,23,54.0,8.0,46.0
205,cadiz,,cadiz,andalusia,spain,36.52978,-6.29465,,,,,,4,16,20,36.0,9.0,27.0
206,strasbourg,,strasbourg,alsace,france,48.58392,7.74553,,,,,,3,23,26,46.0,4.0,42.0
207,charqueadas,,charqueadas,rio grande do sul,brazil,-29.955,-51.625,,,,,,18,0,18,112.0,112.0,0.0
208,sao joao del rei,,sao joao del rei,minas gerais,brazil,-21.136,-44.262,,,,,,60,8,68,557.0,539.0,18.0
209,braganca paulista,,braganca paulista,sao paulo,brazil,-22.952,-46.542,,,,,,18,21,39,148.0,112.0,36.0
210,pittsburgh,,pittsburgh,pennsylvania,united states,40.44062,-79.99589,,,,,,3,35,38,160.0,15.0,145.0
211,brusque,,brusque,santa catarina,brazil,-27.098,-48.918,,,,,,5,3,8,10.0,7.0,3.0
212,pullman,,pullman,washington,united states,46.73127,-117.17962,,,,,,2,21,23,36.0,2.0,34.0
213,lages,,lages,santa catarina,brazil,-27.816,-50.326,,,,,,16,3,19,53.0,49.0,4.0
214,freiburg,,freiburg,baden-württemberg region,germany,47.9959,7.85222,,,,,,3,31,34,82.0,9.0,73.0
215,cruz alta,,cruz alta,rio grande do sul,brazil,-28.639,-53.606,,,,,,8,1,9,32.0,30.0,2.0
216,providence,,providence,rhode island,united states,41.82399,-71.41283,,,,,,5,33,38,108.0,11.0,97.0
217,montes claros,,montes claros,minas gerais,brazil,-16.735,-43.862,,,,,,35,4,39,287.0,265.0,22.0
218,jaboticabal,,jaboticabal,sao paulo,brazil,-21.255,-48.322,,,,,,6,16,22,57.0,23.0,34.0
219,vancouver,,vancouver,british columbia,canada,49.24966,-123.11934,,,,,,5,38,43,157.0,15.0,142.0
220,granada,,granada,andalusia,spain,37.18817,-3.60667,,,,,,3,36,39,95.0,14.0,81.0
221,evanston,,evanston,illinois,united states,42.04114,-87.69006,,,,,,4,19,23,67.0,7.0,60.0
222,ivry sur seine,,ivry sur seine,île-de-france,france,48.81568,2.38487,,,,,,17,39,56,105.0,20.0,85.0
223,volta redonda,,volta redonda,rio de janeiro,brazil,-22.523,-44.104,,,,,,18,1,19,58.0,56.0,2.0
224,barbacena,,barbacena,minas gerais,brazil,-21.226,-43.774,,,,,,14,1,15,55.0,54.0,1.0
225,rio claro,,rio claro,sao paulo,brazil,-22.411,-47.561,,,,,,6,3,9,32.0,19.0,13.0
226,ames,,ames,iowa,united states,42.03471,-93.61994,,,,,,5,23,28,63.0,6.0,57.0
227,concepcion,,concepcion,biobío,chile,-36.82699,-73.04977,,,,,,5,12,17,22.0,6.0,16.0
228,blumenau,,blumenau,santa catarina,brazil,-26.919,-49.066,,,,,,56,21,77,365.0,333.0,32.0
229,leeds,,leeds,england,united kingdom,53.79648,-1.54785,,,,,,4,33,37,96.0,9.0,87.0
230,coral gables,,coral gables,florida,united states,25.72149,-80.26838,,,,,,3,25,28,53.0,3.0,50.0
231,columbus,,columbus,ohio,united states,39.96118,-82.99879,,,,,,6,40,46,123.0,8.0,115.0
232,ijui,,ijui,rio grande do sul,brazil,-28.388,-53.915,,,,,,24,14,38,127.0,106.0,21.0
233,saint denis,,saint denis,île-de-france,france,48.93333,2.36667,,,,,,1,35,36,100.0,1.0,99.0
234,florence,,florence,tuscany,italy,43.77925,11.24626,,,,,,2,19,21,59.0,10.0,49.0
235,bordeaux,,bordeaux,aquitaine,france,44.84044,-0.5805,,,,,,0,17,17,27.0,0.0,27.0
236,lins,,lins,sao paulo,brazil,-21.679,-49.743,,,,,,4,1,5,7.0,6.0,1.0
237,west lafayette,,west lafayette,indiana,united states,40.42587,-86.90807,,,,,,10,37,47,175.0,18.0,157.0
238,leon,,leon,castille and león,spain,42.60003,-5.57032,,,,,,5,34,39,75.0,9.0,66.0
239,blacksburg,,blacksburg,virginia,united states,37.22957,-80.41394,,,,,,3,20,23,48.0,7.0,41.0
240,cachoeiro de itapemirim,,cachoeiro de itapemirim,espirito santo,brazil,-20.849,-41.113,,,,,,7,7,14,75.0,43.0,32.0
241,south bend,,south bend,indiana,united states,41.68338,-86.25001,,,,,,1,18,19,33.0,1.0,32.0
242,criciuma,,criciuma,santa catarina,brazil,-28.678,-49.37,,,,,,18,4,22,137.0,112.0,25.0
243,geneva,,geneva,illinois,united states,41.88753,-88.30535,,,,,,2,24,26,48.0,2.0,46.0
244,new brunswick,,new brunswick,new jersey,united states,40.48622,-74.45182,,,,,,1,15,16,39.0,2.0,37.0
245,toulouse,,toulouse,midi-pyrénées,france,43.60426,1.44367,,,,,,2,38,40,168.0,8.0,160.0
246,delft,,delft,south holland,netherlands,52.00667,4.35556,,,,,,2,23,25,51.0,8.0,43.0
247,college station,,college station,texas,united states,30.62798,-96.33441,,,,,,7,30,37,105.0,14.0,91.0
248,santa cruz do sul,,santa cruz do sul,rio grande do sul,brazil,-29.718,-52.426,,,,,,30,20,50,227.0,172.0,55.0
249,caratinga,,caratinga,minas gerais,brazil,-19.79,-42.139,,,,,,14,2,16,22.0,20.0,2.0
250,palmas,,palmas,tocantins,brazil,-10.167,-48.333,,,,,,65,15,80,546.0,508.0,38.0
251,auburn,,auburn,alabama,united states,32.60986,-85.48078,,,,,,2,17,19,33.0,4.0,29.0
252,princeton,,princeton,florida,united states,25.53844,-80.40894,,,,,,4,24,28,88.0,5.0,83.0
253,austin,,austin,texas,united states,30.26715,-97.74306,,,,,,10,30,40,114.0,11.0,103.0
254,paranavai,,paranavai,parana,brazil,-23.073,-52.465,,,,,,24,1,25,88.0,86.0,2.0
255,nashville,,nashville,tennessee,united states,36.16589,-86.78444,,,,,,5,21,26,52.0,8.0,44.0
256,sydney,,sydney,new south wales,australia,-33.86785,151.20732,,,,,,7,21,28,72.0,15.0,57.0
257,canoinhas,,canoinhas,santa catarina,brazil,-26.177,-50.39,,,,,,10,0,10,28.0,28.0,0.0
258,campos dos goytacazes,,campos dos goytacazes,rio de janeiro,brazil,-21.754,-41.324,,,,,,92,69,161,1244.0,725.0,519.0
259,lajeado,,lajeado,rio grande do sul,brazil,-29.467,-51.961,,,,,,18,3,21,82.0,79.0,3.0
260,nazare paulista,,nazare paulista,sao paulo,brazil,-23.181,-46.395,,,,,,7,0,7,9.0,9.0,0.0
261,sobral,,sobral,ceara,brazil,-3.674,-40.239,,,,,,34,2,36,130.0,122.0,8.0
262,itatiba,,itatiba,sao paulo,brazil,-23.006,-46.839,,,,,,4,12,16,21.0,7.0,14.0
263,lima,,lima,provincia de lima,peru,-12.04318,-77.02824,,,,,,8,2,10,14.0,11.0,3.0
264,garca,,garca,sao paulo,brazil,-22.211,-49.656,,,,,,5,9,14,35.0,11.0,24.0
265,tucson,,tucson,arizona,united states,32.22174,-110.92648,,,,,,5,42,47,127.0,7.0,120.0
266,cordoba,,cordoba,córdoba,argentina,-31.4135,-64.18105,,,,,,2,9,11,21.0,4.0,17.0
267,norwich,,norwich,england,united kingdom,52.62783,1.29834,,,,,,7,28,35,67.0,9.0,58.0
268,aberdeen,,aberdeen,scotland,united kingdom,57.14369,-2.09814,,,,,,7,20,27,40.0,7.0,33.0
269,mossoro,,mossoro,rio grande do norte,brazil,-5.188,-37.344,,,,,,33,2,35,255.0,250.0,5.0
270,ananindeua,,ananindeua,para,brazil,-1.366,-48.372,,,,,,13,3,16,76.0,67.0,9.0
271,hannover,,hannover,lower saxony,germany,52.37052,9.73322,,,,,,2,20,22,34.0,2.0,32.0
272,corvallis,,corvallis,oregon,united states,44.56457,-123.26204,,,,,,2,20,22,37.0,3.0,34.0
273,bristol,,bristol,england,united kingdom,51.45523,-2.59665,,,,,,7,29,36,106.0,15.0,91.0
274,coventry,,coventry,england,united kingdom,52.40656,-1.51217,,,,,,4,20,24,70.0,9.0,61.0
275,palmas,,palmas,parana,brazil,-26.484,-51.991,,,,,,21,0,21,104.0,104.0,0.0
276,berkeley,,berkeley,california,united states,37.87159,-122.27275,,,,,,5,44,49,209.0,11.0,198.0
277,stillwater,,stillwater,oklahoma,united states,36.11561,-97.05837,,,,,,4,14,18,32.0,4.0,28.0
278,liverpool,,liverpool,england,united kingdom,53.41058,-2.97794,,,,,,5,21,26,62.0,7.0,55.0
279,logan,,logan,utah,united states,41.73549,-111.83439,,,,,,3,15,18,36.0,5.0,31.0
280,cerdanyola del valles,,cerdanyola del valles,catalonia,spain,41.49109,2.14079,,,,,,5,24,29,68.0,17.0,51.0
281,birmingham,,birmingham,england,united kingdom,52.48142,-1.89983,,,,,,3,30,33,76.0,4.0,72.0
282,salt lake city,,salt lake city,utah,united states,40.76078,-111.89105,,,,,,3,20,23,57.0,6.0,51.0
283,frankfurt am main,,frankfurt am main,hesse,germany,50.11552,8.68417,,,,,,2,18,20,43.0,3.0,40.0
284,brisbane,,brisbane,queensland,australia,-27.46794,153.02809,,,,,,4,24,28,60.0,9.0,51.0
285,kiel,,kiel,schleswig-holstein,germany,54.32133,10.13489,,,,,,2,24,26,42.0,3.0,39.0
286,quebec,,quebec,quebec,canada,46.81228,-71.21454,,,,,,6,39,45,100.0,12.0,88.0
287,lexington,,lexington,kentucky,united states,37.98869,-84.47772,,,,,,7,26,33,60.0,9.0,51.0
288,aracatuba,,aracatuba,sao paulo,brazil,-21.209,-50.433,,,,,,9,8,17,33.0,21.0,12.0
289,dourados,,dourados,mato grosso do sul,brazil,-22.221,-54.806,,,,,,56,18,74,734.0,664.0,70.0
290,oviedo,,oviedo,asturias,spain,43.36029,-5.84476,,,,,,3,20,23,32.0,4.0,28.0
291,creteil,,creteil,île-de-france,france,48.78333,2.46667,,,,,,1,20,21,42.0,1.0,41.0
292,valencia,,valencia,valencia,spain,39.46975,-0.37739,,,,,,2,31,33,66.0,5.0,61.0
293,calgary,,calgary,alberta,canada,51.05011,-114.08529,,,,,,4,29,33,84.0,12.0,72.0
294,rennes,,rennes,brittany,france,48.11198,-1.67429,,,,,,5,28,33,54.0,6.0,48.0
295,lund,,lund,skåne,sweden,55.70584,13.19321,,,,,,3,19,22,47.0,8.0,39.0
296,boa vista,,boa vista,roraima,brazil,2.82,-60.673,,,,,,52,7,59,251.0,238.0,13.0
297,parkville,,parkville,maryland,united states,39.37733,-76.53969,,,,,,7,13,20,31.0,9.0,22.0
298,newcastle upon tyne,,newcastle upon tyne,england,united kingdom,54.97328,-1.61396,,,,,,4,23,27,60.0,6.0,54.0
299,nova iguacu,,nova iguacu,rio de janeiro,brazil,-22.759,-43.451,,,,,,10,5,15,35.0,30.0,5.0
300,santiago de cuba,,santiago de cuba,santiago de cuba,cuba,20.02472,-75.82194,,,,,,6,5,11,26.0,12.0,14.0
301,poitiers,,poitiers,poitou-charentes,france,46.58333,0.33333,,,,,,4,28,32,57.0,7.0,50.0
302,sao caetano do sul,,sao caetano do sul,sao paulo,brazil,-23.623,-46.551,,,,,,15,8,23,151.0,134.0,17.0
303,kyoto,,kyoto,kyōto,japan,35.02107,135.75385,,,,,,3,20,23,39.0,7.0,32.0
304,tallahassee,,tallahassee,florida,united states,30.43826,-84.28073,,,,,,7,24,31,58.0,10.0,48.0
305,alicante,,alicante,valencia,spain,38.34517,-0.48149,,,,,,1,21,22,40.0,8.0,32.0
306,guildford,,guildford,england,united kingdom,51.23536,-0.57427,,,,,,2,17,19,37.0,5.0,32.0
307,sceaux,,sceaux,île-de-france,france,48.77644,2.29026,,,,,,2,16,18,36.0,4.0,32.0
308,araguaina,,araguaina,tocantins,brazil,-7.191,-48.207,,,,,,10,7,17,26.0,12.0,14.0
309,san ignacio,,san ignacio,cayo,belize,17.15297,-89.08058,,,,,,2,8,10,14.0,3.0,11.0
310,faro,,faro,faro,portugal,37.01937,-7.93223,,,,,,7,20,27,46.0,15.0,31.0
311,loughborough,,loughborough,england,united kingdom,52.76667,-1.2,,,,,,1,20,21,35.0,1.0,34.0
312,sao miguel do oeste,,sao miguel do oeste,santa catarina,brazil,-26.725,-53.518,,,,,,21,2,23,105.0,100.0,5.0
313,bethesda,,bethesda,maryland,united states,38.98067,-77.10026,,,,,,5,17,22,52.0,10.0,42.0
314,tours,,tours,centre,france,47.38333,0.68333,,,,,,4,20,24,35.0,5.0,30.0
315,boulder,,boulder,colorado,united states,40.01499,-105.27055,,,,,,1,28,29,60.0,2.0,58.0
316,olinda,,olinda,pernambuco,brazil,-8.009,-34.855,,,,,,4,0,4,12.0,12.0,0.0
317,osorio,,osorio,rio grande do sul,brazil,-29.887,-50.27,,,,,,4,0,4,18.0,18.0,0.0
318,varzea grande,,varzea grande,mato grosso,brazil,-15.647,-56.133,,,,,,10,1,11,22.0,21.0,1.0
319,montreal,,montreal,quebec,canada,45.50884,-73.58781,,,,,,3,29,32,60.0,5.0,55.0
320,nanterre,,nanterre,île-de-france,france,48.89198,2.20675,,,,,,1,33,34,88.0,2.0,86.0
321,crato,,crato,ceara,brazil,-7.234,-39.409,,,,,,27,2,29,116.0,114.0,2.0
322,syracuse,,syracuse,new york,united states,43.04812,-76.14742,,,,,,3,16,19,31.0,6.0,25.0
323,sorocaba,,sorocaba,sao paulo,brazil,-23.502,-47.458,,,,,,16,4,20,111.0,97.0,14.0
324,tempe,,tempe,arizona,united states,33.41477,-111.90931,,,,,,2,14,16,29.0,2.0,27.0
325,cachoeira do sul,,cachoeira do sul,rio grande do sul,brazil,-30.039,-52.894,,,,,,26,0,26,123.0,123.0,0.0
326,votuporanga,,votuporanga,sao paulo,brazil,-20.423,-49.973,,,,,,6,2,8,18.0,16.0,2.0
327,copenhagen,,copenhagen,capital region,denmark,55.67594,12.56553,,,,,,3,11,14,34.0,8.0,26.0
328,inconfidentes,,inconfidentes,minas gerais,brazil,-22.317,-46.328,,,,,,21,0,21,98.0,98.0,0.0
329,penapolis,,penapolis,sao paulo,brazil,-21.42,-50.078,,,,,,0,2,2,2.0,0.0,2.0
330,pouso alegre,,pouso alegre,minas gerais,brazil,-22.23,-45.936,,,,,,13,1,14,66.0,65.0,1.0
331,starkville,,starkville,mississippi,united states,33.45049,-88.81961,,,,,,2,16,18,37.0,3.0,34.0
332,heidelberg,,heidelberg,baden-württemberg region,germany,49.40768,8.69079,,,,,,1,32,33,89.0,3.0,86.0
333,vigo,,vigo,galicia,spain,42.23282,-8.72264,,,,,,4,11,15,24.0,7.0,17.0
334,catanduva,,catanduva,sao paulo,brazil,-21.138,-48.973,,,,,,8,2,10,38.0,36.0,2.0
335,villeurbanne,,villeurbanne,rhône-alpes,france,45.76667,4.88333,,,,,,1,25,26,39.0,2.0,37.0
336,karlsruhe,,karlsruhe,baden-württemberg region,germany,49.00937,8.40444,,,,,,2,17,19,39.0,2.0,37.0
337,cuenca,,cuenca,castille-la mancha,spain,40.06667,-2.13333,,,,,,4,12,16,22.0,5.0,17.0
338,brighton,,brighton,england,united kingdom,50.82838,-0.13947,,,,,,1,27,28,81.0,3.0,78.0
339,colmar,,colmar,alsace,france,48.08333,7.36667,,,,,,1,11,12,34.0,3.0,31.0
340,murcia,,murcia,murcia,spain,37.98704,-1.13004,,,,,,4,21,25,43.0,7.0,36.0
341,cali,,cali,valle del cauca,colombia,3.43722,-76.5225,,,,,,7,6,13,16.0,10.0,6.0
342,governador valadares,,governador valadares,minas gerais,brazil,-18.851,-41.949,,,,,,10,4,14,24.0,20.0,4.0
343,batatais,,batatais,sao paulo,brazil,-20.891,-47.585,,,,,,5,2,7,16.0,13.0,3.0
344,leioa,,leioa,basque country,spain,43.33333,-2.98333,,,,,,6,15,21,35.0,11.0,24.0
345,bahia blanca,,bahia blanca,buenos aires,argentina,-38.71959,-62.27243,,,,,,4,8,12,21.0,8.0,13.0
346,lancaster,,lancaster,england,united kingdom,54.04649,-2.79988,,,,,,3,21,24,61.0,4.0,57.0
347,joinville,,joinville,santa catarina,brazil,-26.304,-48.846,,,,,,25,1,26,148.0,146.0,2.0
348,barra mansa,,barra mansa,rio de janeiro,brazil,-22.544,-44.171,,,,,,7,0,7,11.0,11.0,0.0
349,sao jose,,sao jose,santa catarina,brazil,-27.615,-48.628,,,,,,6,0,6,18.0,18.0,0.0
350,pompeia,,pompeia,sao paulo,brazil,-22.109,-50.172,,,,,,5,1,6,13.0,12.0,1.0
351,leicester,,leicester,england,united kingdom,52.6386,-1.13169,,,,,,4,22,26,42.0,4.0,38.0
352,pisa,,pisa,tuscany,italy,43.70853,10.4036,,,,,,1,18,19,32.0,4.0,28.0
353,lyon,,lyon,rhône-alpes,france,45.74846,4.84671,,,,,,2,24,26,44.0,4.0,40.0
354,leiden,,leiden,south holland,netherlands,52.15833,4.49306,,,,,,5,15,20,35.0,8.0,27.0
355,diamantina,,diamantina,minas gerais,brazil,-18.249,-43.6,,,,,,48,11,59,390.0,360.0,30.0
356,orlando,,orlando,florida,united states,28.53834,-81.37924,,,,,,0,17,17,36.0,0.0,36.0
357,caceres,,caceres,extremadura,spain,39.47649,-6.37224,,,,,,2,14,16,21.0,4.0,17.0
358,sete lagoas,,sete lagoas,minas gerais,brazil,-19.466,-44.247,,,,,,9,0,9,24.0,24.0,0.0
359,nancy,,nancy,lorraine,france,48.68439,6.18496,,,,,,1,22,23,34.0,1.0,33.0
360,salinas,,salinas,minas gerais,brazil,-16.17,-42.29,,,,,,15,0,15,51.0,51.0,0.0
361,nilopolis,,nilopolis,rio de janeiro,brazil,-22.808,-43.414,,,,,,18,0,18,225.0,225.0,0.0
362,valence,,valence,rhône-alpes,france,44.93333,4.9,,,,,,1,25,26,90.0,1.0,89.0
363,rio verde,,rio verde,goias,brazil,-17.798,-50.928,,,,,,12,2,14,49.0,47.0,2.0
364,sao joao de meriti,,sao joao de meriti,rio de janeiro,brazil,-22.804,-43.372,,,,,,0,0,0,0.0,0.0,0.0
365,suzano,,suzano,sao paulo,brazil,-23.543,-46.311,,,,,,5,1,6,12.0,5.0,7.0
366,guaratingueta,,guaratingueta,sao paulo,brazil,-22.816,-45.193,,,,,,4,6,10,15.0,8.0,7.0
367,medianeira,,medianeira,parana,brazil,-25.295,-54.094,,,,,,1,3,4,4.0,1.0,3.0
368,koeln,,koeln,north rhine-westphalia,germany,50.93333,6.95,,,,,,2,15,17,29.0,2.0,27.0
369,santa clara,,santa clara,villa clara,cuba,22.4,-79.96667,,,,,,4,5,9,44.0,18.0,26.0
370,vassouras,,vassouras,rio de janeiro,brazil,-22.404,-43.663,,,,,,10,3,13,39.0,36.0,3.0
371,guelph,,guelph,ontario,canada,43.54594,-80.25599,,,,,,4,26,30,71.0,9.0,62.0
372,espirito santo do pinhal,,espirito santo do pinhal,sao paulo,brazil,-22.191,-46.741,,,,,,3,1,4,11.0,10.0,1.0
373,muriae,,muriae,minas gerais,brazil,-21.131,-42.366,,,,,,3,0,3,6.0,6.0,0.0
374,santa rita,,santa rita,paraiba,brazil,-7.114,-34.978,,,,,,1,2,3,5.0,2.0,3.0
375,santa rita do sapucai,,santa rita do sapucai,minas gerais,brazil,-22.252,-45.703,,,,,,6,1,7,22.0,21.0,1.0
376,patos,,patos,paraiba,brazil,-7.024,-37.28,,,,,,8,2,10,17.0,13.0,4.0
377,lawrence,,lawrence,kansas,united states,38.97167,-95.23525,,,,,,6,15,21,30.0,6.0,24.0
378,limeira,,limeira,sao paulo,brazil,-22.565,-47.402,,,,,,6,0,6,12.0,12.0,0.0
379,rondonopolis,,rondonopolis,mato grosso,brazil,-16.471,-54.636,,,,,,1,0,1,1.0,1.0,0.0
380,balneario camboriu,,balneario camboriu,santa catarina,brazil,-26.991,-48.635,,,,,,3,1,4,6.0,5.0,1.0
381,itaperuna,,itaperuna,rio de janeiro,brazil,-21.205,-41.888,,,,,,5,0,5,8.0,8.0,0.0
382,mogi guacu,,mogi guacu,sao paulo,brazil,-22.372,-46.942,,,,,,3,0,3,8.0,8.0,0.0
383,ituverava,,ituverava,sao paulo,brazil,-20.339,-47.781,,,,,,0,0,0,0.0,0.0,0.0
384,epinal,,epinal,lorraine,france,48.18333,6.45,,,,,,2,15,17,25.0,3.0,22.0
385,teresopolis,,teresopolis,rio de janeiro,brazil,-22.412,-42.966,,,,,,11,0,11,35.0,35.0,0.0
386,bucaramanga,,bucaramanga,santander,colombia,7.12539,-73.1198,,,,,,3,1,4,4.0,3.0,1.0
387,andradina,,andradina,sao paulo,brazil,-20.896,-51.379,,,,,,2,2,4,5.0,3.0,2.0
388,sapporo,,sapporo,hokkaidō,japan,43.06417,141.34695,,,,,,3,16,19,30.0,5.0,25.0
389,lausanne,,lausanne,vaud,switzerland,46.516,6.63282,,,,,,2,21,23,58.0,4.0,54.0
390,cruz das almas,,cruz das almas,bahia,brazil,-12.67,-39.102,,,,,,52,19,71,417.0,354.0,63.0
391,canterbury,,canterbury,england,united kingdom,51.27904,1.07992,,,,,,1,18,19,44.0,1.0,43.0
392,jandaia do sul,,jandaia do sul,parana,brazil,-23.603,-51.643,,,,,,2,0,2,2.0,2.0,0.0
393,caruaru,,caruaru,pernambuco,brazil,-8.283,-35.976,,,,,,7,0,7,14.0,14.0,0.0
394,paranagua,,paranagua,parana,brazil,-25.52,-48.509,,,,,,6,2,8,11.0,9.0,2.0
395,golden,,golden,colorado,united states,39.75554,-105.2211,,,,,,1,17,18,32.0,1.0,31.0
396,catalao,,catalao,goias,brazil,-18.17,-47.942,,,,,,2,0,2,2.0,2.0,0.0
397,santo antonio do descoberto,,santo antonio do descoberto,goias,brazil,-15.94,-48.255,,,,,,0,0,0,0.0,0.0,0.0
398,osasco,,osasco,sao paulo,brazil,-23.533,-46.792,,,,,,13,2,15,78.0,74.0,4.0
399,southampton,,southampton,england,united kingdom,50.90395,-1.40428,,,,,,8,34,42,117.0,8.0,109.0
400,arapiraca,,arapiraca,alagoas,brazil,-9.752,-36.661,,,,,,11,1,12,27.0,26.0,1.0
401,salto,,salto,sao paulo,brazil,-23.201,-47.287,,,,,,4,0,4,12.0,12.0,0.0
402,college park,,college park,maryland,united states,38.98067,-76.93692,,,,,,3,32,35,67.0,5.0,62.0
403,cachoeira,,cachoeira,bahia,brazil,-12.618,-38.956,,,,,,3,2,5,5.0,3.0,2.0
404,nova friburgo,,nova friburgo,rio de janeiro,brazil,-22.282,-42.531,,,,,,2,0,2,5.0,5.0,0.0
405,belo jardim,,belo jardim,pernambuco,brazil,-8.336,-36.424,,,,,,1,0,1,2.0,2.0,0.0
406,santa fe do sul,,santa fe do sul,sao paulo,brazil,-20.211,-50.926,,,,,,4,0,4,8.0,8.0,0.0
407,cornelio procopio,,cornelio procopio,parana,brazil,-23.181,-50.647,,,,,,3,0,3,5.0,5.0,0.0
408,amsterdam,,amsterdam,north holland,netherlands,52.37403,4.88969,,,,,,2,24,26,44.0,6.0,38.0
409,garanhuns,,garanhuns,pernambuco,brazil,-8.89,-36.493,,,,,,1,0,1,1.0,1.0,0.0
410,agua branca,,agua branca,piaui,brazil,-5.89,-42.638,,,,,,0,0,0,0.0,0.0,0.0
411,mairipora,,mairipora,sao paulo,brazil,-23.319,-46.587,,,,,,0,0,0,0.0,0.0,0.0
412,jacarezinho,,jacarezinho,parana,brazil,-23.161,-49.969,,,,,,19,1,20,97.0,96.0,1.0
413,araripina,,araripina,pernambuco,brazil,-7.576,-40.498,,,,,,1,0,1,1.0,1.0,0.0
414,nova venecia,,nova venecia,espirito santo,brazil,-18.711,-40.401,,,,,,1,0,1,1.0,1.0,0.0
415,ariquemes,,ariquemes,rondonia,brazil,-9.913,-63.041,,,,,,6,0,6,7.0,7.0,0.0
416,bedford,,bedford,england,united kingdom,52.13459,-0.46632,,,,,,1,17,18,36.0,1.0,35.0
417,maranguape,,maranguape,ceara,brazil,-3.89,-38.686,,,,,,2,1,3,3.0,2.0,1.0
418,ituiutaba,,ituiutaba,minas gerais,brazil,-18.969,-49.465,,,,,,1,0,1,1.0,1.0,0.0
419,bandeirantes,,bandeirantes,parana,brazil,-23.11,-50.368,,,,,,4,0,4,6.0,6.0,0.0
420,valenca,,valenca,rio de janeiro,brazil,-22.246,-43.7,,,,,,5,0,5,9.0,9.0,0.0
421,nova lima,,nova lima,minas gerais,brazil,-19.986,-43.847,,,,,,3,1,4,8.0,7.0,1.0
422,maturin,,maturin,estado monagas,venezuela,9.74569,-63.18323,,,,,,9,5,14,16.0,10.0,6.0
423,lauro de freitas,,lauro de freitas,bahia,brazil,-12.894,-38.327,,,,,,1,0,1,2.0,2.0,0.0
424,grenoble,,grenoble,rhône-alpes,france,45.16667,5.71667,,,,,,1,17,18,43.0,1.0,42.0
425,sao jose do rio pardo,,sao jose do rio pardo,sao paulo,brazil,-21.596,-46.889,,,,,,4,0,4,5.0,5.0,0.0
426,sao gotardo,,sao gotardo,minas gerais,brazil,-19.311,-46.049,,,,,,0,0,0,0.0,0.0,0.0
427,bonn,,bonn,north rhine-westphalia,germany,50.73438,7.09549,,,,,,1,22,23,33.0,4.0,29.0
428,campanha,,campanha,minas gerais,brazil,-21.836,-45.401,,,,,,0,0,0,0.0,0.0,0.0
429,london,,london,ontario,canada,42.98339,-81.23304,,,,,,8,18,26,41.0,11.0,30.0
430,cataguases,,cataguases,minas gerais,brazil,-21.389,-42.697,,,,,,4,0,4,5.0,5.0,0.0
431,york,,york,england,united kingdom,53.95763,-1.08271,,,,,,5,20,25,58.0,11.0,47.0
432,sao pedro do piaui,,sao pedro do piaui,piaui,brazil,-5.929,-42.719,,,,,,2,1,3,3.0,2.0,1.0
433,sao luis de montes belos,,sao luis de montes belos,goias,brazil,-16.525,-50.372,,,,,,0,0,0,0.0,0.0,0.0
434,conselheiro lafaiete,,conselheiro lafaiete,minas gerais,brazil,-20.66,-43.786,,,,,,4,0,4,5.0,5.0,0.0
435,colchester,,colchester,england,united kingdom,51.88921,0.90421,,,,,,4,26,30,44.0,5.0,39.0
436,assis,,assis,sao paulo,brazil,-22.662,-50.412,,,,,,2,1,3,5.0,4.0,1.0
437,pirassununga,,pirassununga,sao paulo,brazil,-21.996,-47.426,,,,,,14,10,24,74.0,48.0,26.0
438,bilbao,,bilbao,basque country,spain,43.26271,-2.92528,,,,,,1,14,15,31.0,1.0,30.0
439,itaborai,,itaborai,rio de janeiro,brazil,-22.744,-42.859,,,,,,0,0,0,0.0,0.0,0.0
440,pereira barreto,,pereira barreto,sao paulo,brazil,-20.638,-51.109,,,,,,2,0,2,3.0,3.0,0.0
441,coroata,,coroata,maranhao,brazil,-4.13,-44.124,,,,,,0,0,0,0.0,0.0,0.0
442,bogota,,bogota,bogota d.c.,colombia,4.60971,-74.08175,,,,,,7,7,14,20.0,10.0,10.0
443,santo angelo,,santo angelo,rio grande do sul,brazil,-28.299,-54.263,,,,,,2,0,2,3.0,3.0,0.0
444,houston,,houston,texas,united states,29.76328,-95.36327,,,,,,2,19,21,37.0,2.0,35.0
445,bondy,,bondy,île-de-france,france,48.9018,2.48931,,,,,,12,12,24,57.0,34.0,23.0
446,saint andrews,,saint andrews,scotland,united kingdom,56.33871,-2.79902,,,,,,4,17,21,42.0,6.0,36.0
447,petrolina,,petrolina,pernambuco,brazil,-9.393,-40.508,,,,,,51,1,52,255.0,251.0,4.0
448,trujillo,,trujillo,la libertad,peru,-8.11599,-79.02998,,,,,,1,1,2,2.0,1.0,1.0
449,jaboatao dos guararapes,,jaboatao dos guararapes,pernambuco,brazil,-8.113,-35.015,,,,,,5,0,5,15.0,15.0,0.0
450,manhattan,,manhattan,kansas,united states,39.18361,-96.57167,,,,,,7,16,23,32.0,8.0,24.0
451,sao mateus,,sao mateus,espirito santo,brazil,-18.716,-39.859,,,,,,1,0,1,1.0,1.0,0.0
452,melbourne,,melbourne,victoria,australia,-37.814,144.96332,,,,,,3,17,20,48.0,8.0,40.0
453,amherst,,amherst,new york,united states,42.97839,-78.79976,,,,,,4,19,23,52.0,5.0,47.0
454,olimpia,,olimpia,sao paulo,brazil,-20.737,-48.915,,,,,,0,0,0,0.0,0.0,0.0
455,assis chateaubriand,,assis chateaubriand,parana,brazil,-24.42,-53.521,,,,,,0,0,0,0.0,0.0,0.0
456,arcoverde,,arcoverde,pernambuco,brazil,-8.419,-37.054,,,,,,1,0,1,1.0,1.0,0.0
457,formiga,,formiga,minas gerais,brazil,-20.464,-45.426,,,,,,7,0,7,17.0,17.0,0.0
458,vespasiano,,vespasiano,minas gerais,brazil,-19.692,-43.923,,,,,,7,0,7,10.0,10.0,0.0
459,rio pomba,,rio pomba,minas gerais,brazil,-21.275,-43.179,,,,,,4,0,4,8.0,8.0,0.0
460,mirassol,,mirassol,sao paulo,brazil,-20.819,-49.521,,,,,,0,0,0,0.0,0.0,0.0
461,mineiros,,mineiros,goias,brazil,-17.569,-52.551,,,,,,0,0,0,0.0,0.0,0.0
462,palhoca,,palhoca,santa catarina,brazil,-27.645,-48.668,,,,,,1,0,1,3.0,3.0,0.0
463,jaragua do sul,,jaragua do sul,santa catarina,brazil,-26.486,-49.067,,,,,,3,0,3,3.0,3.0,0.0
464,jau,,jau,sao paulo,brazil,-22.296,-48.558,,,,,,4,0,4,8.0,8.0,0.0
465,toledo,,toledo,parana,brazil,-24.714,-53.743,,,,,,2,0,2,2.0,2.0,0.0
466,juina,,juina,mato grosso,brazil,-11.378,-58.741,,,,,,1,0,1,1.0,1.0,0.0
467,foz do iguacu,,foz do iguacu,parana,brazil,-25.548,-54.588,,,,,,36,2,38,166.0,164.0,2.0
468,campo limpo paulista,,campo limpo paulista,sao paulo,brazil,-23.206,-46.784,,,,,,3,0,3,33.0,33.0,0.0
469,sao sebastiao,,sao sebastiao,sao paulo,brazil,-23.76,-45.41,,,,,,1,0,1,1.0,1.0,0.0
470,diadema,,diadema,sao paulo,brazil,-23.686,-46.623,,,,,,20,2,22,68.0,64.0,4.0
471,pindamonhangaba,,pindamonhangaba,sao paulo,brazil,-22.924,-45.462,,,,,,9,0,9,21.0,21.0,0.0
472,barreiras,,barreiras,bahia,brazil,-12.153,-44.99,,,,,,17,1,18,30.0,29.0,1.0
473,taboao da serra,,taboao da serra,sao paulo,brazil,-23.602,-46.753,,,,,,1,0,1,3.0,3.0,0.0
474,luis eduardo magalhaes,,luis eduardo magalhaes,bahia,brazil,-12.092,-45.805,,,,,,2,0,2,2.0,2.0,0.0
475,santarem,,santarem,para,brazil,-2.443,-54.708,,,,,,46,2,48,164.0,158.0,6.0
476,teixeira de freitas,,teixeira de freitas,bahia,brazil,-17.535,-39.742,,,,,,3,0,3,3.0,3.0,0.0
477,guaruja,,guaruja,sao paulo,brazil,-23.993,-46.256,,,,,,1,0,1,5.0,5.0,0.0
478,indaiatuba,,indaiatuba,sao paulo,brazil,-23.09,-47.218,,,,,,5,0,5,8.0,8.0,0.0
479,eldorado do sul,,eldorado do sul,rio grande do sul,brazil,-30.084,-51.616,,,,,,14,2,16,63.0,61.0,2.0
480,atibaia,,atibaia,sao paulo,brazil,-23.117,-46.55,,,,,,1,0,1,1.0,1.0,0.0
481,itapecerica da serra,,itapecerica da serra,sao paulo,brazil,-23.717,-46.849,,,,,,1,0,1,2.0,2.0,0.0
482,carapicuiba,,carapicuiba,sao paulo,brazil,-23.523,-46.836,,,,,,3,0,3,6.0,6.0,0.0
483,caraguatatuba,,caraguatatuba,sao paulo,brazil,-23.62,-45.413,,,,,,1,0,1,2.0,2.0,0.0
484,goias,,goias,goias,brazil,-15.934,-50.14,,,,,,13,4,17,30.0,25.0,5.0
485,bebedouro,,bebedouro,sao paulo,brazil,-20.949,-48.479,,,,,,5,0,5,12.0,12.0,0.0
486,adamantina,,adamantina,sao paulo,brazil,-21.685,-51.073,,,,,,7,0,7,34.0,34.0,0.0
487,ivatuba,,ivatuba,parana,brazil,-23.619,-52.221,,,,,,2,0,2,4.0,4.0,0.0
488,cotia,,cotia,sao paulo,brazil,-23.604,-46.919,,,,,,2,0,2,4.0,4.0,0.0
489,maua,,maua,sao paulo,brazil,-23.668,-46.461,,,,,,1,0,1,3.0,3.0,0.0
490,juazeiro do norte,,juazeiro do norte,ceara,brazil,-7.213,-39.315,,,,,,14,1,15,38.0,37.0,1.0
491,amparo,,amparo,sao paulo,brazil,-22.701,-46.764,,,,,,2,0,2,3.0,3.0,0.0
492,frutal,,frutal,minas gerais,brazil,-20.025,-48.941,,,,,,1,0,1,1.0,1.0,0.0
493,nova esperanca,,nova esperanca,parana,brazil,-23.184,-52.205,,,,,,1,0,1,1.0,1.0,0.0
494,hortolandia,,hortolandia,sao paulo,brazil,-22.858,-47.22,,,,,,5,0,5,7.0,7.0,0.0
495,redencao,,redencao,ceara,brazil,-4.226,-38.731,,,,,,29,1,30,138.0,137.0,1.0
496,mandaguari,,mandaguari,parana,brazil,-23.548,-51.671,,,,,,3,1,4,5.0,4.0,1.0
497,caucaia,,caucaia,ceara,brazil,-3.733,-38.656,,,,,,1,0,1,1.0,1.0,0.0
498,itapeva,,itapeva,sao paulo,brazil,-23.982,-48.876,,,,,,5,0,5,7.0,7.0,0.0
499,patos de minas,,patos de minas,minas gerais,brazil,-18.579,-46.518,,,,,,9,0,9,25.0,25.0,0.0
500,belford roxo,,belford roxo,rio de janeiro,brazil,-22.764,-43.399,,,,,,4,0,4,10.0,10.0,0.0
501,vitoria de santo antao,,vitoria de santo antao,pernambuco,brazil,-8.118,-35.291,,,,,,1,0,1,3.0,3.0,0.0
502,victoria,,victoria,british columbia,canada,48.43294,-123.3693,,,,,,4,25,29,49.0,7.0,42.0
503,cacoal,,cacoal,rondonia,brazil,-11.438,-61.448,,,,,,5,1,6,7.0,6.0,1.0
504,campos gerais,,campos gerais,minas gerais,brazil,-21.235,-45.759,,,,,,1,0,1,1.0,1.0,0.0
505,barra do garcas,,barra do garcas,mato grosso,brazil,-15.89,-52.257,,,,,,5,0,5,5.0,5.0,0.0
506,colorado do oeste,,colorado do oeste,rondonia,brazil,-13.117,-60.542,,,,,,15,0,15,26.0,26.0,0.0
507,jequie,,jequie,bahia,brazil,-13.858,-40.084,,,,,,0,0,0,0.0,0.0,0.0
508,saquarema,,saquarema,rio de janeiro,brazil,-22.92,-42.51,,,,,,0,0,0,0.0,0.0,0.0
509,cafelandia,,cafelandia,sao paulo,brazil,-21.803,-49.61,,,,,,0,0,0,0.0,0.0,0.0
510,aurora,,aurora,ceara,brazil,-6.943,-38.968,,,,,,0,0,0,0.0,0.0,0.0
511,maputo,,maputo,maputo city,mozambique,-25.96553,32.58322,,,,,,0,0,0,0.0,0.0,0.0
512,delijan,,delijan,markazi,iran,33.9905,50.6838,,,,,,0,0,0,0.0,0.0,0.0
513,quito,,quito,pichincha,ecuador,-0.22985,-78.52495,,,,,,0,0,0,0.0,0.0,0.0
514,carmo,,carmo,rio de janeiro,brazil,-21.934,-42.609,,,,,,0,0,0,0.0,0.0,0.0
515,plymouth,,plymouth,england,united kingdom,50.37153,-4.14305,,,,,,0,0,0,0.0,0.0,0.0
516,cusco,,cusco,cusco,peru,-13.52264,-71.96734,,,,,,0,0,0,0.0,0.0,0.0
517,moscow,,moscow,moscow,russia,55.75222,37.61556,,,,,,0,0,0,0.0,0.0,0.0
518,beziers,,beziers,languedoc-roussillon,france,43.34122,3.21402,,,,,,0,0,0,0.0,0.0,0.0
519,puebla,,puebla,puebla,mexico,19.04334,-98.20193,,,,,,0,0,0,0.0,0.0,0.0
520,borrazopolis,,borrazopolis,parana,brazil,-23.941,-51.588,,,,,,0,0,0,0.0,0.0,0.0
521,coimbra,,coimbra,coimbra,portugal,40.20564,-8.41955,,,,,,0,0,0,0.0,0.0,0.0
522,veracruz,,veracruz,veracruz-llave,mexico,19.18095,-96.1429,,,,,,0,0,0,0.0,0.0,0.0
523,fernandopolis,,fernandopolis,sao paulo,brazil,-20.284,-50.246,,,,,,0,0,0,0.0,0.0,0.0
524,cork,,cork,munster,ireland,51.89797,-8.47061,,,,,,0,0,0,0.0,0.0,0.0
525,peshawar,,peshawar,north-west frontier province,pakistan,34.008,71.57849,,,,,,0,0,0,0.0,0.0,0.0
526,havana,,havana,ciudad de la habana,cuba,23.13302,-82.38304,,,,,,0,0,0,0.0,0.0,0.0
527,calarca,,calarca,quindío,colombia,4.52949,-75.64091,,,,,,0,0,0,0.0,0.0,0.0
528,itamari,,itamari,bahia,brazil,-13.778,-39.684,,,,,,0,0,0,0.0,0.0,0.0
529,imphal,,imphal,manipur,india,24.80805,93.9442,,,,,,0,0,0,0.0,0.0,0.0
530,franco da rocha,,franco da rocha,sao paulo,brazil,-23.322,-46.727,,,,,,0,0,0,0.0,0.0,0.0
531,esslingen,,esslingen,baden-württemberg region,germany,48.73961,9.30473,,,,,,0,0,0,0.0,0.0,0.0
532,nagercoil,,nagercoil,tamil nādu,india,8.17731,77.43437,,,,,,0,0,0,0.0,0.0,0.0
533,chivilcoy,,chivilcoy,buenos aires,argentina,-34.89566,-60.01667,,,,,,0,0,0,0.0,0.0,0.0
534,roubaix,,roubaix,nord-pas-de-calais,france,50.69421,3.17456,,,,,,0,0,0,0.0,0.0,0.0
535,chiclayo,,chiclayo,lambayeque,peru,-6.77137,-79.84088,,,,,,0,0,0,0.0,0.0,0.0
536,boulogne billancourt,,boulogne billancourt,île-de-france,france,48.83333,2.25,,,,,,0,0,0,0.0,0.0,0.0
537,pernik,,pernik,pernik,bulgaria,42.6,23.03333,,,,,,0,0,0,0.0,0.0,0.0
538,formosa do oeste,,formosa do oeste,parana,brazil,-24.293,-53.313,,,,,,0,0,0,0.0,0.0,0.0
539,blackburn,,blackburn,england,united kingdom,53.75,-2.48333,,,,,,0,0,0,0.0,0.0,0.0
540,challans,,challans,pays de la loire,france,46.84363,-1.87491,,,,,,0,0,0,0.0,0.0,0.0
541,butare,,butare,southern province,rwanda,-2.59667,29.73944,,,,,,0,0,0,0.0,0.0,0.0
542,formigueiro,,formigueiro,rio grande do sul,brazil,-30.0,-53.499,,,,,,0,0,0,0.0,0.0,0.0
543,marseille,,marseille,provence-alpes-côte d'azur,france,43.29695,5.38107,,,,,,0,0,0,0.0,0.0,0.0
544,visconde do rio branco,,visconde do rio branco,minas gerais,brazil,-21.01,-42.841,,,,,,0,0,0,0.0,0.0,0.0
545,conchas,,conchas,sao paulo,brazil,-23.015,-48.011,,,,,,0,0,0,0.0,0.0,0.0
546,alcobaca,,alcobaca,bahia,brazil,-17.519,-39.196,,,,,,0,0,0,0.0,0.0,0.0
547,juliaca,,juliaca,puno,peru,-15.5,-70.13333,,,,,,0,0,0,0.0,0.0,0.0
548,pamplona,,pamplona,norte de santander,colombia,7.37565,-72.64795,,,,,,0,0,0,0.0,0.0,0.0
549,pojuca,,pojuca,bahia,brazil,-12.431,-38.328,,,,,,0,0,0,0.0,0.0,0.0
550,promissao,,promissao,sao paulo,brazil,-21.537,-49.858,,,,,,0,0,0,0.0,0.0,0.0
551,santo domingo,,santo domingo,distrito nacional,dominican republic,18.50012,-69.98857,,,,,,0,0,0,0.0,0.0,0.0
552,mollendo,,mollendo,arequipa,peru,-17.02306,-72.01472,,,,,,0,0,0,0.0,0.0,0.0
553,minatitlan,,minatitlan,veracruz-llave,mexico,17.99925,-94.55441,,,,,,0,0,0,0.0,0.0,0.0
554,pontevedra,,pontevedra,galicia,spain,42.431,-8.64435,,,,,,0,0,0,0.0,0.0,0.0
555,macon,,macon,bourgogne,france,46.3,4.83333,,,,,,0,0,0,0.0,0.0,0.0
556,santander,,santander,cantabria,spain,43.46472,-3.80444,,,,,,0,0,0,0.0,0.0,0.0
557,dej,,dej,cluj,romania,47.15,23.86667,,,,,,0,0,0,0.0,0.0,0.0
558,arica,,arica,arica y parinacota,chile,-18.4746,-70.29792,,,,,,0,0,0,0.0,0.0,0.0
559,neuilly sur seine,,neuilly sur seine,île-de-france,france,48.8846,2.26965,,,,,,0,0,0,0.0,0.0,0.0
560,mandaguacu,,mandaguacu,parana,brazil,-23.347,-52.095,,,,,,0,0,0,0.0,0.0,0.0
561,vila rica,,vila rica,mato grosso,brazil,-10.012,-51.116,,,,,,0,0,0,0.0,0.0,0.0
562,san francisco,,san francisco,california,united states,37.77493,-122.41942,,,,,,0,0,0,0.0,0.0,0.0
563,sao gabriel da cachoeira,,sao gabriel da cachoeira,amazonas,brazil,-0.13,-67.089,,,,,,0,0,0,0.0,0.0,0.0
564,mainz,,mainz,rheinland-pfalz,germany,49.98419,8.2791,,,,,,0,0,0,0.0,0.0,0.0
565,envigado,,envigado,departamento de antioquia,colombia,6.17591,-75.59174,,,,,,0,0,0,0.0,0.0,0.0
566,maracas,,maracas,bahia,brazil,-13.441,-40.431,,,,,,0,0,0,0.0,0.0,0.0
567,santa rosa,,santa rosa,la pampa,argentina,-36.61667,-64.28333,,,,,,0,0,0,0.0,0.0,0.0
568,amadora,,amadora,lisbon,portugal,38.75382,-9.23083,,,,,,0,0,0,0.0,0.0,0.0
569,hamilton,,hamilton,ontario,canada,43.25011,-79.84963,,,,,,0,0,0,0.0,0.0,0.0
570,raalte,,raalte,overijssel,netherlands,52.38583,6.275,,,,,,0,0,0,0.0,0.0,0.0
571,santa barbara d oeste,,santa barbara d oeste,sao paulo,brazil,-22.754,-47.414,,,,,,1,1,2,2.0,1.0,1.0
572,malta,,malta,paraiba,brazil,-6.904,-37.522,,,,,,0,0,0,0.0,0.0,0.0
573,siena,,siena,tuscany,italy,43.32215,11.3259,,,,,,0,0,0,0.0,0.0,0.0
574,versailles,,versailles,île-de-france,france,48.8,2.13333,,,,,,0,0,0,0.0,0.0,0.0
575,guantanamo,,guantanamo,guantánamo,cuba,20.14444,-75.20917,,,,,,0,0,0,0.0,0.0,0.0
576,morros,,morros,maranhao,brazil,-2.864,-44.039,,,,,,0,0,0,0.0,0.0,0.0
577,cacapava do sul,,cacapava do sul,rio grande do sul,brazil,-30.512,-53.491,,,,,,0,0,0,0.0,0.0,0.0
578,pinar del rio,,pinar del rio,pinar del río,cuba,22.4175,-83.69806,,,,,,0,0,0,0.0,0.0,0.0
579,salerno,,salerno,campania,italy,40.67545,14.79328,,,,,,0,0,0,0.0,0.0,0.0
580,mar del plata,,mar del plata,buenos aires,argentina,-38.00228,-57.55754,,,,,,0,0,0,0.0,0.0,0.0
581,anguera,,anguera,bahia,brazil,-12.151,-39.246,,,,,,0,0,0,0.0,0.0,0.0
582,zadar,,zadar,zadarska,croatia,44.11972,15.24222,,,,,,0,0,0,0.0,0.0,0.0
583,boaco,,boaco,boaco,nicaragua,12.47224,-85.6586,,,,,,0,0,0,0.0,0.0,0.0
584,votorantim,,votorantim,sao paulo,brazil,-23.547,-47.438,,,,,,0,0,0,0.0,0.0,0.0
585,boa esperanca do iguacu,,boa esperanca do iguacu,parana,brazil,-25.636,-53.212,,,,,,0,0,0,0.0,0.0,0.0
586,campo largo,,campo largo,parana,brazil,-25.459,-49.528,,,,,,1,0,1,1.0,1.0,0.0
587,aschaffenburg,,aschaffenburg,bavaria,germany,49.97704,9.15214,,,,,,0,0,0,0.0,0.0,0.0
588,holguin,,holguin,holguín,cuba,20.88722,-76.26306,,,,,,0,0,0,0.0,0.0,0.0
589,crissiumal,,crissiumal,rio grande do sul,brazil,-27.5,-54.101,,,,,,0,0,0,0.0,0.0,0.0
590,ponte nova,,ponte nova,minas gerais,brazil,-20.416,-42.909,,,,,,3,0,3,3.0,3.0,0.0
591,cambui,,cambui,minas gerais,brazil,-22.612,-46.058,,,,,,0,0,0,0.0,0.0,0.0
592,manacapuru,,manacapuru,amazonas,brazil,-3.3,-60.621,,,,,,0,0,0,0.0,0.0,0.0
593,varanasi,,varanasi,uttar pradesh,india,25.31668,83.01041,,,,,,0,0,0,0.0,0.0,0.0
594,tucunduva,,tucunduva,rio grande do sul,brazil,-27.657,-54.44,,,,,,0,0,0,0.0,0.0,0.0
595,bangalore,,bangalore,karnātaka,india,12.97194,77.59369,,,,,,0,0,0,0.0,0.0,0.0
596,brest,,brest,brestskaya voblastsʼ,belarus,52.09755,23.68775,,,,,,0,0,0,0.0,0.0,0.0
597,codo,,codo,maranhao,brazil,-4.455,-43.886,,,,,,0,0,0,0.0,0.0,0.0
598,tres rios,,tres rios,rio de janeiro,brazil,-22.117,-43.209,,,,,,1,0,1,1.0,1.0,0.0
599,seberi,,seberi,rio grande do sul,brazil,-27.478,-53.403,,,,,,0,0,0,0.0,0.0,0.0
600,romans sur isere,,romans sur isere,rhône-alpes,france,45.04639,5.0562,,,,,,0,0,0,0.0,0.0,0.0
601,cristalandia,,cristalandia,tocantins,brazil,-10.6,-49.193,,,,,,0,0,0,0.0,0.0,0.0
602,baependi,,baependi,minas gerais,brazil,-21.959,-44.89,,,,,,0,0,0,0.0,0.0,0.0
603,haarlem,,haarlem,north holland,netherlands,52.38084,4.63683,,,,,,0,0,0,0.0,0.0,0.0
604,quetzaltenango,,quetzaltenango,quetzaltenango,guatemala,14.83472,-91.51806,,,,,,0,0,0,0.0,0.0,0.0
605,cedral,,cedral,sao paulo,brazil,-20.903,-49.268,,,,,,0,0,0,0.0,0.0,0.0
606,ervalia,,ervalia,minas gerais,brazil,-20.84,-42.657,,,,,,0,0,0,0.0,0.0,0.0
607,nova cruz,,nova cruz,rio grande do norte,brazil,-6.478,-35.434,,,,,,0,0,0,0.0,0.0,0.0
608,warwick,,warwick,england,united kingdom,52.28333,-1.58333,,,,,,0,0,0,0.0,0.0,0.0
609,juazeiro,,juazeiro,bahia,brazil,-9.414,-40.503,,,,,,0,0,0,0.0,0.0,0.0
610,itumirim,,itumirim,minas gerais,brazil,-21.317,-44.871,,,,,,0,0,0,0.0,0.0,0.0
611,parnaiba,,parnaiba,piaui,brazil,-2.905,-41.777,,,,,,0,0,0,0.0,0.0,0.0
612,goiandira,,goiandira,goias,brazil,-18.133,-48.085,,,,,,0,0,0,0.0,0.0,0.0
613,esperanca,,esperanca,paraiba,brazil,-7.023,-35.86,,,,,,0,0,0,0.0,0.0,0.0
614,sao joao da boa vista,,sao joao da boa vista,sao paulo,brazil,-21.969,-46.798,,,,,,4,0,4,7.0,7.0,0.0
615,dijon,,dijon,bourgogne,france,47.31667,5.01667,,,,,,0,0,0,0.0,0.0,0.0
616,linz,,linz,upper austria,austria,48.30639,14.28611,,,,,,0,0,0,0.0,0.0,0.0
617,rosario,,rosario,santa fe,argentina,-32.94682,-60.63932,,,,,,0,0,0,0.0,0.0,0.0
618,cambe,,cambe,parana,brazil,-23.276,-51.278,,,,,,0,0,0,0.0,0.0,0.0
619,juara,,juara,mato grosso,brazil,-11.255,-57.52,,,,,,0,0,0,0.0,0.0,0.0
620,humaita,,humaita,rio grande do sul,brazil,-27.563,-53.974,,,,,,0,0,0,0.0,0.0,0.0
621,jales,,jales,sao paulo,brazil,-20.269,-50.546,,,,,,3,0,3,5.0,5.0,0.0
622,campo belo,,campo belo,minas gerais,brazil,-20.897,-45.277,,,,,,0,0,0,0.0,0.0,0.0
623,ipira,,ipira,santa catarina,brazil,-27.404,-51.773,,,,,,0,0,0,0.0,0.0,0.0
624,sao manuel,,sao manuel,sao paulo,brazil,-22.731,-48.571,,,,,,1,0,1,2.0,2.0,0.0
625,huancayo,,huancayo,junín,peru,-12.06513,-75.20486,,,,,,0,0,0,0.0,0.0,0.0
626,pirajui,,pirajui,sao paulo,brazil,-21.999,-49.457,,,,,,0,0,0,0.0,0.0,0.0
627,carmo do paranaiba,,carmo do paranaiba,minas gerais,brazil,-19.001,-46.316,,,,,,0,0,0,0.0,0.0,0.0
628,burton upon trent,,burton upon trent,england,united kingdom,52.80728,-1.64263,,,,,,0,0,0,0.0,0.0,0.0
629,carazinho,,carazinho,rio grande do sul,brazil,-28.284,-52.786,,,,,,0,0,0,0.0,0.0,0.0
630,tibau do sul,,tibau do sul,rio grande do norte,brazil,-6.187,-35.092,,,,,,0,0,0,0.0,0.0,0.0
631,talcahuano,,talcahuano,biobío,chile,-36.72494,-73.11684,,,,,,0,0,0,0.0,0.0,0.0
632,garibaldi,,garibaldi,rio grande do sul,brazil,-29.256,-51.534,,,,,,3,0,3,4.0,4.0,0.0
633,adolfo,,adolfo,sao paulo,brazil,-21.235,-49.644,,,,,,0,0,0,0.0,0.0,0.0
634,frauenfeld,,frauenfeld,thurgau,switzerland,47.55816,8.89854,,,,,,0,0,0,0.0,0.0,0.0
635,joacaba,,joacaba,santa catarina,brazil,-27.178,-51.505,,,,,,0,0,0,0.0,0.0,0.0
636,piumhi,,piumhi,minas gerais,brazil,-20.465,-45.958,,,,,,0,0,0,0.0,0.0,0.0
637,leszno,,leszno,greater poland voivodeship,poland,51.84034,16.57494,,,,,,0,0,0,0.0,0.0,0.0
638,alexandria,,alexandria,alexandria,egypt,31.21564,29.95527,,,,,,0,0,0,0.0,0.0,0.0
639,manzanillo,,manzanillo,granma,cuba,20.34333,-77.11667,,,,,,0,0,0,0.0,0.0,0.0
640,carius,,carius,ceara,brazil,-6.537,-39.497,,,,,,0,0,0,0.0,0.0,0.0
641,raul soares,,raul soares,minas gerais,brazil,-20.102,-42.453,,,,,,0,0,0,0.0,0.0,0.0
642,mexico,,mexico,central luzon,philippines,15.0646,120.7198,,,,,,0,0,0,0.0,0.0,0.0
643,sao luiz,,sao luiz,roraima,brazil,1.005,-60.159,,,,,,0,0,0,0.0,0.0,0.0
644,camaragibe,,camaragibe,pernambuco,brazil,-8.022,-34.981,,,,,,0,0,0,0.0,0.0,0.0
645,caete,,caete,minas gerais,brazil,-19.88,-43.67,,,,,,0,0,0,0.0,0.0,0.0
646,mombaca,,mombaca,ceara,brazil,-5.743,-39.628,,,,,,0,0,0,0.0,0.0,0.0
647,wiesbaden,,wiesbaden,hesse,germany,50.08258,8.24932,,,,,,0,0,0,0.0,0.0,0.0
648,porto ferreira,,porto ferreira,sao paulo,brazil,-21.854,-47.479,,,,,,0,0,0,0.0,0.0,0.0
649,palmital,,palmital,sao paulo,brazil,-22.789,-50.218,,,,,,0,0,0,0.0,0.0,0.0
650,guararema,,guararema,sao paulo,brazil,-23.415,-46.035,,,,,,0,0,0,0.0,0.0,0.0
651,galveston,,galveston,texas,united states,29.30135,-94.7977,,,,,,0,0,0,0.0,0.0,0.0
652,bom jesus,,bom jesus,rio grande do sul,brazil,-28.668,-50.417,,,,,,0,0,0,0.0,0.0,0.0
653,bela vista do paraiso,,bela vista do paraiso,parana,brazil,-22.997,-51.191,,,,,,0,0,0,0.0,0.0,0.0
654,joao alfredo,,joao alfredo,pernambuco,brazil,-7.856,-35.588,,,,,,0,0,0,0.0,0.0,0.0
655,santa cruz do rio pardo,,santa cruz do rio pardo,sao paulo,brazil,-22.899,-49.633,,,,,,0,0,0,0.0,0.0,0.0
656,porto uniao,,porto uniao,santa catarina,brazil,-26.238,-51.078,,,,,,0,0,0,0.0,0.0,0.0
657,guira de melena,,guira de melena,provincia artemisa,cuba,22.79274,-82.50823,,,,,,0,0,0,0.0,0.0,0.0
658,presidente bernardes,,presidente bernardes,sao paulo,brazil,-22.006,-51.553,,,,,,0,0,0,0.0,0.0,0.0
659,rabat,,rabat,rabat-salé-zemmour-zaër,morocco,34.01325,-6.83255,,,,,,0,0,0,0.0,0.0,0.0
660,wellington,,wellington,wellington,new zealand,-41.28664,174.77557,,,,,,0,0,0,0.0,0.0,0.0
661,nova canaa,,nova canaa,bahia,brazil,-14.794,-40.142,,,,,,0,0,0,0.0,0.0,0.0
662,faxinal do soturno,,faxinal do soturno,rio grande do sul,brazil,-29.575,-53.445,,,,,,0,0,0,0.0,0.0,0.0
663,sao borja,,sao borja,rio grande do sul,brazil,-28.661,-56.004,,,,,,0,0,0,0.0,0.0,0.0
664,itapetininga,,itapetininga,sao paulo,brazil,-23.592,-48.053,,,,,,2,0,2,2.0,2.0,0.0
665,agua santa,,agua santa,rio grande do sul,brazil,-28.177,-52.034,,,,,,0,0,0,0.0,0.0,0.0
666,senhor do bonfim,,senhor do bonfim,bahia,brazil,-10.463,-40.191,,,,,,0,0,0,0.0,0.0,0.0
667,fenix,,fenix,parana,brazil,-23.916,-51.979,,,,,,0,0,0,0.0,0.0,0.0
668,vila real,,vila real,vila real,portugal,41.30062,-7.74413,,,,,,0,0,0,0.0,0.0,0.0
669,alto piquiri,,alto piquiri,parana,brazil,-24.028,-53.441,,,,,,0,0,0,0.0,0.0,0.0
670,belfast,,belfast,n ireland,united kingdom,54.58333,-5.93333,,,,,,0,0,0,0.0,0.0,0.0
671,santiago del estero,,santiago del estero,santiago del estero,argentina,-27.79511,-64.26149,,,,,,0,0,0,0.0,0.0,0.0
672,quimper,,quimper,brittany,france,48.0,-4.1,,,,,,0,0,0,0.0,0.0,0.0
673,frederico westphalen,,frederico westphalen,rio grande do sul,brazil,-27.359,-53.394,,,,,,0,0,0,0.0,0.0,0.0
674,oslo,,oslo,oslo county,norway,59.91273,10.74609,,,,,,0,0,0,0.0,0.0,0.0
675,santiago,,santiago,rio grande do sul,brazil,-29.192,-54.867,,,,,,0,0,0,0.0,0.0,0.0
676,sao pedro do sul,,sao pedro do sul,rio grande do sul,brazil,-29.621,-54.179,,,,,,0,0,0,0.0,0.0,0.0
677,rolandia,,rolandia,parana,brazil,-23.31,-51.369,,,,,,0,0,0,0.0,0.0,0.0
678,bacabal,,bacabal,maranhao,brazil,-4.225,-44.78,,,,,,0,0,0,0.0,0.0,0.0
679,brasileia,,brasileia,acre,brazil,-11.01,-68.748,,,,,,0,0,0,0.0,0.0,0.0
680,baturite,,baturite,ceara,brazil,-4.329,-38.885,,,,,,0,0,0,0.0,0.0,0.0
681,orlandia,,orlandia,sao paulo,brazil,-20.72,-47.887,,,,,,1,0,1,1.0,1.0,0.0
682,pedro osorio,,pedro osorio,rio grande do sul,brazil,-31.864,-52.823,,,,,,0,0,0,0.0,0.0,0.0
683,turvania,,turvania,goias,brazil,-16.614,-50.134,,,,,,0,0,0,0.0,0.0,0.0
684,ubajara,,ubajara,ceara,brazil,-3.854,-40.921,,,,,,0,0,0,0.0,0.0,0.0
685,rio do sul,,rio do sul,santa catarina,brazil,-27.214,-49.643,,,,,,1,0,1,1.0,1.0,0.0
686,santa barbara do sul,,santa barbara do sul,rio grande do sul,brazil,-28.358,-53.247,,,,,,0,0,0,0.0,0.0,0.0
687,presidente olegario,,presidente olegario,minas gerais,brazil,-18.418,-46.418,,,,,,0,0,0,0.0,0.0,0.0
688,boa esperanca do sul,,boa esperanca do sul,sao paulo,brazil,-21.993,-48.391,,,,,,0,0,0,0.0,0.0,0.0
689,vargem bonita,,vargem bonita,santa catarina,brazil,-27.007,-51.74,,,,,,0,0,0,0.0,0.0,0.0
690,irituia,,irituia,para,brazil,-1.769,-47.439,,,,,,0,0,0,0.0,0.0,0.0
691,lambari,,lambari,minas gerais,brazil,-21.976,-45.35,,,,,,0,0,0,0.0,0.0,0.0
692,capivari,,capivari,sao paulo,brazil,-22.995,-47.508,,,,,,0,0,0,0.0,0.0,0.0
693,sapeacu,,sapeacu,bahia,brazil,-12.728,-39.182,,,,,,0,0,0,0.0,0.0,0.0
694,tupa,,tupa,sao paulo,brazil,-21.935,-50.514,,,,,,2,0,2,2.0,2.0,0.0
695,pocos de caldas,,pocos de caldas,minas gerais,brazil,-21.788,-46.561,,,,,,0,0,0,0.0,0.0,0.0
696,paramaribo,,paramaribo,paramaribo,suriname,5.86638,-55.16682,,,,,,0,0,0,0.0,0.0,0.0
697,laguna,,laguna,santa catarina,brazil,-28.483,-48.781,,,,,,0,0,0,0.0,0.0,0.0
698,anicuns,,anicuns,goias,brazil,-16.461,-49.962,,,,,,0,0,0,0.0,0.0,0.0
699,uruguaiana,,uruguaiana,rio grande do sul,brazil,-29.755,-57.088,,,,,,2,0,2,3.0,3.0,0.0
700,oruro,,oruro,oruro,bolivia,-17.98333,-67.15,,,,,,0,0,0,0.0,0.0,0.0
701,loures,,loures,lisbon,portugal,38.83091,-9.16845,,,,,,0,0,0,0.0,0.0,0.0
702,nova roma,,nova roma,goias,brazil,-13.742,-46.88,,,,,,0,0,0,0.0,0.0,0.0
703,curepipe,,curepipe,plaines wilhems,mauritius,-20.31472,57.52028,,,,,,0,0,0,0.0,0.0,0.0
704,treinta y tres,,treinta y tres,treinta y tres,uruguay,-33.23333,-54.38333,,,,,,0,0,0,0.0,0.0,0.0
705,beijing,,beijing,beijing,china,39.9075,116.39723,,,,,,0,0,0,0.0,0.0,0.0
706,sao martinho,,sao martinho,santa catarina,brazil,-28.165,-48.979,,,,,,0,0,0,0.0,0.0,0.0
707,quirinopolis,,quirinopolis,goias,brazil,-18.448,-50.452,,,,,,0,0,0,0.0,0.0,0.0
708,coburg,,coburg,bavaria,germany,50.25937,10.96384,,,,,,0,0,0,0.0,0.0,0.0
709,santa teresa,,santa teresa,espirito santo,brazil,-19.936,-40.6,,,,,,0,0,0,0.0,0.0,0.0
710,cartagena,,cartagena,bolívar,colombia,10.39972,-75.51444,,,,,,0,0,0,0.0,0.0,0.0
711,macieira,,macieira,santa catarina,brazil,-26.856,-51.378,,,,,,0,0,0,0.0,0.0,0.0
712,surat,,surat,gujarāt,india,21.19594,72.83023,,,,,,0,0,0,0.0,0.0,0.0
713,rondinha,,rondinha,rio grande do sul,brazil,-27.828,-52.91,,,,,,0,0,0,0.0,0.0,0.0
714,aguas da prata,,aguas da prata,sao paulo,brazil,-21.937,-46.717,,,,,,0,0,0,0.0,0.0,0.0
715,nova xavantina,,nova xavantina,mato grosso,brazil,-14.673,-52.353,,,,,,0,0,0,0.0,0.0,0.0
716,terezinha,,terezinha,pernambuco,brazil,-9.056,-36.623,,,,,,0,0,0,0.0,0.0,0.0
717,taipei,,taipei,taipei,taiwan,25.04776,121.53185,,,,,,0,0,0,0.0,0.0,0.0
718,cosmopolis,,cosmopolis,sao paulo,brazil,-22.646,-47.196,,,,,,0,0,0,0.0,0.0,0.0
719,campina das missoes,,campina das missoes,rio grande do sul,brazil,-27.989,-54.839,,,,,,0,0,0,0.0,0.0,0.0
720,sanok,,sanok,subcarpathian voivodeship,poland,49.55573,22.2056,,,,,,0,0,0,0.0,0.0,0.0
721,sogamoso,,sogamoso,boyacá,colombia,5.71434,-72.93391,,,,,,0,0,0,0.0,0.0,0.0
722,mage,,mage,rio de janeiro,brazil,-22.653,-43.041,,,,,,0,0,0,0.0,0.0,0.0
723,mangaratiba,,mangaratiba,rio de janeiro,brazil,-22.96,-44.041,,,,,,0,0,0,0.0,0.0,0.0
724,martins,,martins,rio grande do norte,brazil,-6.088,-37.911,,,,,,0,0,0,0.0,0.0,0.0
725,nova bassano,,nova bassano,rio grande do sul,brazil,-28.724,-51.705,,,,,,0,0,0,0.0,0.0,0.0
726,cangucu,,cangucu,rio grande do sul,brazil,-31.395,-52.676,,,,,,0,0,0,0.0,0.0,0.0
727,boa esperanca,,boa esperanca,parana,brazil,-24.242,-52.789,,,,,,0,0,0,0.0,0.0,0.0
728,monte aprazivel,,monte aprazivel,sao paulo,brazil,-20.773,-49.714,,,,,,3,1,4,5.0,4.0,1.0
729,tiete,,tiete,sao paulo,brazil,-23.102,-47.715,,,,,,2,0,2,3.0,3.0,0.0
730,tacaratu,,tacaratu,pernambuco,brazil,-9.106,-38.15,,,,,,0,0,0,0.0,0.0,0.0
731,isfahan,,isfahan,ostān-e eşfahān,iran,32.65246,51.67462,,,,,,0,0,0,0.0,0.0,0.0
732,ipora,,ipora,goias,brazil,-16.442,-51.118,,,,,,0,0,0,0.0,0.0,0.0
733,monte azul,,monte azul,minas gerais,brazil,-15.155,-42.875,,,,,,0,0,0,0.0,0.0,0.0
734,guararapes,,guararapes,sao paulo,brazil,-21.261,-50.643,,,,,,0,0,0,0.0,0.0,0.0
735,ipameri,,ipameri,goias,brazil,-17.722,-48.16,,,,,,0,0,0,0.0,0.0,0.0
736,joao neiva,,joao neiva,espirito santo,brazil,-19.758,-40.386,,,,,,0,0,0,0.0,0.0,0.0
737,nepomuceno,,nepomuceno,minas gerais,brazil,-21.236,-45.236,,,,,,0,0,0,0.0,0.0,0.0
738,iquitos,,iquitos,loreto,peru,-3.74912,-73.25383,,,,,,0,0,0,0.0,0.0,0.0
739,san salvador,,san salvador,san salvador,el salvador,13.68935,-89.18718,,,,,,0,0,0,0.0,0.0,0.0
740,thiruvananthapuram,,thiruvananthapuram,kerala,india,8.4855,76.94924,,,,,,0,0,0,0.0,0.0,0.0
741,cardiff,,cardiff,wales,united kingdom,51.48,-3.18,,,,,,0,0,0,0.0,0.0,0.0
742,sao vicente,,sao vicente,sao paulo,brazil,-23.963,-46.392,,,,,,1,0,1,2.0,2.0,0.0
743,gualeguay,,gualeguay,entre ríos,argentina,-33.14156,-59.30966,,,,,,0,0,0,0.0,0.0,0.0
744,nova palma,,nova palma,rio grande do sul,brazil,-29.472,-53.469,,,,,,0,0,0,0.0,0.0,0.0
745,floriano,,floriano,piaui,brazil,-6.767,-43.023,,,,,,0,0,0,0.0,0.0,0.0
746,santana do livramento,,santana do livramento,rio grande do sul,brazil,-30.891,-55.533,,,,,,0,0,0,0.0,0.0,0.0
747,birigui,,birigui,sao paulo,brazil,-21.289,-50.34,,,,,,1,0,1,1.0,1.0,0.0
748,porteirinha,,porteirinha,minas gerais,brazil,-15.743,-43.028,,,,,,0,0,0,0.0,0.0,0.0
749,marlieria,,marlieria,minas gerais,brazil,-19.712,-42.732,,,,,,0,0,0,0.0,0.0,0.0
750,palmira,,palmira,valle del cauca,colombia,3.53944,-76.30361,,,,,,0,0,0,0.0,0.0,0.0
751,santa cruz de la sierra,,santa cruz de la sierra,santa cruz,bolivia,-17.78629,-63.18117,,,,,,0,0,0,0.0,0.0,0.0
752,aperibe,,aperibe,rio de janeiro,brazil,-21.621,-42.103,,,,,,0,0,0,0.0,0.0,0.0
753,venancio aires,,venancio aires,rio grande do sul,brazil,-29.606,-52.192,,,,,,0,0,0,0.0,0.0,0.0
754,delhi,,delhi,nct,india,28.65381,77.22897,,,,,,0,0,0,0.0,0.0,0.0
755,ipiales,,ipiales,nariño,colombia,0.83018,-77.64959,,,,,,0,0,0,0.0,0.0,0.0
756,swabi,,swabi,north-west frontier province,pakistan,34.11988,72.46987,,,,,,0,0,0,0.0,0.0,0.0
757,bela vista,,bela vista,mato grosso do sul,brazil,-22.109,-56.521,,,,,,0,0,0,0.0,0.0,0.0
758,angelica,,angelica,mato grosso do sul,brazil,-22.153,-53.771,,,,,,0,0,0,0.0,0.0,0.0
759,barbosa ferraz,,barbosa ferraz,parana,brazil,-24.03,-52.012,,,,,,0,0,0,0.0,0.0,0.0
760,contagem,,contagem,minas gerais,brazil,-19.932,-44.054,,,,,,2,0,2,4.0,4.0,0.0
761,ipatinga,,ipatinga,minas gerais,brazil,-19.468,-42.537,,,,,,3,0,3,8.0,8.0,0.0
762,guaira,,guaira,parana,brazil,-24.08,-54.256,,,,,,0,0,0,0.0,0.0,0.0
763,mococa,,mococa,sao paulo,brazil,-21.468,-47.005,,,,,,5,0,5,5.0,5.0,0.0
764,ibitinga,,ibitinga,sao paulo,brazil,-21.758,-48.829,,,,,,2,0,2,2.0,2.0,0.0
765,budapest,,budapest,budapest,hungary,47.49801,19.03991,,,,,,0,0,0,0.0,0.0,0.0
766,matanzas,,matanzas,matanzas,cuba,23.04111,-81.5775,,,,,,0,0,0,0.0,0.0,0.0
767,san salvador de jujuy,,san salvador de jujuy,jujuy,argentina,-24.19457,-65.29712,,,,,,0,0,0,0.0,0.0,0.0
768,luanda,,luanda,luanda,angola,-8.83682,13.23432,,,,,,0,0,0,0.0,0.0,0.0
769,karlstadt,,karlstadt,bavaria,germany,49.96034,9.77239,,,,,,0,0,0,0.0,0.0,0.0
770,christchurch,,christchurch,canterbury,new zealand,-43.53333,172.63333,,,,,,0,0,0,0.0,0.0,0.0
771,riga,,riga,rīga,latvia,56.946,24.10589,,,,,,0,0,0,0.0,0.0,0.0
772,tres passos,,tres passos,rio grande do sul,brazil,-27.456,-53.932,,,,,,0,0,0,0.0,0.0,0.0
773,quixada,,quixada,ceara,brazil,-4.971,-39.015,,,,,,4,0,4,6.0,6.0,0.0
774,huancavelica,,huancavelica,huancavelica,peru,-12.78261,-74.97266,,,,,,0,0,0,0.0,0.0,0.0
775,taiobeiras,,taiobeiras,minas gerais,brazil,-15.808,-42.233,,,,,,0,0,0,0.0,0.0,0.0
776,sherbrooke,,sherbrooke,quebec,canada,45.40008,-71.89908,,,,,,0,0,0,0.0,0.0,0.0
777,dubna,,dubna,moskovskaya,russia,56.73333,37.16667,,,,,,0,0,0,0.0,0.0,0.0
778,palencia,,palencia,castille and león,spain,42.00955,-4.52406,,,,,,0,0,0,0.0,0.0,0.0
779,colina,,colina,sao paulo,brazil,-20.713,-48.541,,,,,,0,0,0,0.0,0.0,0.0
780,quixeramobim,,quixeramobim,ceara,brazil,-5.199,-39.293,,,,,,0,0,0,0.0,0.0,0.0
781,tres lagoas,,tres lagoas,mato grosso do sul,brazil,-20.751,-51.678,,,,,,4,0,4,4.0,4.0,0.0
782,cajazeiras,,cajazeiras,paraiba,brazil,-6.89,-38.562,,,,,,0,0,0,0.0,0.0,0.0
783,hardenberg,,hardenberg,overijssel,netherlands,52.57583,6.61944,,,,,,0,0,0,0.0,0.0,0.0
784,guarabira,,guarabira,paraiba,brazil,-6.855,-35.49,,,,,,0,0,0,0.0,0.0,0.0
785,geneve,,geneve,geneva,switzerland,46.20222,6.14569,,,,,,0,0,0,0.0,0.0,0.0
786,san cristobal,,san cristobal,estado táchira,venezuela,7.76694,-72.225,,,,,,0,0,0,0.0,0.0,0.0
787,tandil,,tandil,buenos aires,argentina,-37.32167,-59.13316,,,,,,0,0,0,0.0,0.0,0.0
788,arequipa,,arequipa,arequipa,peru,-16.39889,-71.535,,,,,,0,0,0,0.0,0.0,0.0
789,leiria,,leiria,leiria,portugal,39.74362,-8.80705,,,,,,0,0,0,0.0,0.0,0.0
790,cranbrook,,cranbrook,british columbia,canada,49.49991,-115.76879,,,,,,0,0,0,0.0,0.0,0.0
791,artigas,,artigas,artigas,uruguay,-30.4,-56.46667,,,,,,0,0,0,0.0,0.0,0.0
792,nijmegen,,nijmegen,gelderland,netherlands,51.8425,5.85278,,,,,,0,0,0,0.0,0.0,0.0
793,campo formoso,,campo formoso,bahia,brazil,-10.509,-40.321,,,,,,1,0,1,1.0,1.0,0.0
794,carangola,,carangola,minas gerais,brazil,-20.733,-42.029,,,,,,0,0,0,0.0,0.0,0.0
795,modena,,modena,emilia-romagna,italy,44.64783,10.92539,,,,,,0,0,0,0.0,0.0,0.0
796,goiatuba,,goiatuba,goias,brazil,-18.013,-49.357,,,,,,5,0,5,7.0,7.0,0.0
797,sao simao,,sao simao,sao paulo,brazil,-21.479,-47.551,,,,,,0,0,0,0.0,0.0,0.0
798,santa tereza,,santa tereza,rio grande do sul,brazil,-29.169,-51.735,,,,,,0,0,0,0.0,0.0,0.0
799,merida,,merida,estado mérida,venezuela,8.59524,-71.1434,,,,,,0,0,0,0.0,0.0,0.0
800,botumirim,,botumirim,minas gerais,brazil,-16.872,-43.011,,,,,,0,0,0,0.0,0.0,0.0
801,itapui,,itapui,sao paulo,brazil,-22.233,-48.719,,,,,,0,0,0,0.0,0.0,0.0
802,itanhomi,,itanhomi,minas gerais,brazil,-19.172,-41.865,,,,,,0,0,0,0.0,0.0,0.0
803,porto franco,,porto franco,maranhao,brazil,-6.338,-47.399,,,,,,0,0,0,0.0,0.0,0.0
804,ribeirao vermelho,,ribeirao vermelho,minas gerais,brazil,-21.191,-45.062,,,,,,0,0,0,0.0,0.0,0.0
805,cochabamba,,cochabamba,cochabamba,bolivia,-17.3895,-66.1568,,,,,,0,0,0,0.0,0.0,0.0
806,ibague,,ibague,tolima,colombia,4.43889,-75.23222,,,,,,0,0,0,0.0,0.0,0.0
807,jacarei,,jacarei,sao paulo,brazil,-23.305,-45.966,,,,,,2,0,2,2.0,2.0,0.0
808,sao sebastiao do paraiso,,sao sebastiao do paraiso,minas gerais,brazil,-20.917,-46.991,,,,,,1,0,1,1.0,1.0,0.0
809,antony,,antony,île-de-france,france,48.75,2.3,,,,,,0,0,0,0.0,0.0,0.0
810,tottori,,tottori,tottori,japan,35.5,134.23333,,,,,,0,0,0,0.0,0.0,0.0
811,pasto,,pasto,nariño,colombia,1.21361,-77.28111,,,,,,0,0,0,0.0,0.0,0.0
812,sancti spiritus,,sancti spiritus,sancti spíritus,cuba,21.92972,-79.4425,,,,,,0,0,0,0.0,0.0,0.0
813,araguacema,,araguacema,tocantins,brazil,-8.804,-49.556,,,,,,0,0,0,0.0,0.0,0.0
814,ipiau,,ipiau,bahia,brazil,-14.137,-39.734,,,,,,0,0,0,0.0,0.0,0.0
815,mantena,,mantena,minas gerais,brazil,-18.782,-40.98,,,,,,1,0,1,1.0,1.0,0.0
816,la paz,,la paz,la paz,bolivia,-16.5,-68.15,,,,,,0,0,0,0.0,0.0,0.0
817,colonia,,colonia,new jersey,united states,40.57455,-74.30209,,,,,,0,0,0,0.0,0.0,0.0
818,nuevitas,,nuevitas,camagüey,cuba,21.54528,-77.26444,,,,,,0,0,0,0.0,0.0,0.0
819,chimbote,,chimbote,ancash,peru,-9.08528,-78.57833,,,,,,0,0,0,0.0,0.0,0.0
820,graneros,,graneros,o'higgins,chile,-34.06863,-70.72747,,,,,,0,0,0,0.0,0.0,0.0
821,capinzal,,capinzal,santa catarina,brazil,-27.344,-51.612,,,,,,0,0,0,0.0,0.0,0.0
822,tomsk,,tomsk,tomsk,russia,56.49771,84.97437,,,,,,0,0,0,0.0,0.0,0.0
823,tocantins,,tocantins,minas gerais,brazil,-21.175,-43.018,,,,,,0,0,0,0.0,0.0,0.0
824,santarem,,santarem,santarém,portugal,39.23333,-8.68333,,,,,,0,0,0,0.0,0.0,0.0
825,cajamarca,,cajamarca,cajamarca,peru,-7.16378,-78.50027,,,,,,0,0,0,0.0,0.0,0.0
826,concordia,,concordia,santa catarina,brazil,-27.234,-52.028,,,,,,12,0,12,26.0,26.0,0.0
827,taua,,taua,ceara,brazil,-6.003,-40.293,,,,,,0,0,0,0.0,0.0,0.0
828,santo augusto,,santo augusto,rio grande do sul,brazil,-27.851,-53.777,,,,,,0,0,0,0.0,0.0,0.0
829,itabuna,,itabuna,bahia,brazil,-14.786,-39.28,,,,,,0,0,0,0.0,0.0,0.0
830,pune,,pune,mahārāshtra,india,18.51957,73.85535,,,,,,0,0,0,0.0,0.0,0.0
831,antonina,,antonina,parana,brazil,-25.429,-48.712,,,,,,0,0,0,0.0,0.0,0.0
832,santos dumont,,santos dumont,minas gerais,brazil,-21.457,-43.553,,,,,,0,0,0,0.0,0.0,0.0
833,guaiba,,guaiba,rio grande do sul,brazil,-30.114,-51.325,,,,,,0,0,0,0.0,0.0,0.0
834,cachoeira de minas,,cachoeira de minas,minas gerais,brazil,-22.355,-45.779,,,,,,0,0,0,0.0,0.0,0.0
835,dolcinopolis,,dolcinopolis,sao paulo,brazil,-20.123,-50.513,,,,,,0,0,0,0.0,0.0,0.0
836,ipora,,ipora,parana,brazil,-24.003,-53.704,,,,,,0,0,0,0.0,0.0,0.0
837,croata,,croata,ceara,brazil,-4.4,-40.911,,,,,,0,0,0,0.0,0.0,0.0
838,cipolletti,,cipolletti,río negro,argentina,-38.93392,-67.99032,,,,,,0,0,0,0.0,0.0,0.0
839,manhumirim,,manhumirim,minas gerais,brazil,-20.358,-41.958,,,,,,0,0,0,0.0,0.0,0.0
840,bielefeld,,bielefeld,north rhine-westphalia,germany,52.03333,8.53333,,,,,,0,0,0,0.0,0.0,0.0
841,pereira,,pereira,risaralda,colombia,4.81333,-75.69611,,,,,,0,0,0,0.0,0.0,0.0
842,santa quiteria,,santa quiteria,ceara,brazil,-4.332,-40.157,,,,,,0,0,0,0.0,0.0,0.0
843,jerez de la frontera,,jerez de la frontera,andalusia,spain,36.68645,-6.13606,,,,,,0,0,0,0.0,0.0,0.0
844,timoteo,,timoteo,minas gerais,brazil,-19.583,-42.644,,,,,,0,0,0,0.0,0.0,0.0
845,londerzeel,,londerzeel,flanders,belgium,51.00468,4.30304,,,,,,0,0,0,0.0,0.0,0.0
846,pires do rio,,pires do rio,goias,brazil,-17.301,-48.28,,,,,,0,0,0,0.0,0.0,0.0
847,chennai,,chennai,tamil nādu,india,13.08784,80.27847,,,,,,0,0,0,0.0,0.0,0.0
848,ivora,,ivora,rio grande do sul,brazil,-29.52,-53.581,,,,,,0,0,0,0.0,0.0,0.0
849,mariana,,mariana,minas gerais,brazil,-20.378,-43.416,,,,,,2,0,2,2.0,2.0,0.0
850,sao francisco de assis,,sao francisco de assis,rio grande do sul,brazil,-29.55,-55.131,,,,,,0,0,0,0.0,0.0,0.0
851,coronel vivida,,coronel vivida,parana,brazil,-25.98,-52.568,,,,,,0,0,0,0.0,0.0,0.0
852,nampula,,nampula,nampula,mozambique,-15.11646,39.2666,,,,,,0,0,0,0.0,0.0,0.0
853,guiyang,,guiyang,guizhou sheng,china,26.58333,106.71667,,,,,,0,0,0,0.0,0.0,0.0
854,hubli,,hubli,karnātaka,india,15.34776,75.13378,,,,,,0,0,0,0.0,0.0,0.0
855,igarapava,,igarapava,sao paulo,brazil,-20.038,-47.747,,,,,,0,0,0,0.0,0.0,0.0
856,nasirabad,,nasirabad,rajasthan,india,26.30473,74.73364,,,,,,0,0,0,0.0,0.0,0.0
857,melo,,melo,cerro largo,uruguay,-32.36667,-54.18333,,,,,,0,0,0,0.0,0.0,0.0
858,itapolis,,itapolis,sao paulo,brazil,-21.596,-48.813,,,,,,0,0,0,0.0,0.0,0.0
859,bilac,,bilac,sao paulo,brazil,-21.403,-50.471,,,,,,0,0,0,0.0,0.0,0.0
860,juanjui,,juanjui,san martín,peru,-7.17697,-76.72774,,,,,,0,0,0,0.0,0.0,0.0
861,sertaozinho,,sertaozinho,sao paulo,brazil,-21.138,-47.99,,,,,,1,0,1,2.0,2.0,0.0
862,jaguarao,,jaguarao,rio grande do sul,brazil,-32.566,-53.376,,,,,,0,0,0,0.0,0.0,0.0
863,vinhedo,,vinhedo,sao paulo,brazil,-23.03,-46.975,,,,,,2,0,2,2.0,2.0,0.0
864,herford,,herford,north rhine-westphalia,germany,52.11457,8.67343,,,,,,0,0,0,0.0,0.0,0.0
865,boa ventura,,boa ventura,paraiba,brazil,-7.414,-38.216,,,,,,0,0,0,0.0,0.0,0.0
866,bassano del grappa,,bassano del grappa,veneto,italy,45.76231,11.73112,,,,,,0,0,0,0.0,0.0,0.0
867,pinhal,,pinhal,rio grande do sul,brazil,-27.511,-53.215,,,,,,0,0,0,0.0,0.0,0.0
868,sioux city,,sioux city,iowa,united states,42.49999,-96.40031,,,,,,0,0,0,0.0,0.0,0.0
869,brasopolis,,brasopolis,minas gerais,brazil,-22.474,-45.608,,,,,,0,0,0,0.0,0.0,0.0
870,nuoro,,nuoro,sardinia,italy,40.31949,9.31394,,,,,,0,0,0,0.0,0.0,0.0
871,fatima do sul,,fatima do sul,mato grosso do sul,brazil,-22.374,-54.514,,,,,,0,0,0,0.0,0.0,0.0
872,patrocinio,,patrocinio,minas gerais,brazil,-18.944,-46.993,,,,,,3,0,3,4.0,4.0,0.0
873,huambo,,huambo,huambo,angola,-12.77611,15.73917,,,,,,0,0,0,0.0,0.0,0.0
874,senador firmino,,senador firmino,minas gerais,brazil,-20.912,-43.097,,,,,,0,0,0,0.0,0.0,0.0
875,santa rita d oeste,,santa rita d oeste,sao paulo,brazil,-20.143,-50.833,,,,,,0,0,0,0.0,0.0,0.0
876,itapetinga,,itapetinga,bahia,brazil,-15.249,-40.248,,,,,,0,0,0,0.0,0.0,0.0
877,valencia,,valencia,estado carabobo,venezuela,10.16202,-68.00765,,,,,,0,0,0,0.0,0.0,0.0
878,alem paraiba,,alem paraiba,minas gerais,brazil,-21.888,-42.704,,,,,,0,0,0,0.0,0.0,0.0
879,lucknow,,lucknow,uttar pradesh,india,26.83928,80.92313,,,,,,0,0,0,0.0,0.0,0.0
880,chillan,,chillan,biobío,chile,-36.60664,-72.10344,,,,,,0,0,0,0.0,0.0,0.0
881,cunha pora,,cunha pora,santa catarina,brazil,-26.894,-53.168,,,,,,0,0,0,0.0,0.0,0.0
882,campo do brito,,campo do brito,sergipe,brazil,-10.733,-37.493,,,,,,0,0,0,0.0,0.0,0.0
883,itabira,,itabira,minas gerais,brazil,-19.619,-43.227,,,,,,0,0,0,0.0,0.0,0.0
884,sao geraldo,,sao geraldo,minas gerais,brazil,-20.923,-42.834,,,,,,0,0,0,0.0,0.0,0.0
885,picui,,picui,paraiba,brazil,-6.555,-36.349,,,,,,0,0,0,0.0,0.0,0.0
886,serra branca,,serra branca,paraiba,brazil,-7.483,-36.665,,,,,,0,0,0,0.0,0.0,0.0
887,ferrol,,ferrol,galicia,spain,43.48321,-8.23689,,,,,,0,0,0,0.0,0.0,0.0
888,aimores,,aimores,minas gerais,brazil,-19.496,-41.064,,,,,,0,0,0,0.0,0.0,0.0
889,orleans,,orleans,centre,france,47.90289,1.90389,,,,,,0,0,0,0.0,0.0,0.0
890,cajuri,,cajuri,minas gerais,brazil,-20.791,-42.797,,,,,,0,0,0,0.0,0.0,0.0
891,tacna,,tacna,tacna,peru,-18.01465,-70.25362,,,,,,0,0,0,0.0,0.0,0.0
892,simao dias,,simao dias,sergipe,brazil,-10.738,-37.811,,,,,,0,0,0,0.0,0.0,0.0
893,colatina,,colatina,espirito santo,brazil,-19.539,-40.631,,,,,,9,1,10,19.0,18.0,1.0
894,araguari,,araguari,minas gerais,brazil,-18.649,-48.187,,,,,,0,0,0,0.0,0.0,0.0
895,lauro muller,,lauro muller,santa catarina,brazil,-28.393,-49.397,,,,,,0,0,0,0.0,0.0,0.0
896,tegucigalpa,,tegucigalpa,francisco morazán,honduras,14.0818,-87.20681,,,,,,0,0,0,0.0,0.0,0.0
897,alto rio doce,,alto rio doce,minas gerais,brazil,-21.026,-43.411,,,,,,0,0,0,0.0,0.0,0.0
898,neuquen,,neuquen,neuquén,argentina,-38.95161,-68.0591,,,,,,0,0,0,0.0,0.0,0.0
899,sevres,,sevres,île-de-france,france,48.82292,2.21757,,,,,,0,0,0,0.0,0.0,0.0
900,logrono,,logrono,la rioja,spain,42.46667,-2.45,,,,,,0,0,0,0.0,0.0,0.0
901,san juan,,san juan,san juan,puerto rico,18.46633,-66.10572,,,,,,0,0,0,0.0,0.0,0.0
902,ponte de lima,,ponte de lima,viana do castelo,portugal,41.76719,-8.58393,,,,,,0,0,0,0.0,0.0,0.0
903,concepcion,,concepcion,concepción,paraguay,-23.39985,-57.43236,,,,,,0,0,0,0.0,0.0,0.0
904,huanuco,,huanuco,huanuco,peru,-9.93062,-76.24223,,,,,,0,0,0,0.0,0.0,0.0
905,melun,,melun,île-de-france,france,48.53333,2.66667,,,,,,0,0,0,0.0,0.0,0.0
906,pavlodar,,pavlodar,pavlodar,kazakhstan,52.27401,77.00438,,,,,,0,0,0,0.0,0.0,0.0
907,tehran,,tehran,tehrān,iran,35.69439,51.42151,,,,,,0,0,0,0.0,0.0,0.0
908,wuerzburg,,wuerzburg,bavaria,germany,49.79391,9.95121,,,,,,0,0,0,0.0,0.0,0.0
909,soledade,,soledade,rio grande do sul,brazil,-28.818,-52.51,,,,,,0,0,0,0.0,0.0,0.0
910,piedade,,piedade,sao paulo,brazil,-23.712,-47.428,,,,,,0,0,0,0.0,0.0,0.0
911,sivakasi,,sivakasi,tamil nādu,india,9.44999,77.79797,,,,,,0,0,0,0.0,0.0,0.0
912,riobamba,,riobamba,chimborazo,ecuador,-1.67098,-78.64712,,,,,,0,0,0,0.0,0.0,0.0
913,zipaquira,,zipaquira,cundinamarca,colombia,5.02208,-74.00481,,,,,,0,0,0,0.0,0.0,0.0
914,porecatu,,porecatu,parana,brazil,-22.756,-51.379,,,,,,0,0,0,0.0,0.0,0.0
915,canete,,canete,biobío,chile,-37.80128,-73.39616,,,,,,0,0,0,0.0,0.0,0.0
916,winterthur,,winterthur,zurich,switzerland,47.50003,8.7251,,,,,,0,0,0,0.0,0.0,0.0
917,banabuiu,,banabuiu,ceara,brazil,-5.31,-38.921,,,,,,0,0,0,0.0,0.0,0.0
918,schwerte,,schwerte,north rhine-westphalia,germany,51.44387,7.5675,,,,,,0,0,0,0.0,0.0,0.0
919,san juan,,san juan,san juan,argentina,-31.5375,-68.53639,,,,,,0,0,0,0.0,0.0,0.0
920,valdivia,,valdivia,los ríos,chile,-39.81422,-73.24589,,,,,,0,0,0,0.0,0.0,0.0
921,eloi mendes,,eloi mendes,minas gerais,brazil,-21.61,-45.565,,,,,,0,0,0,0.0,0.0,0.0
922,obidos,,obidos,para,brazil,-1.918,-55.518,,,,,,0,0,0,0.0,0.0,0.0
923,tanabi,,tanabi,sao paulo,brazil,-20.626,-49.649,,,,,,0,0,0,0.0,0.0,0.0
924,montenegro,,montenegro,rio grande do sul,brazil,-29.689,-51.461,,,,,,0,0,0,0.0,0.0,0.0
925,nova serrana,,nova serrana,minas gerais,brazil,-19.876,-44.984,,,,,,0,0,0,0.0,0.0,0.0
926,alghero,,alghero,sardinia,italy,40.56541,8.32092,,,,,,0,0,0,0.0,0.0,0.0
927,ondo,,ondo,ondo,nigeria,7.1,4.83333,,,,,,0,0,0,0.0,0.0,0.0
928,hitchin,,hitchin,england,united kingdom,51.94924,-0.28496,,,,,,0,0,0,0.0,0.0,0.0
929,ferrara,,ferrara,emilia-romagna,italy,44.84346,11.60868,,,,,,0,0,0,0.0,0.0,0.0
930,vina del mar,,vina del mar,valparaíso,chile,-33.02457,-71.55183,,,,,,0,0,0,0.0,0.0,0.0
931,colombes,,colombes,île-de-france,france,48.91882,2.25404,,,,,,0,0,0,0.0,0.0,0.0
932,temuco,,temuco,araucanía,chile,-38.73965,-72.59842,,,,,,0,0,0,0.0,0.0,0.0
933,tenente portela,,tenente portela,rio grande do sul,brazil,-27.371,-53.758,,,,,,0,0,0,0.0,0.0,0.0
934,ilo,,ilo,moquegua,peru,-17.63944,-71.3375,,,,,,0,0,0,0.0,0.0,0.0
935,salto,,salto,salto,uruguay,-31.38333,-57.96667,,,,,,0,0,0,0.0,0.0,0.0
936,punta arenas,,punta arenas,magallanes,chile,-53.15483,-70.91129,,,,,,0,0,0,0.0,0.0,0.0
937,sao goncalo dos campos,,sao goncalo dos campos,bahia,brazil,-12.433,-38.967,,,,,,0,0,0,0.0,0.0,0.0
938,santa helena,,santa helena,parana,brazil,-24.86,-54.333,,,,,,0,0,0,0.0,0.0,0.0
939,arroio do meio,,arroio do meio,rio grande do sul,brazil,-29.401,-51.945,,,,,,0,0,0,0.0,0.0,0.0
940,ceres,,ceres,goias,brazil,-15.308,-49.598,,,,,,0,0,0,0.0,0.0,0.0
941,resende costa,,resende costa,minas gerais,brazil,-20.922,-44.238,,,,,,0,0,0,0.0,0.0,0.0
942,cerro largo,,cerro largo,rio grande do sul,brazil,-28.149,-54.738,,,,,,0,0,0,0.0,0.0,0.0
943,guayaquil,,guayaquil,guayas,ecuador,-2.20584,-79.90795,,,,,,0,0,0,0.0,0.0,0.0
944,besancon,,besancon,franche-comté,france,47.24878,6.01815,,,,,,0,0,0,0.0,0.0,0.0
945,schwerin,,schwerin,mecklenburg-vorpommern,germany,53.62937,11.41316,,,,,,0,0,0,0.0,0.0,0.0
946,pirai do sul,,pirai do sul,parana,brazil,-24.526,-49.949,,,,,,0,0,0,0.0,0.0,0.0
947,sofia,,sofia,sofia-capital,bulgaria,42.69751,23.32415,,,,,,0,0,0,0.0,0.0,0.0
948,jaguari,,jaguari,rio grande do sul,brazil,-29.497,-54.69,,,,,,0,0,0,0.0,0.0,0.0
949,caconde,,caconde,sao paulo,brazil,-21.529,-46.644,,,,,,0,0,0,0.0,0.0,0.0
950,neuchatel,,neuchatel,neuchâtel,switzerland,46.99179,6.931,,,,,,0,0,0,0.0,0.0,0.0
951,elmshorn,,elmshorn,schleswig-holstein,germany,53.75396,9.65339,,,,,,0,0,0,0.0,0.0,0.0
952,jacutinga,,jacutinga,rio grande do sul,brazil,-27.729,-52.535,,,,,,0,0,0,0.0,0.0,0.0
953,leopoldina,,leopoldina,minas gerais,brazil,-21.532,-42.643,,,,,,0,0,0,0.0,0.0,0.0
954,albi,,albi,midi-pyrénées,france,43.9298,2.148,,,,,,0,0,0,0.0,0.0,0.0
955,itaicaba,,itaicaba,ceara,brazil,-4.674,-37.822,,,,,,0,0,0,0.0,0.0,0.0
956,rivas,,rivas,rivas,nicaragua,11.43716,-85.82632,,,,,,0,0,0,0.0,0.0,0.0
957,leme,,leme,sao paulo,brazil,-22.186,-47.39,,,,,,0,0,0,0.0,0.0,0.0
958,pedra,,pedra,pernambuco,brazil,-8.497,-36.941,,,,,,0,0,0,0.0,0.0,0.0
959,alagoa grande,,alagoa grande,paraiba,brazil,-7.089,-35.635,,,,,,0,0,0,0.0,0.0,0.0
960,maldonado,,maldonado,maldonado,uruguay,-34.9,-54.95,,,,,,0,0,0,0.0,0.0,0.0
961,mafra,,mafra,santa catarina,brazil,-26.111,-49.805,,,,,,0,0,0,0.0,0.0,0.0
962,varzea,,varzea,paraiba,brazil,-6.772,-36.992,,,,,,0,0,0,0.0,0.0,0.0
963,puerto montt,,puerto montt,los lagos,chile,-41.46574,-72.94289,,,,,,0,0,0,0.0,0.0,0.0
964,barra do corda,,barra do corda,maranhao,brazil,-5.506,-45.243,,,,,,0,0,0,0.0,0.0,0.0
965,foggia,,foggia,apulia,italy,41.45845,15.55188,,,,,,0,0,0,0.0,0.0,0.0
966,sacramento,,sacramento,minas gerais,brazil,-19.865,-47.44,,,,,,0,0,0,0.0,0.0,0.0
967,aigio,,aigio,west greece,greece,38.24861,22.08194,,,,,,0,0,0,0.0,0.0,0.0
968,rahden,,rahden,north rhine-westphalia,germany,52.43367,8.61263,,,,,,0,0,0,0.0,0.0,0.0
969,mansoura,,mansoura,tlemcen,algeria,34.86158,-1.33935,,,,,,0,0,0,0.0,0.0,0.0
970,eldorado,,eldorado,mato grosso do sul,brazil,-23.787,-54.284,,,,,,0,0,0,0.0,0.0,0.0
971,morteros,,morteros,córdoba,argentina,-30.71164,-61.99862,,,,,,0,0,0,0.0,0.0,0.0
972,januaria,,januaria,minas gerais,brazil,-15.488,-44.362,,,,,,1,0,1,1.0,1.0,0.0
973,sao lourenco,,sao lourenco,minas gerais,brazil,-22.116,-45.054,,,,,,1,0,1,1.0,1.0,0.0
974,bayamo,,bayamo,granma,cuba,20.37917,-76.64333,,,,,,0,0,0,0.0,0.0,0.0
975,sao felix do xingu,,sao felix do xingu,para,brazil,-6.645,-51.995,,,,,,0,0,0,0.0,0.0,0.0
976,gloria de dourados,,gloria de dourados,mato grosso do sul,brazil,-22.418,-54.233,,,,,,0,0,0,0.0,0.0,0.0
977,amargosa,,amargosa,bahia,brazil,-13.03,-39.605,,,,,,0,0,0,0.0,0.0,0.0
978,nikopol,,nikopol,dnipropetrovs'ka oblast',ukraine,47.57119,34.39637,,,,,,0,0,0,0.0,0.0,0.0
979,uniao da vitoria,,uniao da vitoria,parana,brazil,-26.23,-51.086,,,,,,1,0,1,1.0,1.0,0.0
980,xanxere,,xanxere,santa catarina,brazil,-26.877,-52.404,,,,,,0,0,0,0.0,0.0,0.0
981,itarare,,itarare,sao paulo,brazil,-24.115,-49.341,,,,,,1,0,1,1.0,1.0,0.0
982,sfax,,sfax,şafāqis,tunisia,34.74056,10.76028,,,,,,0,0,0,0.0,0.0,0.0
983,alegre,,alegre,espirito santo,brazil,-20.764,-41.533,,,,,,0,0,0,0.0,0.0,0.0
984,monte alto,,monte alto,sao paulo,brazil,-21.261,-48.496,,,,,,0,0,0,0.0,0.0,0.0
985,princesa isabel,,princesa isabel,paraiba,brazil,-7.737,-37.993,,,,,,0,0,0,0.0,0.0,0.0
986,reus,,reus,catalonia,spain,41.15612,1.10687,,,,,,0,0,0,0.0,0.0,0.0
987,barquisimeto,,barquisimeto,estado lara,venezuela,10.07389,-69.32278,,,,,,0,0,0,0.0,0.0,0.0
988,san luis,,san luis,san luis,argentina,-33.29501,-66.33563,,,,,,0,0,0,0.0,0.0,0.0
989,dois corregos,,dois corregos,sao paulo,brazil,-22.366,-48.38,,,,,,0,0,0,0.0,0.0,0.0
990,cameta,,cameta,para,brazil,-2.244,-49.496,,,,,,0,0,0,0.0,0.0,0.0
991,parnamirim,,parnamirim,rio grande do norte,brazil,-5.916,-35.263,,,,,,0,0,0,0.0,0.0,0.0
992,kortrijk,,kortrijk,flanders,belgium,50.82803,3.26487,,,,,,0,0,0,0.0,0.0,0.0
993,metz,,metz,lorraine,france,49.11911,6.17269,,,,,,0,0,0,0.0,0.0,0.0
994,general camara,,general camara,rio grande do sul,brazil,-29.905,-51.76,,,,,,0,0,0,0.0,0.0,0.0
995,santa rita do passa quatro,,santa rita do passa quatro,sao paulo,brazil,-21.71,-47.478,,,,,,0,0,0,0.0,0.0,0.0
996,xambre,,xambre,parana,brazil,-23.736,-53.49,,,,,,0,0,0,0.0,0.0,0.0
997,darmstadt,,darmstadt,hesse,germany,49.87167,8.65027,,,,,,0,0,0,0.0,0.0,0.0
998,santa rita de caldas,,santa rita de caldas,minas gerais,brazil,-22.029,-46.337,,,,,,0,0,0,0.0,0.0,0.0
999,paracatu,,paracatu,minas gerais,brazil,-17.222,-46.875,,,,,,8,0,8,9.0,9.0,0.0
1000,vargem grande do sul,,vargem grande do sul,sao paulo,brazil,-21.832,-46.894,,,,,,0,0,0,0.0,0.0,0.0
1001,areia,,areia,paraiba,brazil,-6.963,-35.692,,,,,,0,0,0,0.0,0.0,0.0
1002,barra do pirai,,barra do pirai,rio de janeiro,brazil,-22.47,-43.826,,,,,,0,0,0,0.0,0.0,0.0
1003,urucui,,urucui,piaui,brazil,-7.229,-44.556,,,,,,0,0,0,0.0,0.0,0.0
1004,gwalior,,gwalior,madhya pradesh,india,26.22983,78.17337,,,,,,0,0,0,0.0,0.0,0.0
1005,santo anastacio,,santo anastacio,sao paulo,brazil,-21.977,-51.652,,,,,,0,0,0,0.0,0.0,0.0
1006,sao vicente ferrer,,sao vicente ferrer,pernambuco,brazil,-7.591,-35.491,,,,,,0,0,0,0.0,0.0,0.0
1007,terra rica,,terra rica,parana,brazil,-22.709,-52.617,,,,,,0,0,0,0.0,0.0,0.0
1008,sao luiz gonzaga,,sao luiz gonzaga,rio grande do sul,brazil,-28.408,-54.961,,,,,,0,0,0,0.0,0.0,0.0
1009,descalvado,,descalvado,sao paulo,brazil,-21.904,-47.619,,,,,,0,0,0,0.0,0.0,0.0
1010,colorado,,colorado,parana,brazil,-22.838,-51.973,,,,,,0,0,0,0.0,0.0,0.0
1011,sao miguel dos campos,,sao miguel dos campos,alagoas,brazil,-9.781,-36.094,,,,,,0,0,0,0.0,0.0,0.0
1012,antonio prado,,antonio prado,rio grande do sul,brazil,-28.858,-51.283,,,,,,0,0,0,0.0,0.0,0.0
1013,uba,,uba,minas gerais,brazil,-21.12,-42.943,,,,,,0,0,0,0.0,0.0,0.0
1014,itapitanga,,itapitanga,bahia,brazil,-14.423,-39.565,,,,,,0,0,0,0.0,0.0,0.0
1015,tres coroas,,tres coroas,rio grande do sul,brazil,-29.517,-50.778,,,,,,0,0,0,0.0,0.0,0.0
1016,sao carlos,,sao carlos,santa catarina,brazil,-27.078,-53.004,,,,,,0,0,0,0.0,0.0,0.0
1017,manaira,,manaira,paraiba,brazil,-7.706,-38.154,,,,,,0,0,0,0.0,0.0,0.0
1018,dom inocencio,,dom inocencio,piaui,brazil,-9.002,-41.974,,,,,,0,0,0,0.0,0.0,0.0
1019,cianorte,,cianorte,parana,brazil,-23.663,-52.605,,,,,,0,0,0,0.0,0.0,0.0
1020,alegrete,,alegrete,rio grande do sul,brazil,-29.783,-55.792,,,,,,5,0,5,14.0,14.0,0.0
1021,novo horizonte,,novo horizonte,sao paulo,brazil,-21.468,-49.221,,,,,,0,0,0,0.0,0.0,0.0
1022,vicenza,,vicenza,veneto,italy,45.54672,11.5475,,,,,,0,0,0,0.0,0.0,0.0
1023,ponte serrada,,ponte serrada,santa catarina,brazil,-26.872,-52.016,,,,,,0,0,0,0.0,0.0,0.0
1024,paysandu,,paysandu,paysandú,uruguay,-32.32139,-58.07556,,,,,,0,0,0,0.0,0.0,0.0
1025,caxias,,caxias,maranhao,brazil,-4.859,-43.356,,,,,,1,0,1,2.0,2.0,0.0
1026,passos,,passos,minas gerais,brazil,-20.719,-46.61,,,,,,0,0,0,0.0,0.0,0.0
1027,rancho alegre,,rancho alegre,parana,brazil,-23.07,-50.913,,,,,,0,0,0,0.0,0.0,0.0
1028,tatui,,tatui,sao paulo,brazil,-23.356,-47.857,,,,,,0,0,0,0.0,0.0,0.0
1029,farroupilha,,farroupilha,rio grande do sul,brazil,-29.225,-51.348,,,,,,1,0,1,1.0,1.0,0.0
1030,resistencia,,resistencia,chaco,argentina,-27.46056,-58.98389,,,,,,0,0,0,0.0,0.0,0.0
1031,guadalajara,,guadalajara,jalisco,mexico,20.66682,-103.39182,,,,,,0,0,0,0.0,0.0,0.0
1032,le plessis trevise,,le plessis trevise,île-de-france,france,48.81074,2.57363,,,,,,0,0,0,0.0,0.0,0.0
1033,granada,,granada,granada,nicaragua,11.92988,-85.95602,,,,,,0,0,0,0.0,0.0,0.0
1034,itapira,,itapira,sao paulo,brazil,-22.436,-46.822,,,,,,2,0,2,2.0,2.0,0.0
1035,antonio carlos,,antonio carlos,santa catarina,brazil,-27.517,-48.768,,,,,,0,0,0,0.0,0.0,0.0
1036,piura,,piura,piura,peru,-5.19449,-80.63282,,,,,,0,0,0,0.0,0.0,0.0
1037,dom pedrito,,dom pedrito,rio grande do sul,brazil,-30.983,-54.673,,,,,,0,0,0,0.0,0.0,0.0
1038,turiacu,,turiacu,maranhao,brazil,-1.663,-45.372,,,,,,0,0,0,0.0,0.0,0.0
1039,horizontina,,horizontina,rio grande do sul,brazil,-27.626,-54.308,,,,,,2,0,2,4.0,4.0,0.0
1040,teofilo otoni,,teofilo otoni,minas gerais,brazil,-17.858,-41.505,,,,,,0,0,0,0.0,0.0,0.0
1041,ajuricaba,,ajuricaba,rio grande do sul,brazil,-28.239,-53.771,,,,,,0,0,0,0.0,0.0,0.0
1042,macae,,macae,rio de janeiro,brazil,-22.371,-41.787,,,,,,3,0,3,13.0,13.0,0.0
1043,taiacu,,taiacu,sao paulo,brazil,-21.144,-48.513,,,,,,0,0,0,0.0,0.0,0.0
1044,sargodha,,sargodha,punjab,pakistan,32.08361,72.67111,,,,,,0,0,0,0.0,0.0,0.0
1045,rieti,,rieti,latium,italy,42.42277,12.91436,,,,,,0,0,0,0.0,0.0,0.0
1046,thessaloniki,,thessaloniki,central macedonia,greece,40.64361,22.93086,,,,,,0,0,0,0.0,0.0,0.0
1047,linhares,,linhares,espirito santo,brazil,-19.391,-40.072,,,,,,1,0,1,1.0,1.0,0.0
1048,alajuela,,alajuela,alajuela,costa rica,10.01625,-84.21163,,,,,,0,0,0,0.0,0.0,0.0
1049,busto arsizio,,busto arsizio,lombardy,italy,45.61128,8.84914,,,,,,0,0,0,0.0,0.0,0.0
1050,marilandia do sul,,marilandia do sul,parana,brazil,-23.745,-51.308,,,,,,0,0,0,0.0,0.0,0.0
1051,tabapua,,tabapua,sao paulo,brazil,-20.964,-49.032,,,,,,0,0,0,0.0,0.0,0.0
1052,carmelo,,carmelo,colonia,uruguay,-34.00023,-58.28402,,,,,,0,0,0,0.0,0.0,0.0
1053,setubal,,setubal,setúbal,portugal,38.5244,-8.8882,,,,,,0,0,0,0.0,0.0,0.0
1054,barra bonita,,barra bonita,sao paulo,brazil,-22.495,-48.558,,,,,,2,0,2,2.0,2.0,0.0
1055,maracaibo,,maracaibo,estado zulia,venezuela,10.63167,-71.64056,,,,,,0,0,0,0.0,0.0,0.0
1056,palmeira das missoes,,palmeira das missoes,rio grande do sul,brazil,-27.899,-53.314,,,,,,0,0,0,0.0,0.0,0.0
1057,serrinha,,serrinha,bahia,brazil,-11.664,-39.008,,,,,,0,0,0,0.0,0.0,0.0
1058,indiapora,,indiapora,sao paulo,brazil,-19.98,-50.29,,,,,,0,0,0,0.0,0.0,0.0
1059,pitangueiras,,pitangueiras,sao paulo,brazil,-21.009,-48.222,,,,,,0,0,0,0.0,0.0,0.0
1060,imperatriz,,imperatriz,maranhao,brazil,-5.526,-47.476,,,,,,5,0,5,5.0,5.0,0.0
1061,bom sucesso,,bom sucesso,minas gerais,brazil,-21.033,-44.758,,,,,,0,0,0,0.0,0.0,0.0
1062,urandi,,urandi,bahia,brazil,-14.771,-42.655,,,,,,0,0,0,0.0,0.0,0.0
1063,altonia,,altonia,parana,brazil,-23.874,-53.902,,,,,,0,0,0,0.0,0.0,0.0
1064,irece,,irece,bahia,brazil,-11.304,-41.856,,,,,,0,0,0,0.0,0.0,0.0
1065,caxambu,,caxambu,minas gerais,brazil,-21.977,-44.933,,,,,,0,0,0,0.0,0.0,0.0
1066,conselheiro pena,,conselheiro pena,minas gerais,brazil,-19.172,-41.472,,,,,,0,0,0,0.0,0.0,0.0
1067,sao fidelis,,sao fidelis,rio de janeiro,brazil,-21.646,-41.747,,,,,,0,0,0,0.0,0.0,0.0
1068,catole do rocha,,catole do rocha,paraiba,brazil,-6.344,-37.747,,,,,,0,0,0,0.0,0.0,0.0
1069,regente feijo,,regente feijo,sao paulo,brazil,-22.221,-51.303,,,,,,0,0,0,0.0,0.0,0.0
1070,penedo,,penedo,alagoas,brazil,-10.29,-36.586,,,,,,0,0,0,0.0,0.0,0.0
1071,catanduvas,,catanduvas,santa catarina,brazil,-27.071,-51.662,,,,,,0,0,0,0.0,0.0,0.0
1072,valenca do piaui,,valenca do piaui,piaui,brazil,-6.408,-41.746,,,,,,0,0,0,0.0,0.0,0.0
1073,agua branca,,agua branca,alagoas,brazil,-9.262,-37.938,,,,,,0,0,0,0.0,0.0,0.0
1074,riachao do dantas,,riachao do dantas,sergipe,brazil,-11.069,-37.725,,,,,,0,0,0,0.0,0.0,0.0
1075,sao luis do curu,,sao luis do curu,ceara,brazil,-3.67,-39.243,,,,,,0,0,0,0.0,0.0,0.0
1076,marilandia,,marilandia,espirito santo,brazil,-19.413,-40.542,,,,,,0,0,0,0.0,0.0,0.0
1077,julio mesquita,,julio mesquita,sao paulo,brazil,-22.009,-49.787,,,,,,0,0,0,0.0,0.0,0.0
1078,quatis,,quatis,rio de janeiro,brazil,-22.407,-44.258,,,,,,0,0,0,0.0,0.0,0.0
1079,sao joao batista do gloria,,sao joao batista do gloria,minas gerais,brazil,-20.641,-46.506,,,,,,0,0,0,0.0,0.0,0.0
1080,para de minas,,para de minas,minas gerais,brazil,-19.86,-44.608,,,,,,2,0,2,3.0,3.0,0.0
1081,guajara mirim,,guajara mirim,rondonia,brazil,-10.783,-65.339,,,,,,0,0,0,0.0,0.0,0.0
1082,itaju,,itaju,sao paulo,brazil,-21.981,-48.805,,,,,,0,0,0,0.0,0.0,0.0
1083,parai,,parai,rio grande do sul,brazil,-28.594,-51.786,,,,,,0,0,0,0.0,0.0,0.0
1084,manhuacu,,manhuacu,minas gerais,brazil,-20.258,-42.034,,,,,,2,0,2,3.0,3.0,0.0
1085,arari,,arari,maranhao,brazil,-3.454,-44.78,,,,,,0,0,0,0.0,0.0,0.0
1086,rio bonito,,rio bonito,rio de janeiro,brazil,-22.708,-42.626,,,,,,0,0,0,0.0,0.0,0.0
1087,mondai,,mondai,santa catarina,brazil,-27.103,-53.402,,,,,,0,0,0,0.0,0.0,0.0
1088,candido mota,,candido mota,sao paulo,brazil,-22.746,-50.387,,,,,,0,0,0,0.0,0.0,0.0
1089,ararangua,,ararangua,santa catarina,brazil,-28.935,-49.486,,,,,,0,0,0,0.0,0.0,0.0
1090,itacoatiara,,itacoatiara,amazonas,brazil,-3.143,-58.444,,,,,,0,0,0,0.0,0.0,0.0
1091,sao jeronimo,,sao jeronimo,rio grande do sul,brazil,-29.959,-51.722,,,,,,0,0,0,0.0,0.0,0.0
1092,matelandia,,matelandia,parana,brazil,-25.241,-53.996,,,,,,0,0,0,0.0,0.0,0.0
1093,curvelo,,curvelo,minas gerais,brazil,-18.756,-44.431,,,,,,1,0,1,1.0,1.0,0.0
1094,canaa,,canaa,minas gerais,brazil,-20.686,-42.62,,,,,,0,0,0,0.0,0.0,0.0
1095,pedreiras,,pedreiras,maranhao,brazil,-4.574,-44.597,,,,,,0,0,0,0.0,0.0,0.0
1096,santa adelia,,santa adelia,sao paulo,brazil,-21.243,-48.804,,,,,,0,0,0,0.0,0.0,0.0
1097,sobradinho,,sobradinho,rio grande do sul,brazil,-29.421,-53.029,,,,,,0,0,0,0.0,0.0,0.0
1098,guarani das missoes,,guarani das missoes,rio grande do sul,brazil,-28.141,-54.558,,,,,,0,0,0,0.0,0.0,0.0
1099,alagoinhas,,alagoinhas,bahia,brazil,-12.136,-38.419,,,,,,0,0,0,0.0,0.0,0.0
1100,volta grande,,volta grande,minas gerais,brazil,-21.771,-42.539,,,,,,0,0,0,0.0,0.0,0.0
1101,abaetetuba,,abaetetuba,para,brazil,-1.718,-48.883,,,,,,0,0,0,0.0,0.0,0.0
1102,arandu,,arandu,sao paulo,brazil,-23.134,-49.054,,,,,,0,0,0,0.0,0.0,0.0
1103,caiaponia,,caiaponia,goias,brazil,-16.957,-51.81,,,,,,0,0,0,0.0,0.0,0.0
1104,boa vista do burica,,boa vista do burica,rio grande do sul,brazil,-27.669,-54.11,,,,,,0,0,0,0.0,0.0,0.0
1105,divinopolis,,divinopolis,minas gerais,brazil,-20.139,-44.884,,,,,,1,0,1,1.0,1.0,0.0
1106,nova araca,,nova araca,rio grande do sul,brazil,-28.659,-51.745,,,,,,0,0,0,0.0,0.0,0.0
1107,caxambu do sul,,caxambu do sul,santa catarina,brazil,-27.161,-52.879,,,,,,0,0,0,0.0,0.0,0.0
1108,sao francisco,,sao francisco,minas gerais,brazil,-15.949,-44.864,,,,,,0,0,0,0.0,0.0,0.0
1109,sao jose dos pinhais,,sao jose dos pinhais,parana,brazil,-25.535,-49.206,,,,,,2,0,2,2.0,2.0,0.0
1110,macaparana,,macaparana,pernambuco,brazil,-7.555,-35.453,,,,,,0,0,0,0.0,0.0,0.0
1111,agudos,,agudos,sao paulo,brazil,-22.469,-48.988,,,,,,1,0,1,1.0,1.0,0.0
1112,aratiba,,aratiba,rio grande do sul,brazil,-27.394,-52.3,,,,,,0,0,0,0.0,0.0,0.0
1113,cacapava,,cacapava,sao paulo,brazil,-23.101,-45.707,,,,,,0,0,0,0.0,0.0,0.0
1114,sao joao da barra,,sao joao da barra,rio de janeiro,brazil,-21.64,-41.051,,,,,,0,0,0,0.0,0.0,0.0
1115,piraju,,piraju,sao paulo,brazil,-23.194,-49.384,,,,,,0,0,0,0.0,0.0,0.0
1116,conceicao da barra,,conceicao da barra,espirito santo,brazil,-18.593,-39.732,,,,,,0,0,0,0.0,0.0,0.0
1117,alvarenga,,alvarenga,minas gerais,brazil,-19.417,-41.729,,,,,,0,0,0,0.0,0.0,0.0
1118,nova prata,,nova prata,rio grande do sul,brazil,-28.784,-51.61,,,,,,0,0,0,0.0,0.0,0.0
1119,triunfo,,triunfo,rio grande do sul,brazil,-29.943,-51.718,,,,,,0,0,0,0.0,0.0,0.0
1120,campos novos,,campos novos,santa catarina,brazil,-27.402,-51.225,,,,,,0,0,0,0.0,0.0,0.0
1121,limoeiro do norte,,limoeiro do norte,ceara,brazil,-5.146,-38.098,,,,,,0,0,0,0.0,0.0,0.0
1122,ronda alta,,ronda alta,rio grande do sul,brazil,-27.767,-52.802,,,,,,0,0,0,0.0,0.0,0.0
1123,tesouro,,tesouro,mato grosso,brazil,-16.079,-53.553,,,,,,0,0,0,0.0,0.0,0.0
1124,ijaci,,ijaci,minas gerais,brazil,-21.17,-44.925,,,,,,0,0,0,0.0,0.0,0.0
1125,jatai,,jatai,goias,brazil,-17.881,-51.714,,,,,,0,0,0,0.0,0.0,0.0
1126,malhador,,malhador,sergipe,brazil,-10.658,-37.305,,,,,,0,0,0,0.0,0.0,0.0
1127,guape,,guape,minas gerais,brazil,-20.762,-45.918,,,,,,0,0,0,0.0,0.0,0.0
1128,sapiranga,,sapiranga,rio grande do sul,brazil,-29.638,-51.007,,,,,,0,0,0,0.0,0.0,0.0
1129,itabirito,,itabirito,minas gerais,brazil,-20.253,-43.801,,,,,,0,0,0,0.0,0.0,0.0
1130,tres de maio,,tres de maio,rio grande do sul,brazil,-27.773,-54.24,,,,,,0,0,0,0.0,0.0,0.0
1131,sousa,,sousa,paraiba,brazil,-6.761,-38.231,,,,,,0,0,0,0.0,0.0,0.0
1132,teixeiras,,teixeiras,minas gerais,brazil,-20.651,-42.857,,,,,,0,0,0,0.0,0.0,0.0
1133,ponte alta,,ponte alta,santa catarina,brazil,-27.484,-50.38,,,,,,0,0,0,0.0,0.0,0.0
1134,condor,,condor,rio grande do sul,brazil,-28.208,-53.487,,,,,,0,0,0,0.0,0.0,0.0
1135,tupancireta,,tupancireta,rio grande do sul,brazil,-29.081,-53.836,,,,,,0,0,0,0.0,0.0,0.0
1136,joaquim tavora,,joaquim tavora,parana,brazil,-23.499,-49.905,,,,,,0,0,0,0.0,0.0,0.0
1137,barro alto,,barro alto,goias,brazil,-14.971,-48.916,,,,,,0,0,0,0.0,0.0,0.0
1138,iretama,,iretama,parana,brazil,-24.424,-52.106,,,,,,0,0,0,0.0,0.0,0.0
1139,itapiranga,,itapiranga,santa catarina,brazil,-27.169,-53.712,,,,,,1,0,1,1.0,1.0,0.0
1140,santa luz,,santa luz,piaui,brazil,-8.954,-44.129,,,,,,0,0,0,0.0,0.0,0.0
1141,corbelia,,corbelia,parana,brazil,-24.799,-53.307,,,,,,0,0,0,0.0,0.0,0.0
1142,ponta pora,,ponta pora,mato grosso do sul,brazil,-22.536,-55.726,,,,,,18,0,18,35.0,35.0,0.0
1143,presidente venceslau,,presidente venceslau,sao paulo,brazil,-21.876,-51.844,,,,,,0,0,0,0.0,0.0,0.0
1144,capim branco,,capim branco,minas gerais,brazil,-19.549,-44.117,,,,,,0,0,0,0.0,0.0,0.0
1145,espirito santo do dourado,,espirito santo do dourado,minas gerais,brazil,-22.046,-45.951,,,,,,0,0,0,0.0,0.0,0.0
1146,potirendaba,,potirendaba,sao paulo,brazil,-21.043,-49.377,,,,,,0,0,0,0.0,0.0,0.0
1147,amarante,,amarante,piaui,brazil,-6.241,-42.855,,,,,,0,0,0,0.0,0.0,0.0
1148,sao roque,,sao roque,sao paulo,brazil,-23.529,-47.135,,,,,,2,0,2,2.0,2.0,0.0
