Id,Label,Modularity Class,City,State,Country,Latitude,Longitude
1,florianopolis,,florianopolis,santa catarina,brazil,-27.597,-48.549
2,philadelphia,,philadelphia,pennsylvania,united states,39.95233,-75.16379
3,braga,,braga,braga,portugal,41.55032,-8.42005
4,ottawa,,ottawa,ontario,canada,45.41117,-75.69812
5,sao paulo,,sao paulo,sao paulo,brazil,-23.548,-46.636
6,ithaca,,ithaca,new york,united states,42.44063,-76.49661
7,lavras,,lavras,minas gerais,brazil,-21.245,-45
8,alfenas,,alfenas,minas gerais,brazil,-21.429,-45.947
9,brasilia,,brasilia,federal district,brazil,-15.78,-47.93
10,londrina,,londrina,parana,brazil,-23.31,-51.163
11,feira de santana,,feira de santana,bahia,brazil,-12.267,-38.967
12,cambridge,,cambridge,england,united kingdom,52.2,0.11667
13,rio de janeiro,,rio de janeiro,rio de janeiro,brazil,-22.903,-43.208
14,rio grande,,rio grande,rio grande do sul,brazil,-32.035,-52.099
15,curitiba,,curitiba,parana,brazil,-25.428,-49.273
16,sao luis,,sao luis,maranhao,brazil,-2.53,-44.303
17,manaus,,manaus,amazonas,brazil,-3.102,-60.025
18,uberlandia,,uberlandia,minas gerais,brazil,-18.919,-48.277
19,caceres,,caceres,mato grosso,brazil,-16.071,-57.679
20,niteroi,,niteroi,rio de janeiro,brazil,-22.883,-43.104
21,ilheus,,ilheus,bahia,brazil,-14.789,-39.049
22,santos,,santos,sao paulo,brazil,-23.961,-46.334
23,montevideo,,montevideo,montevideo,uruguay,-34.90328,-56.18816
24,breves,,breves,para,brazil,-1.682,-50.48
25,bauru,,bauru,sao paulo,brazil,-22.315,-49.061
26,new haven,,new haven,connecticut,united states,41.30815,-72.92816
27,belem,,belem,para,brazil,-1.456,-48.504
28,santa maria,,santa maria,rio grande do sul,brazil,-29.684,-53.807
29,canoas,,canoas,rio grande do sul,brazil,-29.918,-51.184
30,bage,,bage,rio grande do sul,brazil,-31.331,-54.107
31,atlanta,,atlanta,georgia,united states,33.749,-84.38798
32,fort collins,,fort collins,colorado,united states,40.58526,-105.08442
33,passo fundo,,passo fundo,rio grande do sul,brazil,-28.263,-52.407
34,salamanca,,salamanca,madrid,spain,40.42972,-3.67975
35,valladolid,,valladolid,castille and león,spain,41.65518,-4.72372
36,campinas,,campinas,sao paulo,brazil,-22.906,-47.061
37,apucarana,,apucarana,parana,brazil,-23.551,-51.461
38,garching bei munchen,,garching bei munchen,bavaria,germany,48.24896,11.65101
39,vitoria,,vitoria,espirito santo,brazil,-20.319,-40.338
40,evora,,evora,évora,portugal,38.56667,-7.9
41,umuarama,,umuarama,parana,brazil,-23.766,-53.325
42,pelotas,,pelotas,rio grande do sul,brazil,-31.772,-52.343
43,sao leopoldo,,sao leopoldo,rio grande do sul,brazil,-29.76,-51.147
44,taubate,,taubate,sao paulo,brazil,-23.026,-45.555
45,cambridge,,cambridge,massachusetts,united states,42.3751,-71.10561
46,minneapolis,,minneapolis,minnesota,united states,44.97997,-93.26384
47,tokyo,,tokyo,tōkyō,japan,35.6895,139.69171
48,vitoria da conquista,,vitoria da conquista,bahia,brazil,-14.866,-40.839
49,salvador,,salvador,bahia,brazil,-12.971,-38.511
50,belo horizonte,,belo horizonte,minas gerais,brazil,-19.817,-43.956
51,maringa,,maringa,parana,brazil,-23.425,-51.939
52,goiania,,goiania,goias,brazil,-16.679,-49.254
53,paulinia,,paulinia,sao paulo,brazil,-22.761,-47.154
54,recife,,recife,pernambuco,brazil,-8.054,-34.881
55,americana,,americana,sao paulo,brazil,-22.739,-47.331
56,vicosa,,vicosa,minas gerais,brazil,-20.754,-42.882
57,araras,,araras,sao paulo,brazil,-22.357,-47.384
58,medford,,medford,massachusetts,united states,42.41843,-71.10616
59,guarulhos,,guarulhos,sao paulo,brazil,-23.463,-46.533
60,porto alegre,,porto alegre,rio grande do sul,brazil,-30.033,-51.23
61,oxford,,oxford,england,united kingdom,51.75222,-1.25596
62,castanhal,,castanhal,para,brazil,-1.297,-47.922
63,los angeles,,los angeles,california,united states,34.05223,-118.24368
64,new york city,,new york city,new york,united states,40.71427,-74.00597
65,riverside,,riverside,california,united states,33.95335,-117.39616
66,baltimore,,baltimore,maryland,united states,39.29038,-76.61219
67,berlin,,berlin,berlin,germany,52.52437,13.41053
68,tres coracoes,,tres coracoes,minas gerais,brazil,-21.697,-45.253
69,medellin,,medellin,departamento de antioquia,colombia,6.25184,-75.56359
70,guarapuava,,guarapuava,parana,brazil,-25.395,-51.458
71,ribeirao preto,,ribeirao preto,sao paulo,brazil,-21.178,-47.81
72,paris,,paris,île-de-france,france,48.85341,2.3488
73,lorena,,lorena,sao paulo,brazil,-22.731,-45.125
74,barcelona,,barcelona,catalonia,spain,41.38879,2.15899
75,joao pessoa,,joao pessoa,paraiba,brazil,-7.115,-34.863
76,palo alto,,palo alto,california,united states,37.44188,-122.14302
77,santiago,,santiago,santiago,chile,-33.45694,-70.64827
78,padova,,padova,veneto,italy,45.40797,11.88586
79,macapa,,macapa,amapa,brazil,0.039,-51.066
80,juiz de fora,,juiz de fora,minas gerais,brazil,-21.764,-43.35
81,utrecht,,utrecht,utrecht,netherlands,52.09083,5.12222
82,ica,,ica,ica,peru,-14.06777,-75.72861
83,chatenay malabry,,chatenay malabry,île-de-france,france,48.76507,2.26655
84,seropedica,,seropedica,rio de janeiro,brazil,-22.744,-43.708
85,madrid,,madrid,madrid,spain,40.4165,-3.70256
86,la plata,,la plata,buenos aires,argentina,-34.92145,-57.95453
87,santa fe de la vera cruz,,santa fe de la vera cruz,santa fe,argentina,-31.63333,-60.7
88,covilha,,covilha,castelo branco,portugal,40.28601,-7.50396
89,centro habana,,centro habana,ciudad de la habana,cuba,23.13833,-82.36417
90,fortaleza,,fortaleza,ceara,brazil,-3.717,-38.543
91,buenos aires,,buenos aires,buenos aires f.d.,argentina,-34.61315,-58.37723
92,rome,,rome,latium,italy,41.89193,12.51133
93,cuiaba,,cuiaba,mato grosso,brazil,-15.596,-56.097
94,cascavel,,cascavel,parana,brazil,-24.956,-53.455
95,aveiro,,aveiro,aveiro,portugal,40.64427,-8.64554
96,barretos,,barretos,sao paulo,brazil,-20.557,-48.568
97,araxa,,araxa,minas gerais,brazil,-19.593,-46.941
98,joliet,,joliet,illinois,united states,41.52519,-88.0834
99,rottenburg,,rottenburg,baden-württemberg region,germany,48.47629,8.93528
100,caracas,,caracas,distrito federal,venezuela,10.48801,-66.87919
101,albany,,albany,new york,united states,42.65258,-73.75623
102,campo grande,,campo grande,mato grosso do sul,brazil,-20.443,-54.646
103,almenara,,almenara,minas gerais,brazil,-16.184,-40.694
104,porto,,porto,porto,portugal,41.14961,-8.61099
105,davis,,davis,california,united states,38.54491,-121.74052
106,valparaiso,,valparaiso,valparaíso,chile,-33.03932,-71.62725
107,london,,london,england,united kingdom,51.50853,-0.12574
108,maceio,,maceio,alagoas,brazil,-9.666,-35.735
109,leuven,,leuven,flanders,belgium,50.87959,4.70093
110,wageningen,,wageningen,gelderland,netherlands,51.97,5.66667
111,natal,,natal,rio grande do norte,brazil,-5.795,-35.209
112,cleveland,,cleveland,ohio,united states,41.4995,-81.69541
113,sheffield,,sheffield,england,united kingdom,53.38297,-1.4659
114,manizales,,manizales,caldas,colombia,5.06889,-75.51738
115,toronto,,toronto,ontario,canada,43.70011,-79.4163
116,itajai,,itajai,santa catarina,brazil,-26.908,-48.662
117,presidente prudente,,presidente prudente,sao paulo,brazil,-22.126,-51.389
118,zaragoza,,zaragoza,aragon,spain,41.65606,-0.87734
119,chapeco,,chapeco,santa catarina,brazil,-27.096,-52.618
120,novo hamburgo,,novo hamburgo,rio grande do sul,brazil,-29.678,-51.131
121,caxias do sul,,caxias do sul,rio grande do sul,brazil,-29.168,-51.179
122,iowa city,,iowa city,iowa,united states,41.66113,-91.53017
123,sao jose dos campos,,sao jose dos campos,sao paulo,brazil,-23.179,-45.887
124,milano,,milano,lombardy,italy,45.46427,9.18951
125,lisbon,,lisbon,lisbon,portugal,38.71667,-9.13333
126,bento goncalves,,bento goncalves,rio grande do sul,brazil,-29.171,-51.519
127,boston,,boston,massachusetts,united states,42.35843,-71.05977
128,denver,,denver,colorado,united states,39.73915,-104.9847
129,nottingham,,nottingham,england,united kingdom,52.9536,-1.15047
130,gainesville,,gainesville,florida,united states,29.65163,-82.32483
131,araraquara,,araraquara,sao paulo,brazil,-21.794,-48.176
132,petropolis,,petropolis,rio de janeiro,brazil,-22.505,-43.179
133,sevilla,,sevilla,andalusia,spain,37.38283,-5.97317
134,madison,,madison,wisconsin,united states,43.07305,-89.40123
135,rochester,,rochester,new york,united states,43.15478,-77.61556
136,duque de caxias,,duque de caxias,rio de janeiro,brazil,-22.786,-43.312
137,piracicaba,,piracicaba,sao paulo,brazil,-22.725,-47.649
138,chicago,,chicago,illinois,united states,41.85003,-87.65005
139,erechim,,erechim,rio grande do sul,brazil,-27.634,-52.274
140,compiegne,,compiegne,picardie,france,49.41794,2.82606
141,edmonton,,edmonton,alberta,canada,53.55014,-113.46871
142,new orleans,,new orleans,louisiana,united states,29.95465,-90.07507
143,teresina,,teresina,piaui,brazil,-5.089,-42.802
144,anapolis,,anapolis,goias,brazil,-16.327,-48.953
145,sao jose do rio preto,,sao jose do rio preto,sao paulo,brazil,-20.82,-49.379
146,ann arbor,,ann arbor,michigan,united states,42.27756,-83.74088
147,aracaju,,aracaju,sergipe,brazil,-10.911,-37.072
148,rio branco,,rio branco,acre,brazil,-9.975,-67.81
149,gent,,gent,flanders,belgium,51.05,3.71667
150,uberaba,,uberaba,minas gerais,brazil,-19.748,-47.932
151,la jolla,,la jolla,california,united states,32.84727,-117.2742
152,champaign,,champaign,illinois,united states,40.11642,-88.24338
153,coronel fabriciano,,coronel fabriciano,minas gerais,brazil,-19.519,-42.629
154,campo mourao,,campo mourao,parana,brazil,-24.046,-52.383
155,pamplona,,pamplona,navarre,spain,42.81687,-1.64323
156,sao cristovao,,sao cristovao,sergipe,brazil,-11.015,-37.206
157,hamburg,,hamburg,free and hanseatic city of hamburg,germany,53.57532,10.01534
158,santo andre,,santo andre,sao paulo,brazil,-23.664,-46.538
159,franca,,franca,sao paulo,brazil,-20.539,-47.401
160,erlangen,,erlangen,bavaria,germany,49.59099,11.00783
161,itajuba,,itajuba,minas gerais,brazil,-22.426,-45.453
162,sao bernardo do campo,,sao bernardo do campo,sao paulo,brazil,-23.694,-46.565
163,ponta grossa,,ponta grossa,parana,brazil,-25.095,-50.162
164,vila velha,,vila velha,espirito santo,brazil,-20.33,-40.292
165,cedar rapids,,cedar rapids,iowa,united states,42.00833,-91.64407
166,ouro preto,,ouro preto,minas gerais,brazil,-20.288,-43.508
167,marilia,,marilia,sao paulo,brazil,-22.214,-49.946
168,sao carlos,,sao carlos,sao paulo,brazil,-22.018,-47.891
169,reading,,reading,england,united kingdom,51.45625,-0.97113
170,bologna,,bologna,emilia-romagna,italy,44.49381,11.33875
171,washington d c,,washington d c,"washington, d.c.",united states,38.89511,-77.03637
172,bloomington,,bloomington,indiana,united states,39.16533,-86.52639
173,mogi das cruzes,,mogi das cruzes,sao paulo,brazil,-23.523,-46.188
174,ourinhos,,ourinhos,sao paulo,brazil,-22.979,-49.871
175,athens,,athens,georgia,united states,33.96095,-83.37794
176,botucatu,,botucatu,sao paulo,brazil,-22.886,-48.445
177,santa cruz,,santa cruz,california,united states,36.97412,-122.0308
178,seattle,,seattle,washington,united states,47.60621,-122.33207
179,campina grande,,campina grande,paraiba,brazil,-7.231,-35.881
180,resende,,resende,rio de janeiro,brazil,-22.469,-44.447
181,brussels,,brussels,brussels capital region,belgium,50.85045,4.34878
182,edinburgh,,edinburgh,scotland,united kingdom,55.95206,-3.19648
183,raleigh,,raleigh,north carolina,united states,35.7721,-78.63861
184,stuttgart,,stuttgart,baden-württemberg region,germany,48.78232,9.17702
185,east lansing,,east lansing,michigan,united states,42.73698,-84.48387
186,state college,,state college,pennsylvania,united states,40.79339,-77.86
187,munster,,munster,lower saxony,germany,52.98569,10.08756
188,fort washington,,fort washington,maryland,united states,38.70734,-77.02303
189,waterloo,,waterloo,ontario,canada,43.4668,-80.51639
190,montpellier,,montpellier,languedoc-roussillon,france,43.61092,3.87723
191,turin,,turin,piedmont,italy,45.07049,7.68682
192,glasgow,,glasgow,scotland,united kingdom,55.86515,-4.25763
193,porto velho,,porto velho,rondonia,brazil,-8.762,-63.904
194,guanambi,,guanambi,bahia,brazil,-14.223,-42.781
195,skokie,,skokie,illinois,united states,42.03336,-87.73339
196,avare,,avare,sao paulo,brazil,-23.099,-48.926
197,manchester,,manchester,england,united kingdom,53.48095,-2.23743
198,varginha,,varginha,minas gerais,brazil,-21.551,-45.43
199,sao goncalo,,sao goncalo,rio de janeiro,brazil,-22.827,-43.054
200,santiago de compostela,,santiago de compostela,galicia,spain,42.88052,-8.54569
201,cordoba,,cordoba,andalusia,spain,37.89155,-4.77275
202,tubarao,,tubarao,santa catarina,brazil,-28.467,-49.007
203,jundiai,,jundiai,sao paulo,brazil,-23.186,-46.884
204,charlottesville,,charlottesville,virginia,united states,38.02931,-78.47668
205,cadiz,,cadiz,andalusia,spain,36.52978,-6.29465
206,strasbourg,,strasbourg,alsace,france,48.58392,7.74553
207,charqueadas,,charqueadas,rio grande do sul,brazil,-29.955,-51.625
208,sao joao del rei,,sao joao del rei,minas gerais,brazil,-21.136,-44.262
209,braganca paulista,,braganca paulista,sao paulo,brazil,-22.952,-46.542
210,pittsburgh,,pittsburgh,pennsylvania,united states,40.44062,-79.99589
211,brusque,,brusque,santa catarina,brazil,-27.098,-48.918
212,pullman,,pullman,washington,united states,46.73127,-117.17962
213,lages,,lages,santa catarina,brazil,-27.816,-50.326
214,freiburg,,freiburg,baden-württemberg region,germany,47.9959,7.85222
215,cruz alta,,cruz alta,rio grande do sul,brazil,-28.639,-53.606
216,providence,,providence,rhode island,united states,41.82399,-71.41283
217,montes claros,,montes claros,minas gerais,brazil,-16.735,-43.862
218,jaboticabal,,jaboticabal,sao paulo,brazil,-21.255,-48.322
219,vancouver,,vancouver,british columbia,canada,49.24966,-123.11934
220,granada,,granada,andalusia,spain,37.18817,-3.60667
221,evanston,,evanston,illinois,united states,42.04114,-87.69006
222,ivry sur seine,,ivry sur seine,île-de-france,france,48.81568,2.38487
223,volta redonda,,volta redonda,rio de janeiro,brazil,-22.523,-44.104
224,barbacena,,barbacena,minas gerais,brazil,-21.226,-43.774
225,rio claro,,rio claro,sao paulo,brazil,-22.411,-47.561
226,ames,,ames,iowa,united states,42.03471,-93.61994
227,concepcion,,concepcion,biobío,chile,-36.82699,-73.04977
228,blumenau,,blumenau,santa catarina,brazil,-26.919,-49.066
229,leeds,,leeds,england,united kingdom,53.79648,-1.54785
230,coral gables,,coral gables,florida,united states,25.72149,-80.26838
231,columbus,,columbus,ohio,united states,39.96118,-82.99879
232,ijui,,ijui,rio grande do sul,brazil,-28.388,-53.915
233,saint denis,,saint denis,île-de-france,france,48.93333,2.36667
234,florence,,florence,tuscany,italy,43.77925,11.24626
235,bordeaux,,bordeaux,aquitaine,france,44.84044,-0.5805
236,lins,,lins,sao paulo,brazil,-21.679,-49.743
237,west lafayette,,west lafayette,indiana,united states,40.42587,-86.90807
238,leon,,leon,castille and león,spain,42.60003,-5.57032
239,blacksburg,,blacksburg,virginia,united states,37.22957,-80.41394
240,cachoeiro de itapemirim,,cachoeiro de itapemirim,espirito santo,brazil,-20.849,-41.113
241,south bend,,south bend,indiana,united states,41.68338,-86.25001
242,criciuma,,criciuma,santa catarina,brazil,-28.678,-49.37
243,geneva,,geneva,illinois,united states,41.88753,-88.30535
244,new brunswick,,new brunswick,new jersey,united states,40.48622,-74.45182
245,toulouse,,toulouse,midi-pyrénées,france,43.60426,1.44367
246,delft,,delft,south holland,netherlands,52.00667,4.35556
247,college station,,college station,texas,united states,30.62798,-96.33441
248,santa cruz do sul,,santa cruz do sul,rio grande do sul,brazil,-29.718,-52.426
249,caratinga,,caratinga,minas gerais,brazil,-19.79,-42.139
250,palmas,,palmas,tocantins,brazil,-10.167,-48.333
251,auburn,,auburn,alabama,united states,32.60986,-85.48078
252,princeton,,princeton,florida,united states,25.53844,-80.40894
253,austin,,austin,texas,united states,30.26715,-97.74306
254,paranavai,,paranavai,parana,brazil,-23.073,-52.465
255,nashville,,nashville,tennessee,united states,36.16589,-86.78444
256,sydney,,sydney,new south wales,australia,-33.86785,151.20732
257,canoinhas,,canoinhas,santa catarina,brazil,-26.177,-50.39
258,campos dos goytacazes,,campos dos goytacazes,rio de janeiro,brazil,-21.754,-41.324
259,lajeado,,lajeado,rio grande do sul,brazil,-29.467,-51.961
260,nazare paulista,,nazare paulista,sao paulo,brazil,-23.181,-46.395
261,sobral,,sobral,ceara,brazil,-3.674,-40.239
262,itatiba,,itatiba,sao paulo,brazil,-23.006,-46.839
263,lima,,lima,provincia de lima,peru,-12.04318,-77.02824
264,garca,,garca,sao paulo,brazil,-22.211,-49.656
265,tucson,,tucson,arizona,united states,32.22174,-110.92648
266,cordoba,,cordoba,córdoba,argentina,-31.4135,-64.18105
267,norwich,,norwich,england,united kingdom,52.62783,1.29834
268,aberdeen,,aberdeen,scotland,united kingdom,57.14369,-2.09814
269,mossoro,,mossoro,rio grande do norte,brazil,-5.188,-37.344
270,ananindeua,,ananindeua,para,brazil,-1.366,-48.372
271,hannover,,hannover,lower saxony,germany,52.37052,9.73322
272,corvallis,,corvallis,oregon,united states,44.56457,-123.26204
273,bristol,,bristol,england,united kingdom,51.45523,-2.59665
274,coventry,,coventry,england,united kingdom,52.40656,-1.51217
275,palmas,,palmas,parana,brazil,-26.484,-51.991
276,berkeley,,berkeley,california,united states,37.87159,-122.27275
277,stillwater,,stillwater,oklahoma,united states,36.11561,-97.05837
278,liverpool,,liverpool,england,united kingdom,53.41058,-2.97794
279,logan,,logan,utah,united states,41.73549,-111.83439
280,cerdanyola del valles,,cerdanyola del valles,catalonia,spain,41.49109,2.14079
281,birmingham,,birmingham,england,united kingdom,52.48142,-1.89983
282,salt lake city,,salt lake city,utah,united states,40.76078,-111.89105
283,frankfurt am main,,frankfurt am main,hesse,germany,50.11552,8.68417
284,brisbane,,brisbane,queensland,australia,-27.46794,153.02809
285,kiel,,kiel,schleswig-holstein,germany,54.32133,10.13489
286,quebec,,quebec,quebec,canada,46.81228,-71.21454
287,lexington,,lexington,kentucky,united states,37.98869,-84.47772
288,aracatuba,,aracatuba,sao paulo,brazil,-21.209,-50.433
289,dourados,,dourados,mato grosso do sul,brazil,-22.221,-54.806
290,oviedo,,oviedo,asturias,spain,43.36029,-5.84476
291,creteil,,creteil,île-de-france,france,48.78333,2.46667
292,valencia,,valencia,valencia,spain,39.46975,-0.37739
293,calgary,,calgary,alberta,canada,51.05011,-114.08529
294,rennes,,rennes,brittany,france,48.11198,-1.67429
295,lund,,lund,skåne,sweden,55.70584,13.19321
296,boa vista,,boa vista,roraima,brazil,2.82,-60.673
297,parkville,,parkville,maryland,united states,39.37733,-76.53969
298,newcastle upon tyne,,newcastle upon tyne,england,united kingdom,54.97328,-1.61396
299,nova iguacu,,nova iguacu,rio de janeiro,brazil,-22.759,-43.451
300,santiago de cuba,,santiago de cuba,santiago de cuba,cuba,20.02472,-75.82194
301,poitiers,,poitiers,poitou-charentes,france,46.58333,0.33333
302,sao caetano do sul,,sao caetano do sul,sao paulo,brazil,-23.623,-46.551
303,kyoto,,kyoto,kyōto,japan,35.02107,135.75385
304,tallahassee,,tallahassee,florida,united states,30.43826,-84.28073
305,alicante,,alicante,valencia,spain,38.34517,-0.48149
306,guildford,,guildford,england,united kingdom,51.23536,-0.57427
307,sceaux,,sceaux,île-de-france,france,48.77644,2.29026
308,araguaina,,araguaina,tocantins,brazil,-7.191,-48.207
309,san ignacio,,san ignacio,cayo,belize,17.15297,-89.08058
310,faro,,faro,faro,portugal,37.01937,-7.93223
311,loughborough,,loughborough,england,united kingdom,52.76667,-1.2
312,sao miguel do oeste,,sao miguel do oeste,santa catarina,brazil,-26.725,-53.518
313,bethesda,,bethesda,maryland,united states,38.98067,-77.10026
314,tours,,tours,centre,france,47.38333,0.68333
315,boulder,,boulder,colorado,united states,40.01499,-105.27055
316,olinda,,olinda,pernambuco,brazil,-8.009,-34.855
317,osorio,,osorio,rio grande do sul,brazil,-29.887,-50.27
318,varzea grande,,varzea grande,mato grosso,brazil,-15.647,-56.133
319,montreal,,montreal,quebec,canada,45.50884,-73.58781
320,nanterre,,nanterre,île-de-france,france,48.89198,2.20675
321,crato,,crato,ceara,brazil,-7.234,-39.409
322,syracuse,,syracuse,new york,united states,43.04812,-76.14742
323,sorocaba,,sorocaba,sao paulo,brazil,-23.502,-47.458
324,tempe,,tempe,arizona,united states,33.41477,-111.90931
325,cachoeira do sul,,cachoeira do sul,rio grande do sul,brazil,-30.039,-52.894
326,votuporanga,,votuporanga,sao paulo,brazil,-20.423,-49.973
327,copenhagen,,copenhagen,capital region,denmark,55.67594,12.56553
328,inconfidentes,,inconfidentes,minas gerais,brazil,-22.317,-46.328
329,penapolis,,penapolis,sao paulo,brazil,-21.42,-50.078
330,pouso alegre,,pouso alegre,minas gerais,brazil,-22.23,-45.936
331,starkville,,starkville,mississippi,united states,33.45049,-88.81961
332,heidelberg,,heidelberg,baden-württemberg region,germany,49.40768,8.69079
333,vigo,,vigo,galicia,spain,42.23282,-8.72264
334,catanduva,,catanduva,sao paulo,brazil,-21.138,-48.973
335,villeurbanne,,villeurbanne,rhône-alpes,france,45.76667,4.88333
336,karlsruhe,,karlsruhe,baden-württemberg region,germany,49.00937,8.40444
337,cuenca,,cuenca,castille-la mancha,spain,40.06667,-2.13333
338,brighton,,brighton,england,united kingdom,50.82838,-0.13947
339,colmar,,colmar,alsace,france,48.08333,7.36667
340,murcia,,murcia,murcia,spain,37.98704,-1.13004
341,cali,,cali,valle del cauca,colombia,3.43722,-76.5225
342,governador valadares,,governador valadares,minas gerais,brazil,-18.851,-41.949
343,batatais,,batatais,sao paulo,brazil,-20.891,-47.585
344,leioa,,leioa,basque country,spain,43.33333,-2.98333
345,bahia blanca,,bahia blanca,buenos aires,argentina,-38.71959,-62.27243
346,lancaster,,lancaster,england,united kingdom,54.04649,-2.79988
347,joinville,,joinville,santa catarina,brazil,-26.304,-48.846
348,barra mansa,,barra mansa,rio de janeiro,brazil,-22.544,-44.171
349,sao jose,,sao jose,santa catarina,brazil,-27.615,-48.628
350,pompeia,,pompeia,sao paulo,brazil,-22.109,-50.172
351,leicester,,leicester,england,united kingdom,52.6386,-1.13169
352,pisa,,pisa,tuscany,italy,43.70853,10.4036
353,lyon,,lyon,rhône-alpes,france,45.74846,4.84671
354,leiden,,leiden,south holland,netherlands,52.15833,4.49306
355,diamantina,,diamantina,minas gerais,brazil,-18.249,-43.6
356,orlando,,orlando,florida,united states,28.53834,-81.37924
357,caceres,,caceres,extremadura,spain,39.47649,-6.37224
358,sete lagoas,,sete lagoas,minas gerais,brazil,-19.466,-44.247
359,nancy,,nancy,lorraine,france,48.68439,6.18496
360,salinas,,salinas,minas gerais,brazil,-16.17,-42.29
361,nilopolis,,nilopolis,rio de janeiro,brazil,-22.808,-43.414
362,valence,,valence,rhône-alpes,france,44.93333,4.9
363,rio verde,,rio verde,goias,brazil,-17.798,-50.928
364,sao joao de meriti,,sao joao de meriti,rio de janeiro,brazil,-22.804,-43.372
365,suzano,,suzano,sao paulo,brazil,-23.543,-46.311
366,guaratingueta,,guaratingueta,sao paulo,brazil,-22.816,-45.193
367,medianeira,,medianeira,parana,brazil,-25.295,-54.094
368,koeln,,koeln,north rhine-westphalia,germany,50.93333,6.95
369,santa clara,,santa clara,villa clara,cuba,22.4,-79.96667
370,vassouras,,vassouras,rio de janeiro,brazil,-22.404,-43.663
371,guelph,,guelph,ontario,canada,43.54594,-80.25599
372,espirito santo do pinhal,,espirito santo do pinhal,sao paulo,brazil,-22.191,-46.741
373,muriae,,muriae,minas gerais,brazil,-21.131,-42.366
374,santa rita,,santa rita,paraiba,brazil,-7.114,-34.978
375,santa rita do sapucai,,santa rita do sapucai,minas gerais,brazil,-22.252,-45.703
376,patos,,patos,paraiba,brazil,-7.024,-37.28
377,lawrence,,lawrence,kansas,united states,38.97167,-95.23525
378,limeira,,limeira,sao paulo,brazil,-22.565,-47.402
379,rondonopolis,,rondonopolis,mato grosso,brazil,-16.471,-54.636
380,balneario camboriu,,balneario camboriu,santa catarina,brazil,-26.991,-48.635
381,itaperuna,,itaperuna,rio de janeiro,brazil,-21.205,-41.888
382,mogi guacu,,mogi guacu,sao paulo,brazil,-22.372,-46.942
383,ituverava,,ituverava,sao paulo,brazil,-20.339,-47.781
384,epinal,,epinal,lorraine,france,48.18333,6.45
385,teresopolis,,teresopolis,rio de janeiro,brazil,-22.412,-42.966
386,bucaramanga,,bucaramanga,santander,colombia,7.12539,-73.1198
387,andradina,,andradina,sao paulo,brazil,-20.896,-51.379
388,sapporo,,sapporo,hokkaidō,japan,43.06417,141.34695
389,lausanne,,lausanne,vaud,switzerland,46.516,6.63282
390,cruz das almas,,cruz das almas,bahia,brazil,-12.67,-39.102
391,canterbury,,canterbury,england,united kingdom,51.27904,1.07992
392,jandaia do sul,,jandaia do sul,parana,brazil,-23.603,-51.643
393,caruaru,,caruaru,pernambuco,brazil,-8.283,-35.976
394,paranagua,,paranagua,parana,brazil,-25.52,-48.509
395,golden,,golden,colorado,united states,39.75554,-105.2211
396,catalao,,catalao,goias,brazil,-18.17,-47.942
397,santo antonio do descoberto,,santo antonio do descoberto,goias,brazil,-15.94,-48.255
398,osasco,,osasco,sao paulo,brazil,-23.533,-46.792
399,southampton,,southampton,england,united kingdom,50.90395,-1.40428
400,arapiraca,,arapiraca,alagoas,brazil,-9.752,-36.661
401,salto,,salto,sao paulo,brazil,-23.201,-47.287
402,college park,,college park,maryland,united states,38.98067,-76.93692
403,cachoeira,,cachoeira,bahia,brazil,-12.618,-38.956
404,nova friburgo,,nova friburgo,rio de janeiro,brazil,-22.282,-42.531
405,belo jardim,,belo jardim,pernambuco,brazil,-8.336,-36.424
406,santa fe do sul,,santa fe do sul,sao paulo,brazil,-20.211,-50.926
407,cornelio procopio,,cornelio procopio,parana,brazil,-23.181,-50.647
408,amsterdam,,amsterdam,north holland,netherlands,52.37403,4.88969
409,garanhuns,,garanhuns,pernambuco,brazil,-8.89,-36.493
410,agua branca,,agua branca,piaui,brazil,-5.89,-42.638
411,mairipora,,mairipora,sao paulo,brazil,-23.319,-46.587
412,jacarezinho,,jacarezinho,parana,brazil,-23.161,-49.969
413,araripina,,araripina,pernambuco,brazil,-7.576,-40.498
414,nova venecia,,nova venecia,espirito santo,brazil,-18.711,-40.401
415,ariquemes,,ariquemes,rondonia,brazil,-9.913,-63.041
416,bedford,,bedford,england,united kingdom,52.13459,-0.46632
417,maranguape,,maranguape,ceara,brazil,-3.89,-38.686
418,ituiutaba,,ituiutaba,minas gerais,brazil,-18.969,-49.465
419,bandeirantes,,bandeirantes,parana,brazil,-23.11,-50.368
420,valenca,,valenca,rio de janeiro,brazil,-22.246,-43.7
421,nova lima,,nova lima,minas gerais,brazil,-19.986,-43.847
422,maturin,,maturin,estado monagas,venezuela,9.74569,-63.18323
423,lauro de freitas,,lauro de freitas,bahia,brazil,-12.894,-38.327
424,grenoble,,grenoble,rhône-alpes,france,45.16667,5.71667
425,sao jose do rio pardo,,sao jose do rio pardo,sao paulo,brazil,-21.596,-46.889
426,sao gotardo,,sao gotardo,minas gerais,brazil,-19.311,-46.049
427,bonn,,bonn,north rhine-westphalia,germany,50.73438,7.09549
428,campanha,,campanha,minas gerais,brazil,-21.836,-45.401
429,london,,london,ontario,canada,42.98339,-81.23304
430,cataguases,,cataguases,minas gerais,brazil,-21.389,-42.697
431,york,,york,england,united kingdom,53.95763,-1.08271
432,sao pedro do piaui,,sao pedro do piaui,piaui,brazil,-5.929,-42.719
433,sao luis de montes belos,,sao luis de montes belos,goias,brazil,-16.525,-50.372
434,conselheiro lafaiete,,conselheiro lafaiete,minas gerais,brazil,-20.66,-43.786
435,colchester,,colchester,england,united kingdom,51.88921,0.90421
436,assis,,assis,sao paulo,brazil,-22.662,-50.412
437,pirassununga,,pirassununga,sao paulo,brazil,-21.996,-47.426
438,bilbao,,bilbao,basque country,spain,43.26271,-2.92528
439,itaborai,,itaborai,rio de janeiro,brazil,-22.744,-42.859
440,pereira barreto,,pereira barreto,sao paulo,brazil,-20.638,-51.109
441,coroata,,coroata,maranhao,brazil,-4.13,-44.124
442,bogota,,bogota,bogota d.c.,colombia,4.60971,-74.08175
443,santo angelo,,santo angelo,rio grande do sul,brazil,-28.299,-54.263
444,houston,,houston,texas,united states,29.76328,-95.36327
445,bondy,,bondy,île-de-france,france,48.9018,2.48931
446,saint andrews,,saint andrews,scotland,united kingdom,56.33871,-2.79902
447,petrolina,,petrolina,pernambuco,brazil,-9.393,-40.508
448,trujillo,,trujillo,la libertad,peru,-8.11599,-79.02998
449,jaboatao dos guararapes,,jaboatao dos guararapes,pernambuco,brazil,-8.113,-35.015
450,manhattan,,manhattan,kansas,united states,39.18361,-96.57167
451,sao mateus,,sao mateus,espirito santo,brazil,-18.716,-39.859
452,melbourne,,melbourne,victoria,australia,-37.814,144.96332
453,amherst,,amherst,new york,united states,42.97839,-78.79976
454,olimpia,,olimpia,sao paulo,brazil,-20.737,-48.915
455,assis chateaubriand,,assis chateaubriand,parana,brazil,-24.42,-53.521
456,arcoverde,,arcoverde,pernambuco,brazil,-8.419,-37.054
457,formiga,,formiga,minas gerais,brazil,-20.464,-45.426
458,vespasiano,,vespasiano,minas gerais,brazil,-19.692,-43.923
459,rio pomba,,rio pomba,minas gerais,brazil,-21.275,-43.179
460,mirassol,,mirassol,sao paulo,brazil,-20.819,-49.521
461,mineiros,,mineiros,goias,brazil,-17.569,-52.551
462,palhoca,,palhoca,santa catarina,brazil,-27.645,-48.668
463,jaragua do sul,,jaragua do sul,santa catarina,brazil,-26.486,-49.067
464,jau,,jau,sao paulo,brazil,-22.296,-48.558
465,toledo,,toledo,parana,brazil,-24.714,-53.743
466,juina,,juina,mato grosso,brazil,-11.378,-58.741
467,foz do iguacu,,foz do iguacu,parana,brazil,-25.548,-54.588
468,campo limpo paulista,,campo limpo paulista,sao paulo,brazil,-23.206,-46.784
469,sao sebastiao,,sao sebastiao,sao paulo,brazil,-23.76,-45.41
470,diadema,,diadema,sao paulo,brazil,-23.686,-46.623
471,pindamonhangaba,,pindamonhangaba,sao paulo,brazil,-22.924,-45.462
472,barreiras,,barreiras,bahia,brazil,-12.153,-44.99
473,taboao da serra,,taboao da serra,sao paulo,brazil,-23.602,-46.753
474,luis eduardo magalhaes,,luis eduardo magalhaes,bahia,brazil,-12.092,-45.805
475,santarem,,santarem,para,brazil,-2.443,-54.708
476,teixeira de freitas,,teixeira de freitas,bahia,brazil,-17.535,-39.742
477,guaruja,,guaruja,sao paulo,brazil,-23.993,-46.256
478,indaiatuba,,indaiatuba,sao paulo,brazil,-23.09,-47.218
479,eldorado do sul,,eldorado do sul,rio grande do sul,brazil,-30.084,-51.616
480,atibaia,,atibaia,sao paulo,brazil,-23.117,-46.55
481,itapecerica da serra,,itapecerica da serra,sao paulo,brazil,-23.717,-46.849
482,carapicuiba,,carapicuiba,sao paulo,brazil,-23.523,-46.836
483,caraguatatuba,,caraguatatuba,sao paulo,brazil,-23.62,-45.413
484,goias,,goias,goias,brazil,-15.934,-50.14
485,bebedouro,,bebedouro,sao paulo,brazil,-20.949,-48.479
486,adamantina,,adamantina,sao paulo,brazil,-21.685,-51.073
487,ivatuba,,ivatuba,parana,brazil,-23.619,-52.221
488,cotia,,cotia,sao paulo,brazil,-23.604,-46.919
489,maua,,maua,sao paulo,brazil,-23.668,-46.461
490,juazeiro do norte,,juazeiro do norte,ceara,brazil,-7.213,-39.315
491,amparo,,amparo,sao paulo,brazil,-22.701,-46.764
492,frutal,,frutal,minas gerais,brazil,-20.025,-48.941
493,nova esperanca,,nova esperanca,parana,brazil,-23.184,-52.205
494,hortolandia,,hortolandia,sao paulo,brazil,-22.858,-47.22
495,redencao,,redencao,ceara,brazil,-4.226,-38.731
496,mandaguari,,mandaguari,parana,brazil,-23.548,-51.671
497,caucaia,,caucaia,ceara,brazil,-3.733,-38.656
498,itapeva,,itapeva,sao paulo,brazil,-23.982,-48.876
499,patos de minas,,patos de minas,minas gerais,brazil,-18.579,-46.518
500,belford roxo,,belford roxo,rio de janeiro,brazil,-22.764,-43.399
501,vitoria de santo antao,,vitoria de santo antao,pernambuco,brazil,-8.118,-35.291
502,victoria,,victoria,british columbia,canada,48.43294,-123.3693
503,cacoal,,cacoal,rondonia,brazil,-11.438,-61.448
504,campos gerais,,campos gerais,minas gerais,brazil,-21.235,-45.759
505,barra do garcas,,barra do garcas,mato grosso,brazil,-15.89,-52.257
506,colorado do oeste,,colorado do oeste,rondonia,brazil,-13.117,-60.542
507,jequie,,jequie,bahia,brazil,-13.858,-40.084
508,saquarema,,saquarema,rio de janeiro,brazil,-22.92,-42.51
509,cafelandia,,cafelandia,sao paulo,brazil,-21.803,-49.61
510,aurora,,aurora,ceara,brazil,-6.943,-38.968
511,maputo,,maputo,maputo city,mozambique,-25.96553,32.58322
512,delijan,,delijan,markazi,iran,33.9905,50.6838
513,quito,,quito,pichincha,ecuador,-0.22985,-78.52495
514,carmo,,carmo,rio de janeiro,brazil,-21.934,-42.609
515,plymouth,,plymouth,england,united kingdom,50.37153,-4.14305
516,cusco,,cusco,cusco,peru,-13.52264,-71.96734
517,moscow,,moscow,moscow,russia,55.75222,37.61556
518,beziers,,beziers,languedoc-roussillon,france,43.34122,3.21402
519,puebla,,puebla,puebla,mexico,19.04334,-98.20193
520,borrazopolis,,borrazopolis,parana,brazil,-23.941,-51.588
521,coimbra,,coimbra,coimbra,portugal,40.20564,-8.41955
522,veracruz,,veracruz,veracruz-llave,mexico,19.18095,-96.1429
523,fernandopolis,,fernandopolis,sao paulo,brazil,-20.284,-50.246
524,cork,,cork,munster,ireland,51.89797,-8.47061
525,peshawar,,peshawar,north-west frontier province,pakistan,34.008,71.57849
526,havana,,havana,ciudad de la habana,cuba,23.13302,-82.38304
527,calarca,,calarca,quindío,colombia,4.52949,-75.64091
528,itamari,,itamari,bahia,brazil,-13.778,-39.684
529,imphal,,imphal,manipur,india,24.80805,93.9442
530,franco da rocha,,franco da rocha,sao paulo,brazil,-23.322,-46.727
531,esslingen,,esslingen,baden-württemberg region,germany,48.73961,9.30473
532,nagercoil,,nagercoil,tamil nādu,india,8.17731,77.43437
533,chivilcoy,,chivilcoy,buenos aires,argentina,-34.89566,-60.01667
534,roubaix,,roubaix,nord-pas-de-calais,france,50.69421,3.17456
535,chiclayo,,chiclayo,lambayeque,peru,-6.77137,-79.84088
536,boulogne billancourt,,boulogne billancourt,île-de-france,france,48.83333,2.25
537,pernik,,pernik,pernik,bulgaria,42.6,23.03333
538,formosa do oeste,,formosa do oeste,parana,brazil,-24.293,-53.313
539,blackburn,,blackburn,england,united kingdom,53.75,-2.48333
540,challans,,challans,pays de la loire,france,46.84363,-1.87491
541,butare,,butare,southern province,rwanda,-2.59667,29.73944
542,formigueiro,,formigueiro,rio grande do sul,brazil,-30,-53.499
543,marseille,,marseille,provence-alpes-côte d'azur,france,43.29695,5.38107
544,visconde do rio branco,,visconde do rio branco,minas gerais,brazil,-21.01,-42.841
545,conchas,,conchas,sao paulo,brazil,-23.015,-48.011
546,alcobaca,,alcobaca,bahia,brazil,-17.519,-39.196
547,juliaca,,juliaca,puno,peru,-15.5,-70.13333
548,pamplona,,pamplona,norte de santander,colombia,7.37565,-72.64795
549,pojuca,,pojuca,bahia,brazil,-12.431,-38.328
550,promissao,,promissao,sao paulo,brazil,-21.537,-49.858
551,santo domingo,,santo domingo,distrito nacional,dominican republic,18.50012,-69.98857
552,mollendo,,mollendo,arequipa,peru,-17.02306,-72.01472
553,minatitlan,,minatitlan,veracruz-llave,mexico,17.99925,-94.55441
554,pontevedra,,pontevedra,galicia,spain,42.431,-8.64435
555,macon,,macon,bourgogne,france,46.3,4.83333
556,santander,,santander,cantabria,spain,43.46472,-3.80444
557,dej,,dej,cluj,romania,47.15,23.86667
558,arica,,arica,arica y parinacota,chile,-18.4746,-70.29792
559,neuilly sur seine,,neuilly sur seine,île-de-france,france,48.8846,2.26965
560,mandaguacu,,mandaguacu,parana,brazil,-23.347,-52.095
561,vila rica,,vila rica,mato grosso,brazil,-10.012,-51.116
562,san francisco,,san francisco,california,united states,37.77493,-122.41942
563,sao gabriel da cachoeira,,sao gabriel da cachoeira,amazonas,brazil,-0.13,-67.089
564,mainz,,mainz,rheinland-pfalz,germany,49.98419,8.2791
565,envigado,,envigado,departamento de antioquia,colombia,6.17591,-75.59174
566,maracas,,maracas,bahia,brazil,-13.441,-40.431
567,santa rosa,,santa rosa,la pampa,argentina,-36.61667,-64.28333
568,amadora,,amadora,lisbon,portugal,38.75382,-9.23083
569,hamilton,,hamilton,ontario,canada,43.25011,-79.84963
570,raalte,,raalte,overijssel,netherlands,52.38583,6.275
571,santa barbara d oeste,,santa barbara d oeste,sao paulo,brazil,-22.754,-47.414
572,malta,,malta,paraiba,brazil,-6.904,-37.522
573,siena,,siena,tuscany,italy,43.32215,11.3259
574,versailles,,versailles,île-de-france,france,48.8,2.13333
575,guantanamo,,guantanamo,guantánamo,cuba,20.14444,-75.20917
576,morros,,morros,maranhao,brazil,-2.864,-44.039
577,cacapava do sul,,cacapava do sul,rio grande do sul,brazil,-30.512,-53.491
578,pinar del rio,,pinar del rio,pinar del río,cuba,22.4175,-83.69806
579,salerno,,salerno,campania,italy,40.67545,14.79328
580,mar del plata,,mar del plata,buenos aires,argentina,-38.00228,-57.55754
581,anguera,,anguera,bahia,brazil,-12.151,-39.246
582,zadar,,zadar,zadarska,croatia,44.11972,15.24222
583,boaco,,boaco,boaco,nicaragua,12.47224,-85.6586
584,votorantim,,votorantim,sao paulo,brazil,-23.547,-47.438
585,boa esperanca do iguacu,,boa esperanca do iguacu,parana,brazil,-25.636,-53.212
586,campo largo,,campo largo,parana,brazil,-25.459,-49.528
587,aschaffenburg,,aschaffenburg,bavaria,germany,49.97704,9.15214
588,holguin,,holguin,holguín,cuba,20.88722,-76.26306
589,crissiumal,,crissiumal,rio grande do sul,brazil,-27.5,-54.101
590,ponte nova,,ponte nova,minas gerais,brazil,-20.416,-42.909
591,cambui,,cambui,minas gerais,brazil,-22.612,-46.058
592,manacapuru,,manacapuru,amazonas,brazil,-3.3,-60.621
593,varanasi,,varanasi,uttar pradesh,india,25.31668,83.01041
594,tucunduva,,tucunduva,rio grande do sul,brazil,-27.657,-54.44
595,bangalore,,bangalore,karnātaka,india,12.97194,77.59369
596,brest,,brest,brestskaya voblastsʼ,belarus,52.09755,23.68775
597,codo,,codo,maranhao,brazil,-4.455,-43.886
598,tres rios,,tres rios,rio de janeiro,brazil,-22.117,-43.209
599,seberi,,seberi,rio grande do sul,brazil,-27.478,-53.403
600,romans sur isere,,romans sur isere,rhône-alpes,france,45.04639,5.0562
601,cristalandia,,cristalandia,tocantins,brazil,-10.6,-49.193
602,baependi,,baependi,minas gerais,brazil,-21.959,-44.89
603,haarlem,,haarlem,north holland,netherlands,52.38084,4.63683
604,quetzaltenango,,quetzaltenango,quetzaltenango,guatemala,14.83472,-91.51806
605,cedral,,cedral,sao paulo,brazil,-20.903,-49.268
606,ervalia,,ervalia,minas gerais,brazil,-20.84,-42.657
607,nova cruz,,nova cruz,rio grande do norte,brazil,-6.478,-35.434
608,warwick,,warwick,england,united kingdom,52.28333,-1.58333
609,juazeiro,,juazeiro,bahia,brazil,-9.414,-40.503
610,itumirim,,itumirim,minas gerais,brazil,-21.317,-44.871
611,parnaiba,,parnaiba,piaui,brazil,-2.905,-41.777
612,goiandira,,goiandira,goias,brazil,-18.133,-48.085
613,esperanca,,esperanca,paraiba,brazil,-7.023,-35.86
614,sao joao da boa vista,,sao joao da boa vista,sao paulo,brazil,-21.969,-46.798
615,dijon,,dijon,bourgogne,france,47.31667,5.01667
616,linz,,linz,upper austria,austria,48.30639,14.28611
617,rosario,,rosario,santa fe,argentina,-32.94682,-60.63932
618,cambe,,cambe,parana,brazil,-23.276,-51.278
619,juara,,juara,mato grosso,brazil,-11.255,-57.52
620,humaita,,humaita,rio grande do sul,brazil,-27.563,-53.974
621,jales,,jales,sao paulo,brazil,-20.269,-50.546
622,campo belo,,campo belo,minas gerais,brazil,-20.897,-45.277
623,ipira,,ipira,santa catarina,brazil,-27.404,-51.773
624,sao manuel,,sao manuel,sao paulo,brazil,-22.731,-48.571
625,huancayo,,huancayo,junín,peru,-12.06513,-75.20486
626,pirajui,,pirajui,sao paulo,brazil,-21.999,-49.457
627,carmo do paranaiba,,carmo do paranaiba,minas gerais,brazil,-19.001,-46.316
628,burton upon trent,,burton upon trent,england,united kingdom,52.80728,-1.64263
629,carazinho,,carazinho,rio grande do sul,brazil,-28.284,-52.786
630,tibau do sul,,tibau do sul,rio grande do norte,brazil,-6.187,-35.092
631,talcahuano,,talcahuano,biobío,chile,-36.72494,-73.11684
632,garibaldi,,garibaldi,rio grande do sul,brazil,-29.256,-51.534
633,adolfo,,adolfo,sao paulo,brazil,-21.235,-49.644
634,frauenfeld,,frauenfeld,thurgau,switzerland,47.55816,8.89854
635,joacaba,,joacaba,santa catarina,brazil,-27.178,-51.505
636,piumhi,,piumhi,minas gerais,brazil,-20.465,-45.958
637,leszno,,leszno,greater poland voivodeship,poland,51.84034,16.57494
638,alexandria,,alexandria,alexandria,egypt,31.21564,29.95527
639,manzanillo,,manzanillo,granma,cuba,20.34333,-77.11667
640,carius,,carius,ceara,brazil,-6.537,-39.497
641,raul soares,,raul soares,minas gerais,brazil,-20.102,-42.453
642,mexico,,mexico,central luzon,philippines,15.0646,120.7198
643,sao luiz,,sao luiz,roraima,brazil,1.005,-60.159
644,camaragibe,,camaragibe,pernambuco,brazil,-8.022,-34.981
645,caete,,caete,minas gerais,brazil,-19.88,-43.67
646,mombaca,,mombaca,ceara,brazil,-5.743,-39.628
647,wiesbaden,,wiesbaden,hesse,germany,50.08258,8.24932
648,porto ferreira,,porto ferreira,sao paulo,brazil,-21.854,-47.479
649,palmital,,palmital,sao paulo,brazil,-22.789,-50.218
650,guararema,,guararema,sao paulo,brazil,-23.415,-46.035
651,galveston,,galveston,texas,united states,29.30135,-94.7977
652,bom jesus,,bom jesus,rio grande do sul,brazil,-28.668,-50.417
653,bela vista do paraiso,,bela vista do paraiso,parana,brazil,-22.997,-51.191
654,joao alfredo,,joao alfredo,pernambuco,brazil,-7.856,-35.588
655,santa cruz do rio pardo,,santa cruz do rio pardo,sao paulo,brazil,-22.899,-49.633
656,porto uniao,,porto uniao,santa catarina,brazil,-26.238,-51.078
657,guira de melena,,guira de melena,provincia artemisa,cuba,22.79274,-82.50823
658,presidente bernardes,,presidente bernardes,sao paulo,brazil,-22.006,-51.553
659,rabat,,rabat,rabat-salé-zemmour-zaër,morocco,34.01325,-6.83255
660,wellington,,wellington,wellington,new zealand,-41.28664,174.77557
661,nova canaa,,nova canaa,bahia,brazil,-14.794,-40.142
662,faxinal do soturno,,faxinal do soturno,rio grande do sul,brazil,-29.575,-53.445
663,sao borja,,sao borja,rio grande do sul,brazil,-28.661,-56.004
664,itapetininga,,itapetininga,sao paulo,brazil,-23.592,-48.053
665,agua santa,,agua santa,rio grande do sul,brazil,-28.177,-52.034
666,senhor do bonfim,,senhor do bonfim,bahia,brazil,-10.463,-40.191
667,fenix,,fenix,parana,brazil,-23.916,-51.979
668,vila real,,vila real,vila real,portugal,41.30062,-7.74413
669,alto piquiri,,alto piquiri,parana,brazil,-24.028,-53.441
670,belfast,,belfast,n ireland,united kingdom,54.58333,-5.93333
671,santiago del estero,,santiago del estero,santiago del estero,argentina,-27.79511,-64.26149
672,quimper,,quimper,brittany,france,48,-4.1
673,frederico westphalen,,frederico westphalen,rio grande do sul,brazil,-27.359,-53.394
674,oslo,,oslo,oslo county,norway,59.91273,10.74609
675,santiago,,santiago,rio grande do sul,brazil,-29.192,-54.867
676,sao pedro do sul,,sao pedro do sul,rio grande do sul,brazil,-29.621,-54.179
677,rolandia,,rolandia,parana,brazil,-23.31,-51.369
678,bacabal,,bacabal,maranhao,brazil,-4.225,-44.78
679,brasileia,,brasileia,acre,brazil,-11.01,-68.748
680,baturite,,baturite,ceara,brazil,-4.329,-38.885
681,orlandia,,orlandia,sao paulo,brazil,-20.72,-47.887
682,pedro osorio,,pedro osorio,rio grande do sul,brazil,-31.864,-52.823
683,turvania,,turvania,goias,brazil,-16.614,-50.134
684,ubajara,,ubajara,ceara,brazil,-3.854,-40.921
685,rio do sul,,rio do sul,santa catarina,brazil,-27.214,-49.643
686,santa barbara do sul,,santa barbara do sul,rio grande do sul,brazil,-28.358,-53.247
687,presidente olegario,,presidente olegario,minas gerais,brazil,-18.418,-46.418
688,boa esperanca do sul,,boa esperanca do sul,sao paulo,brazil,-21.993,-48.391
689,vargem bonita,,vargem bonita,santa catarina,brazil,-27.007,-51.74
690,irituia,,irituia,para,brazil,-1.769,-47.439
691,lambari,,lambari,minas gerais,brazil,-21.976,-45.35
692,capivari,,capivari,sao paulo,brazil,-22.995,-47.508
693,sapeacu,,sapeacu,bahia,brazil,-12.728,-39.182
694,tupa,,tupa,sao paulo,brazil,-21.935,-50.514
695,pocos de caldas,,pocos de caldas,minas gerais,brazil,-21.788,-46.561
696,paramaribo,,paramaribo,paramaribo,suriname,5.86638,-55.16682
697,laguna,,laguna,santa catarina,brazil,-28.483,-48.781
698,anicuns,,anicuns,goias,brazil,-16.461,-49.962
699,uruguaiana,,uruguaiana,rio grande do sul,brazil,-29.755,-57.088
700,oruro,,oruro,oruro,bolivia,-17.98333,-67.15
701,loures,,loures,lisbon,portugal,38.83091,-9.16845
702,nova roma,,nova roma,goias,brazil,-13.742,-46.88
703,curepipe,,curepipe,plaines wilhems,mauritius,-20.31472,57.52028
704,treinta y tres,,treinta y tres,treinta y tres,uruguay,-33.23333,-54.38333
705,beijing,,beijing,beijing,china,39.9075,116.39723
706,sao martinho,,sao martinho,santa catarina,brazil,-28.165,-48.979
707,quirinopolis,,quirinopolis,goias,brazil,-18.448,-50.452
708,coburg,,coburg,bavaria,germany,50.25937,10.96384
709,santa teresa,,santa teresa,espirito santo,brazil,-19.936,-40.6
710,cartagena,,cartagena,bolívar,colombia,10.39972,-75.51444
711,macieira,,macieira,santa catarina,brazil,-26.856,-51.378
712,surat,,surat,gujarāt,india,21.19594,72.83023
713,rondinha,,rondinha,rio grande do sul,brazil,-27.828,-52.91
714,aguas da prata,,aguas da prata,sao paulo,brazil,-21.937,-46.717
715,nova xavantina,,nova xavantina,mato grosso,brazil,-14.673,-52.353
716,terezinha,,terezinha,pernambuco,brazil,-9.056,-36.623
717,taipei,,taipei,taipei,taiwan,25.04776,121.53185
718,cosmopolis,,cosmopolis,sao paulo,brazil,-22.646,-47.196
719,campina das missoes,,campina das missoes,rio grande do sul,brazil,-27.989,-54.839
720,sanok,,sanok,subcarpathian voivodeship,poland,49.55573,22.2056
721,sogamoso,,sogamoso,boyacá,colombia,5.71434,-72.93391
722,mage,,mage,rio de janeiro,brazil,-22.653,-43.041
723,mangaratiba,,mangaratiba,rio de janeiro,brazil,-22.96,-44.041
724,martins,,martins,rio grande do norte,brazil,-6.088,-37.911
725,nova bassano,,nova bassano,rio grande do sul,brazil,-28.724,-51.705
726,cangucu,,cangucu,rio grande do sul,brazil,-31.395,-52.676
727,boa esperanca,,boa esperanca,parana,brazil,-24.242,-52.789
728,monte aprazivel,,monte aprazivel,sao paulo,brazil,-20.773,-49.714
729,tiete,,tiete,sao paulo,brazil,-23.102,-47.715
730,tacaratu,,tacaratu,pernambuco,brazil,-9.106,-38.15
731,isfahan,,isfahan,ostān-e eşfahān,iran,32.65246,51.67462
732,ipora,,ipora,goias,brazil,-16.442,-51.118
733,monte azul,,monte azul,minas gerais,brazil,-15.155,-42.875
734,guararapes,,guararapes,sao paulo,brazil,-21.261,-50.643
735,ipameri,,ipameri,goias,brazil,-17.722,-48.16
736,joao neiva,,joao neiva,espirito santo,brazil,-19.758,-40.386
737,nepomuceno,,nepomuceno,minas gerais,brazil,-21.236,-45.236
738,iquitos,,iquitos,loreto,peru,-3.74912,-73.25383
739,san salvador,,san salvador,san salvador,el salvador,13.68935,-89.18718
740,thiruvananthapuram,,thiruvananthapuram,kerala,india,8.4855,76.94924
741,cardiff,,cardiff,wales,united kingdom,51.48,-3.18
742,sao vicente,,sao vicente,sao paulo,brazil,-23.963,-46.392
743,gualeguay,,gualeguay,entre ríos,argentina,-33.14156,-59.30966
744,nova palma,,nova palma,rio grande do sul,brazil,-29.472,-53.469
745,floriano,,floriano,piaui,brazil,-6.767,-43.023
746,santana do livramento,,santana do livramento,rio grande do sul,brazil,-30.891,-55.533
747,birigui,,birigui,sao paulo,brazil,-21.289,-50.34
748,porteirinha,,porteirinha,minas gerais,brazil,-15.743,-43.028
749,marlieria,,marlieria,minas gerais,brazil,-19.712,-42.732
750,palmira,,palmira,valle del cauca,colombia,3.53944,-76.30361
751,santa cruz de la sierra,,santa cruz de la sierra,santa cruz,bolivia,-17.78629,-63.18117
752,aperibe,,aperibe,rio de janeiro,brazil,-21.621,-42.103
753,venancio aires,,venancio aires,rio grande do sul,brazil,-29.606,-52.192
754,delhi,,delhi,nct,india,28.65381,77.22897
755,ipiales,,ipiales,nariño,colombia,0.83018,-77.64959
756,swabi,,swabi,north-west frontier province,pakistan,34.11988,72.46987
757,bela vista,,bela vista,mato grosso do sul,brazil,-22.109,-56.521
758,angelica,,angelica,mato grosso do sul,brazil,-22.153,-53.771
759,barbosa ferraz,,barbosa ferraz,parana,brazil,-24.03,-52.012
760,contagem,,contagem,minas gerais,brazil,-19.932,-44.054
761,ipatinga,,ipatinga,minas gerais,brazil,-19.468,-42.537
762,guaira,,guaira,parana,brazil,-24.08,-54.256
763,mococa,,mococa,sao paulo,brazil,-21.468,-47.005
764,ibitinga,,ibitinga,sao paulo,brazil,-21.758,-48.829
765,budapest,,budapest,budapest,hungary,47.49801,19.03991
766,matanzas,,matanzas,matanzas,cuba,23.04111,-81.5775
767,san salvador de jujuy,,san salvador de jujuy,jujuy,argentina,-24.19457,-65.29712
768,luanda,,luanda,luanda,angola,-8.83682,13.23432
769,karlstadt,,karlstadt,bavaria,germany,49.96034,9.77239
770,christchurch,,christchurch,canterbury,new zealand,-43.53333,172.63333
771,riga,,riga,rīga,latvia,56.946,24.10589
772,tres passos,,tres passos,rio grande do sul,brazil,-27.456,-53.932
773,quixada,,quixada,ceara,brazil,-4.971,-39.015
774,huancavelica,,huancavelica,huancavelica,peru,-12.78261,-74.97266
775,taiobeiras,,taiobeiras,minas gerais,brazil,-15.808,-42.233
776,sherbrooke,,sherbrooke,quebec,canada,45.40008,-71.89908
777,dubna,,dubna,moskovskaya,russia,56.73333,37.16667
778,palencia,,palencia,castille and león,spain,42.00955,-4.52406
779,colina,,colina,sao paulo,brazil,-20.713,-48.541
780,quixeramobim,,quixeramobim,ceara,brazil,-5.199,-39.293
781,tres lagoas,,tres lagoas,mato grosso do sul,brazil,-20.751,-51.678
782,cajazeiras,,cajazeiras,paraiba,brazil,-6.89,-38.562
783,hardenberg,,hardenberg,overijssel,netherlands,52.57583,6.61944
784,guarabira,,guarabira,paraiba,brazil,-6.855,-35.49
785,geneve,,geneve,geneva,switzerland,46.20222,6.14569
786,san cristobal,,san cristobal,estado táchira,venezuela,7.76694,-72.225
787,tandil,,tandil,buenos aires,argentina,-37.32167,-59.13316
788,arequipa,,arequipa,arequipa,peru,-16.39889,-71.535
789,leiria,,leiria,leiria,portugal,39.74362,-8.80705
790,cranbrook,,cranbrook,british columbia,canada,49.49991,-115.76879
791,artigas,,artigas,artigas,uruguay,-30.4,-56.46667
792,nijmegen,,nijmegen,gelderland,netherlands,51.8425,5.85278
793,campo formoso,,campo formoso,bahia,brazil,-10.509,-40.321
794,carangola,,carangola,minas gerais,brazil,-20.733,-42.029
795,modena,,modena,emilia-romagna,italy,44.64783,10.92539
796,goiatuba,,goiatuba,goias,brazil,-18.013,-49.357
797,sao simao,,sao simao,sao paulo,brazil,-21.479,-47.551
798,santa tereza,,santa tereza,rio grande do sul,brazil,-29.169,-51.735
799,merida,,merida,estado mérida,venezuela,8.59524,-71.1434
800,botumirim,,botumirim,minas gerais,brazil,-16.872,-43.011
801,itapui,,itapui,sao paulo,brazil,-22.233,-48.719
802,itanhomi,,itanhomi,minas gerais,brazil,-19.172,-41.865
803,porto franco,,porto franco,maranhao,brazil,-6.338,-47.399
804,ribeirao vermelho,,ribeirao vermelho,minas gerais,brazil,-21.191,-45.062
805,cochabamba,,cochabamba,cochabamba,bolivia,-17.3895,-66.1568
806,ibague,,ibague,tolima,colombia,4.43889,-75.23222
807,jacarei,,jacarei,sao paulo,brazil,-23.305,-45.966
808,sao sebastiao do paraiso,,sao sebastiao do paraiso,minas gerais,brazil,-20.917,-46.991
809,antony,,antony,île-de-france,france,48.75,2.3
810,tottori,,tottori,tottori,japan,35.5,134.23333
811,pasto,,pasto,nariño,colombia,1.21361,-77.28111
812,sancti spiritus,,sancti spiritus,sancti spíritus,cuba,21.92972,-79.4425
813,araguacema,,araguacema,tocantins,brazil,-8.804,-49.556
814,ipiau,,ipiau,bahia,brazil,-14.137,-39.734
815,mantena,,mantena,minas gerais,brazil,-18.782,-40.98
816,la paz,,la paz,la paz,bolivia,-16.5,-68.15
817,colonia,,colonia,new jersey,united states,40.57455,-74.30209
818,nuevitas,,nuevitas,camagüey,cuba,21.54528,-77.26444
819,chimbote,,chimbote,ancash,peru,-9.08528,-78.57833
820,graneros,,graneros,o'higgins,chile,-34.06863,-70.72747
821,capinzal,,capinzal,santa catarina,brazil,-27.344,-51.612
822,tomsk,,tomsk,tomsk,russia,56.49771,84.97437
823,tocantins,,tocantins,minas gerais,brazil,-21.175,-43.018
824,santarem,,santarem,santarém,portugal,39.23333,-8.68333
825,cajamarca,,cajamarca,cajamarca,peru,-7.16378,-78.50027
826,concordia,,concordia,santa catarina,brazil,-27.234,-52.028
827,taua,,taua,ceara,brazil,-6.003,-40.293
828,santo augusto,,santo augusto,rio grande do sul,brazil,-27.851,-53.777
829,itabuna,,itabuna,bahia,brazil,-14.786,-39.28
830,pune,,pune,mahārāshtra,india,18.51957,73.85535
831,antonina,,antonina,parana,brazil,-25.429,-48.712
832,santos dumont,,santos dumont,minas gerais,brazil,-21.457,-43.553
833,guaiba,,guaiba,rio grande do sul,brazil,-30.114,-51.325
834,cachoeira de minas,,cachoeira de minas,minas gerais,brazil,-22.355,-45.779
835,dolcinopolis,,dolcinopolis,sao paulo,brazil,-20.123,-50.513
836,ipora,,ipora,parana,brazil,-24.003,-53.704
837,croata,,croata,ceara,brazil,-4.4,-40.911
838,cipolletti,,cipolletti,río negro,argentina,-38.93392,-67.99032
839,manhumirim,,manhumirim,minas gerais,brazil,-20.358,-41.958
840,bielefeld,,bielefeld,north rhine-westphalia,germany,52.03333,8.53333
841,pereira,,pereira,risaralda,colombia,4.81333,-75.69611
842,santa quiteria,,santa quiteria,ceara,brazil,-4.332,-40.157
843,jerez de la frontera,,jerez de la frontera,andalusia,spain,36.68645,-6.13606
844,timoteo,,timoteo,minas gerais,brazil,-19.583,-42.644
845,londerzeel,,londerzeel,flanders,belgium,51.00468,4.30304
846,pires do rio,,pires do rio,goias,brazil,-17.301,-48.28
847,chennai,,chennai,tamil nādu,india,13.08784,80.27847
848,ivora,,ivora,rio grande do sul,brazil,-29.52,-53.581
849,mariana,,mariana,minas gerais,brazil,-20.378,-43.416
850,sao francisco de assis,,sao francisco de assis,rio grande do sul,brazil,-29.55,-55.131
851,coronel vivida,,coronel vivida,parana,brazil,-25.98,-52.568
852,nampula,,nampula,nampula,mozambique,-15.11646,39.2666
853,guiyang,,guiyang,guizhou sheng,china,26.58333,106.71667
854,hubli,,hubli,karnātaka,india,15.34776,75.13378
855,igarapava,,igarapava,sao paulo,brazil,-20.038,-47.747
856,nasirabad,,nasirabad,rajasthan,india,26.30473,74.73364
857,melo,,melo,cerro largo,uruguay,-32.36667,-54.18333
858,itapolis,,itapolis,sao paulo,brazil,-21.596,-48.813
859,bilac,,bilac,sao paulo,brazil,-21.403,-50.471
860,juanjui,,juanjui,san martín,peru,-7.17697,-76.72774
861,sertaozinho,,sertaozinho,sao paulo,brazil,-21.138,-47.99
862,jaguarao,,jaguarao,rio grande do sul,brazil,-32.566,-53.376
863,vinhedo,,vinhedo,sao paulo,brazil,-23.03,-46.975
864,herford,,herford,north rhine-westphalia,germany,52.11457,8.67343
865,boa ventura,,boa ventura,paraiba,brazil,-7.414,-38.216
866,bassano del grappa,,bassano del grappa,veneto,italy,45.76231,11.73112
867,pinhal,,pinhal,rio grande do sul,brazil,-27.511,-53.215
868,sioux city,,sioux city,iowa,united states,42.49999,-96.40031
869,brasopolis,,brasopolis,minas gerais,brazil,-22.474,-45.608
870,nuoro,,nuoro,sardinia,italy,40.31949,9.31394
871,fatima do sul,,fatima do sul,mato grosso do sul,brazil,-22.374,-54.514
872,patrocinio,,patrocinio,minas gerais,brazil,-18.944,-46.993
873,huambo,,huambo,huambo,angola,-12.77611,15.73917
874,senador firmino,,senador firmino,minas gerais,brazil,-20.912,-43.097
875,santa rita d oeste,,santa rita d oeste,sao paulo,brazil,-20.143,-50.833
876,itapetinga,,itapetinga,bahia,brazil,-15.249,-40.248
877,valencia,,valencia,estado carabobo,venezuela,10.16202,-68.00765
878,alem paraiba,,alem paraiba,minas gerais,brazil,-21.888,-42.704
879,lucknow,,lucknow,uttar pradesh,india,26.83928,80.92313
880,chillan,,chillan,biobío,chile,-36.60664,-72.10344
881,cunha pora,,cunha pora,santa catarina,brazil,-26.894,-53.168
882,campo do brito,,campo do brito,sergipe,brazil,-10.733,-37.493
883,itabira,,itabira,minas gerais,brazil,-19.619,-43.227
884,sao geraldo,,sao geraldo,minas gerais,brazil,-20.923,-42.834
885,picui,,picui,paraiba,brazil,-6.555,-36.349
886,serra branca,,serra branca,paraiba,brazil,-7.483,-36.665
887,ferrol,,ferrol,galicia,spain,43.48321,-8.23689
888,aimores,,aimores,minas gerais,brazil,-19.496,-41.064
889,orleans,,orleans,centre,france,47.90289,1.90389
890,cajuri,,cajuri,minas gerais,brazil,-20.791,-42.797
891,tacna,,tacna,tacna,peru,-18.01465,-70.25362
892,simao dias,,simao dias,sergipe,brazil,-10.738,-37.811
893,colatina,,colatina,espirito santo,brazil,-19.539,-40.631
894,araguari,,araguari,minas gerais,brazil,-18.649,-48.187
895,lauro muller,,lauro muller,santa catarina,brazil,-28.393,-49.397
896,tegucigalpa,,tegucigalpa,francisco morazán,honduras,14.0818,-87.20681
897,alto rio doce,,alto rio doce,minas gerais,brazil,-21.026,-43.411
898,neuquen,,neuquen,neuquén,argentina,-38.95161,-68.0591
899,sevres,,sevres,île-de-france,france,48.82292,2.21757
900,logrono,,logrono,la rioja,spain,42.46667,-2.45
901,san juan,,san juan,san juan,puerto rico,18.46633,-66.10572
902,ponte de lima,,ponte de lima,viana do castelo,portugal,41.76719,-8.58393
903,concepcion,,concepcion,concepción,paraguay,-23.39985,-57.43236
904,huanuco,,huanuco,huanuco,peru,-9.93062,-76.24223
905,melun,,melun,île-de-france,france,48.53333,2.66667
906,pavlodar,,pavlodar,pavlodar,kazakhstan,52.27401,77.00438
907,tehran,,tehran,tehrān,iran,35.69439,51.42151
908,wuerzburg,,wuerzburg,bavaria,germany,49.79391,9.95121
909,soledade,,soledade,rio grande do sul,brazil,-28.818,-52.51
910,piedade,,piedade,sao paulo,brazil,-23.712,-47.428
911,sivakasi,,sivakasi,tamil nādu,india,9.44999,77.79797
912,riobamba,,riobamba,chimborazo,ecuador,-1.67098,-78.64712
913,zipaquira,,zipaquira,cundinamarca,colombia,5.02208,-74.00481
914,porecatu,,porecatu,parana,brazil,-22.756,-51.379
915,canete,,canete,biobío,chile,-37.80128,-73.39616
916,winterthur,,winterthur,zurich,switzerland,47.50003,8.7251
917,banabuiu,,banabuiu,ceara,brazil,-5.31,-38.921
918,schwerte,,schwerte,north rhine-westphalia,germany,51.44387,7.5675
919,san juan,,san juan,san juan,argentina,-31.5375,-68.53639
920,valdivia,,valdivia,los ríos,chile,-39.81422,-73.24589
921,eloi mendes,,eloi mendes,minas gerais,brazil,-21.61,-45.565
922,obidos,,obidos,para,brazil,-1.918,-55.518
923,tanabi,,tanabi,sao paulo,brazil,-20.626,-49.649
924,montenegro,,montenegro,rio grande do sul,brazil,-29.689,-51.461
925,nova serrana,,nova serrana,minas gerais,brazil,-19.876,-44.984
926,alghero,,alghero,sardinia,italy,40.56541,8.32092
927,ondo,,ondo,ondo,nigeria,7.1,4.83333
928,hitchin,,hitchin,england,united kingdom,51.94924,-0.28496
929,ferrara,,ferrara,emilia-romagna,italy,44.84346,11.60868
930,vina del mar,,vina del mar,valparaíso,chile,-33.02457,-71.55183
931,colombes,,colombes,île-de-france,france,48.91882,2.25404
932,temuco,,temuco,araucanía,chile,-38.73965,-72.59842
933,tenente portela,,tenente portela,rio grande do sul,brazil,-27.371,-53.758
934,ilo,,ilo,moquegua,peru,-17.63944,-71.3375
935,salto,,salto,salto,uruguay,-31.38333,-57.96667
936,punta arenas,,punta arenas,magallanes,chile,-53.15483,-70.91129
937,sao goncalo dos campos,,sao goncalo dos campos,bahia,brazil,-12.433,-38.967
938,santa helena,,santa helena,parana,brazil,-24.86,-54.333
939,arroio do meio,,arroio do meio,rio grande do sul,brazil,-29.401,-51.945
940,ceres,,ceres,goias,brazil,-15.308,-49.598
941,resende costa,,resende costa,minas gerais,brazil,-20.922,-44.238
942,cerro largo,,cerro largo,rio grande do sul,brazil,-28.149,-54.738
943,guayaquil,,guayaquil,guayas,ecuador,-2.20584,-79.90795
944,besancon,,besancon,franche-comté,france,47.24878,6.01815
945,schwerin,,schwerin,mecklenburg-vorpommern,germany,53.62937,11.41316
946,pirai do sul,,pirai do sul,parana,brazil,-24.526,-49.949
947,sofia,,sofia,sofia-capital,bulgaria,42.69751,23.32415
948,jaguari,,jaguari,rio grande do sul,brazil,-29.497,-54.69
949,caconde,,caconde,sao paulo,brazil,-21.529,-46.644
950,neuchatel,,neuchatel,neuchâtel,switzerland,46.99179,6.931
951,elmshorn,,elmshorn,schleswig-holstein,germany,53.75396,9.65339
952,jacutinga,,jacutinga,rio grande do sul,brazil,-27.729,-52.535
953,leopoldina,,leopoldina,minas gerais,brazil,-21.532,-42.643
954,albi,,albi,midi-pyrénées,france,43.9298,2.148
955,itaicaba,,itaicaba,ceara,brazil,-4.674,-37.822
956,rivas,,rivas,rivas,nicaragua,11.43716,-85.82632
957,leme,,leme,sao paulo,brazil,-22.186,-47.39
958,pedra,,pedra,pernambuco,brazil,-8.497,-36.941
959,alagoa grande,,alagoa grande,paraiba,brazil,-7.089,-35.635
960,maldonado,,maldonado,maldonado,uruguay,-34.9,-54.95
961,mafra,,mafra,santa catarina,brazil,-26.111,-49.805
962,varzea,,varzea,paraiba,brazil,-6.772,-36.992
963,puerto montt,,puerto montt,los lagos,chile,-41.46574,-72.94289
964,barra do corda,,barra do corda,maranhao,brazil,-5.506,-45.243
965,foggia,,foggia,apulia,italy,41.45845,15.55188
966,sacramento,,sacramento,minas gerais,brazil,-19.865,-47.44
967,aigio,,aigio,west greece,greece,38.24861,22.08194
968,rahden,,rahden,north rhine-westphalia,germany,52.43367,8.61263
969,mansoura,,mansoura,tlemcen,algeria,34.86158,-1.33935
970,eldorado,,eldorado,mato grosso do sul,brazil,-23.787,-54.284
971,morteros,,morteros,córdoba,argentina,-30.71164,-61.99862
972,januaria,,januaria,minas gerais,brazil,-15.488,-44.362
973,sao lourenco,,sao lourenco,minas gerais,brazil,-22.116,-45.054
974,bayamo,,bayamo,granma,cuba,20.37917,-76.64333
975,sao felix do xingu,,sao felix do xingu,para,brazil,-6.645,-51.995
976,gloria de dourados,,gloria de dourados,mato grosso do sul,brazil,-22.418,-54.233
977,amargosa,,amargosa,bahia,brazil,-13.03,-39.605
978,nikopol,,nikopol,dnipropetrovs'ka oblast',ukraine,47.57119,34.39637
979,uniao da vitoria,,uniao da vitoria,parana,brazil,-26.23,-51.086
980,xanxere,,xanxere,santa catarina,brazil,-26.877,-52.404
981,itarare,,itarare,sao paulo,brazil,-24.115,-49.341
982,sfax,,sfax,şafāqis,tunisia,34.74056,10.76028
983,alegre,,alegre,espirito santo,brazil,-20.764,-41.533
984,monte alto,,monte alto,sao paulo,brazil,-21.261,-48.496
985,princesa isabel,,princesa isabel,paraiba,brazil,-7.737,-37.993
986,reus,,reus,catalonia,spain,41.15612,1.10687
987,barquisimeto,,barquisimeto,estado lara,venezuela,10.07389,-69.32278
988,san luis,,san luis,san luis,argentina,-33.29501,-66.33563
989,dois corregos,,dois corregos,sao paulo,brazil,-22.366,-48.38
990,cameta,,cameta,para,brazil,-2.244,-49.496
991,parnamirim,,parnamirim,rio grande do norte,brazil,-5.916,-35.263
992,kortrijk,,kortrijk,flanders,belgium,50.82803,3.26487
993,metz,,metz,lorraine,france,49.11911,6.17269
994,general camara,,general camara,rio grande do sul,brazil,-29.905,-51.76
995,santa rita do passa quatro,,santa rita do passa quatro,sao paulo,brazil,-21.71,-47.478
996,xambre,,xambre,parana,brazil,-23.736,-53.49
997,darmstadt,,darmstadt,hesse,germany,49.87167,8.65027
998,santa rita de caldas,,santa rita de caldas,minas gerais,brazil,-22.029,-46.337
999,paracatu,,paracatu,minas gerais,brazil,-17.222,-46.875
1000,vargem grande do sul,,vargem grande do sul,sao paulo,brazil,-21.832,-46.894
1001,areia,,areia,paraiba,brazil,-6.963,-35.692
1002,barra do pirai,,barra do pirai,rio de janeiro,brazil,-22.47,-43.826
1003,urucui,,urucui,piaui,brazil,-7.229,-44.556
1004,gwalior,,gwalior,madhya pradesh,india,26.22983,78.17337
1005,santo anastacio,,santo anastacio,sao paulo,brazil,-21.977,-51.652
1006,sao vicente ferrer,,sao vicente ferrer,pernambuco,brazil,-7.591,-35.491
1007,terra rica,,terra rica,parana,brazil,-22.709,-52.617
1008,sao luiz gonzaga,,sao luiz gonzaga,rio grande do sul,brazil,-28.408,-54.961
1009,descalvado,,descalvado,sao paulo,brazil,-21.904,-47.619
1010,colorado,,colorado,parana,brazil,-22.838,-51.973
1011,sao miguel dos campos,,sao miguel dos campos,alagoas,brazil,-9.781,-36.094
1012,antonio prado,,antonio prado,rio grande do sul,brazil,-28.858,-51.283
1013,uba,,uba,minas gerais,brazil,-21.12,-42.943
1014,itapitanga,,itapitanga,bahia,brazil,-14.423,-39.565
1015,tres coroas,,tres coroas,rio grande do sul,brazil,-29.517,-50.778
1016,sao carlos,,sao carlos,santa catarina,brazil,-27.078,-53.004
1017,manaira,,manaira,paraiba,brazil,-7.706,-38.154
1018,dom inocencio,,dom inocencio,piaui,brazil,-9.002,-41.974
1019,cianorte,,cianorte,parana,brazil,-23.663,-52.605
1020,alegrete,,alegrete,rio grande do sul,brazil,-29.783,-55.792
1021,novo horizonte,,novo horizonte,sao paulo,brazil,-21.468,-49.221
1022,vicenza,,vicenza,veneto,italy,45.54672,11.5475
1023,ponte serrada,,ponte serrada,santa catarina,brazil,-26.872,-52.016
1024,paysandu,,paysandu,paysandú,uruguay,-32.32139,-58.07556
1025,caxias,,caxias,maranhao,brazil,-4.859,-43.356
1026,passos,,passos,minas gerais,brazil,-20.719,-46.61
1027,rancho alegre,,rancho alegre,parana,brazil,-23.07,-50.913
1028,tatui,,tatui,sao paulo,brazil,-23.356,-47.857
1029,farroupilha,,farroupilha,rio grande do sul,brazil,-29.225,-51.348
1030,resistencia,,resistencia,chaco,argentina,-27.46056,-58.98389
1031,guadalajara,,guadalajara,jalisco,mexico,20.66682,-103.39182
1032,le plessis trevise,,le plessis trevise,île-de-france,france,48.81074,2.57363
1033,granada,,granada,granada,nicaragua,11.92988,-85.95602
1034,itapira,,itapira,sao paulo,brazil,-22.436,-46.822
1035,antonio carlos,,antonio carlos,santa catarina,brazil,-27.517,-48.768
1036,piura,,piura,piura,peru,-5.19449,-80.63282
1037,dom pedrito,,dom pedrito,rio grande do sul,brazil,-30.983,-54.673
1038,turiacu,,turiacu,maranhao,brazil,-1.663,-45.372
1039,horizontina,,horizontina,rio grande do sul,brazil,-27.626,-54.308
1040,teofilo otoni,,teofilo otoni,minas gerais,brazil,-17.858,-41.505
1041,ajuricaba,,ajuricaba,rio grande do sul,brazil,-28.239,-53.771
1042,macae,,macae,rio de janeiro,brazil,-22.371,-41.787
1043,taiacu,,taiacu,sao paulo,brazil,-21.144,-48.513
1044,sargodha,,sargodha,punjab,pakistan,32.08361,72.67111
1045,rieti,,rieti,latium,italy,42.42277,12.91436
1046,thessaloniki,,thessaloniki,central macedonia,greece,40.64361,22.93086
1047,linhares,,linhares,espirito santo,brazil,-19.391,-40.072
1048,alajuela,,alajuela,alajuela,costa rica,10.01625,-84.21163
1049,busto arsizio,,busto arsizio,lombardy,italy,45.61128,8.84914
1050,marilandia do sul,,marilandia do sul,parana,brazil,-23.745,-51.308
1051,tabapua,,tabapua,sao paulo,brazil,-20.964,-49.032
1052,carmelo,,carmelo,colonia,uruguay,-34.00023,-58.28402
1053,setubal,,setubal,setúbal,portugal,38.5244,-8.8882
1054,barra bonita,,barra bonita,sao paulo,brazil,-22.495,-48.558
1055,maracaibo,,maracaibo,estado zulia,venezuela,10.63167,-71.64056
1056,palmeira das missoes,,palmeira das missoes,rio grande do sul,brazil,-27.899,-53.314
1057,serrinha,,serrinha,bahia,brazil,-11.664,-39.008
1058,indiapora,,indiapora,sao paulo,brazil,-19.98,-50.29
1059,pitangueiras,,pitangueiras,sao paulo,brazil,-21.009,-48.222
1060,imperatriz,,imperatriz,maranhao,brazil,-5.526,-47.476
1061,bom sucesso,,bom sucesso,minas gerais,brazil,-21.033,-44.758
1062,urandi,,urandi,bahia,brazil,-14.771,-42.655
1063,altonia,,altonia,parana,brazil,-23.874,-53.902
1064,irece,,irece,bahia,brazil,-11.304,-41.856
1065,caxambu,,caxambu,minas gerais,brazil,-21.977,-44.933
1066,conselheiro pena,,conselheiro pena,minas gerais,brazil,-19.172,-41.472
1067,sao fidelis,,sao fidelis,rio de janeiro,brazil,-21.646,-41.747
1068,catole do rocha,,catole do rocha,paraiba,brazil,-6.344,-37.747
1069,regente feijo,,regente feijo,sao paulo,brazil,-22.221,-51.303
1070,penedo,,penedo,alagoas,brazil,-10.29,-36.586
1071,catanduvas,,catanduvas,santa catarina,brazil,-27.071,-51.662
1072,valenca do piaui,,valenca do piaui,piaui,brazil,-6.408,-41.746
1073,agua branca,,agua branca,alagoas,brazil,-9.262,-37.938
1074,riachao do dantas,,riachao do dantas,sergipe,brazil,-11.069,-37.725
1075,sao luis do curu,,sao luis do curu,ceara,brazil,-3.67,-39.243
1076,marilandia,,marilandia,espirito santo,brazil,-19.413,-40.542
1077,julio mesquita,,julio mesquita,sao paulo,brazil,-22.009,-49.787
1078,quatis,,quatis,rio de janeiro,brazil,-22.407,-44.258
1079,sao joao batista do gloria,,sao joao batista do gloria,minas gerais,brazil,-20.641,-46.506
1080,para de minas,,para de minas,minas gerais,brazil,-19.86,-44.608
1081,guajara mirim,,guajara mirim,rondonia,brazil,-10.783,-65.339
1082,itaju,,itaju,sao paulo,brazil,-21.981,-48.805
1083,parai,,parai,rio grande do sul,brazil,-28.594,-51.786
1084,manhuacu,,manhuacu,minas gerais,brazil,-20.258,-42.034
1085,arari,,arari,maranhao,brazil,-3.454,-44.78
1086,rio bonito,,rio bonito,rio de janeiro,brazil,-22.708,-42.626
1087,mondai,,mondai,santa catarina,brazil,-27.103,-53.402
1088,candido mota,,candido mota,sao paulo,brazil,-22.746,-50.387
1089,ararangua,,ararangua,santa catarina,brazil,-28.935,-49.486
1090,itacoatiara,,itacoatiara,amazonas,brazil,-3.143,-58.444
1091,sao jeronimo,,sao jeronimo,rio grande do sul,brazil,-29.959,-51.722
1092,matelandia,,matelandia,parana,brazil,-25.241,-53.996
1093,curvelo,,curvelo,minas gerais,brazil,-18.756,-44.431
1094,canaa,,canaa,minas gerais,brazil,-20.686,-42.62
1095,pedreiras,,pedreiras,maranhao,brazil,-4.574,-44.597
1096,santa adelia,,santa adelia,sao paulo,brazil,-21.243,-48.804
1097,sobradinho,,sobradinho,rio grande do sul,brazil,-29.421,-53.029
1098,guarani das missoes,,guarani das missoes,rio grande do sul,brazil,-28.141,-54.558
1099,alagoinhas,,alagoinhas,bahia,brazil,-12.136,-38.419
1100,volta grande,,volta grande,minas gerais,brazil,-21.771,-42.539
1101,abaetetuba,,abaetetuba,para,brazil,-1.718,-48.883
1102,arandu,,arandu,sao paulo,brazil,-23.134,-49.054
1103,caiaponia,,caiaponia,goias,brazil,-16.957,-51.81
1104,boa vista do burica,,boa vista do burica,rio grande do sul,brazil,-27.669,-54.11
1105,divinopolis,,divinopolis,minas gerais,brazil,-20.139,-44.884
1106,nova araca,,nova araca,rio grande do sul,brazil,-28.659,-51.745
1107,caxambu do sul,,caxambu do sul,santa catarina,brazil,-27.161,-52.879
1108,sao francisco,,sao francisco,minas gerais,brazil,-15.949,-44.864
1109,sao jose dos pinhais,,sao jose dos pinhais,parana,brazil,-25.535,-49.206
1110,macaparana,,macaparana,pernambuco,brazil,-7.555,-35.453
1111,agudos,,agudos,sao paulo,brazil,-22.469,-48.988
1112,aratiba,,aratiba,rio grande do sul,brazil,-27.394,-52.3
1113,cacapava,,cacapava,sao paulo,brazil,-23.101,-45.707
1114,sao joao da barra,,sao joao da barra,rio de janeiro,brazil,-21.64,-41.051
1115,piraju,,piraju,sao paulo,brazil,-23.194,-49.384
1116,conceicao da barra,,conceicao da barra,espirito santo,brazil,-18.593,-39.732
1117,alvarenga,,alvarenga,minas gerais,brazil,-19.417,-41.729
1118,nova prata,,nova prata,rio grande do sul,brazil,-28.784,-51.61
1119,triunfo,,triunfo,rio grande do sul,brazil,-29.943,-51.718
1120,campos novos,,campos novos,santa catarina,brazil,-27.402,-51.225
1121,limoeiro do norte,,limoeiro do norte,ceara,brazil,-5.146,-38.098
1122,ronda alta,,ronda alta,rio grande do sul,brazil,-27.767,-52.802
1123,tesouro,,tesouro,mato grosso,brazil,-16.079,-53.553
1124,ijaci,,ijaci,minas gerais,brazil,-21.17,-44.925
1125,jatai,,jatai,goias,brazil,-17.881,-51.714
1126,malhador,,malhador,sergipe,brazil,-10.658,-37.305
1127,guape,,guape,minas gerais,brazil,-20.762,-45.918
1128,sapiranga,,sapiranga,rio grande do sul,brazil,-29.638,-51.007
1129,itabirito,,itabirito,minas gerais,brazil,-20.253,-43.801
1130,tres de maio,,tres de maio,rio grande do sul,brazil,-27.773,-54.24
1131,sousa,,sousa,paraiba,brazil,-6.761,-38.231
1132,teixeiras,,teixeiras,minas gerais,brazil,-20.651,-42.857
1133,ponte alta,,ponte alta,santa catarina,brazil,-27.484,-50.38
1134,condor,,condor,rio grande do sul,brazil,-28.208,-53.487
1135,tupancireta,,tupancireta,rio grande do sul,brazil,-29.081,-53.836
1136,joaquim tavora,,joaquim tavora,parana,brazil,-23.499,-49.905
1137,barro alto,,barro alto,goias,brazil,-14.971,-48.916
1138,iretama,,iretama,parana,brazil,-24.424,-52.106
1139,itapiranga,,itapiranga,santa catarina,brazil,-27.169,-53.712
1140,santa luz,,santa luz,piaui,brazil,-8.954,-44.129
1141,corbelia,,corbelia,parana,brazil,-24.799,-53.307
1142,ponta pora,,ponta pora,mato grosso do sul,brazil,-22.536,-55.726
1143,presidente venceslau,,presidente venceslau,sao paulo,brazil,-21.876,-51.844
1144,capim branco,,capim branco,minas gerais,brazil,-19.549,-44.117
1145,espirito santo do dourado,,espirito santo do dourado,minas gerais,brazil,-22.046,-45.951
1146,potirendaba,,potirendaba,sao paulo,brazil,-21.043,-49.377
1147,amarante,,amarante,piaui,brazil,-6.241,-42.855
1148,sao roque,,sao roque,sao paulo,brazil,-23.529,-47.135
1149,paraguacu paulista,,paraguacu paulista,sao paulo,brazil,-22.413,-50.576
1150,goiatins,,goiatins,tocantins,brazil,-7.71,-47.314
1151,lagoa do ouro,,lagoa do ouro,pernambuco,brazil,-9.127,-36.459
1152,dois irmaos,,dois irmaos,rio grande do sul,brazil,-29.58,-51.085
1153,urussanga,,urussanga,santa catarina,brazil,-28.518,-49.321
1154,sao tomas de aquino,,sao tomas de aquino,minas gerais,brazil,-20.784,-47.098
1155,guarani,,guarani,minas gerais,brazil,-21.352,-43.047
1156,ibiraci,,ibiraci,minas gerais,brazil,-20.462,-47.122
1157,campestre,,campestre,minas gerais,brazil,-21.711,-46.246
1158,sao sebastiao da grama,,sao sebastiao da grama,sao paulo,brazil,-21.711,-46.821
1159,cantanhede,,cantanhede,maranhao,brazil,-3.633,-44.377
1160,juquia,,juquia,sao paulo,brazil,-24.321,-47.635
1161,icapui,,icapui,ceara,brazil,-4.713,-37.355
1162,aracati,,aracati,ceara,brazil,-4.562,-37.77
1163,floreal,,floreal,sao paulo,brazil,-20.677,-50.145
1164,terra roxa,,terra roxa,parana,brazil,-24.157,-54.097
1165,cassia,,cassia,minas gerais,brazil,-20.583,-46.922
1166,itarantim,,itarantim,bahia,brazil,-15.66,-40.066
1167,jardim do serido,,jardim do serido,rio grande do norte,brazil,-6.584,-36.774
1168,manicore,,manicore,amazonas,brazil,-5.809,-61.3
1169,rio largo,,rio largo,alagoas,brazil,-9.478,-35.853
1170,santo antonio do sudoeste,,santo antonio do sudoeste,parana,brazil,-26.07,-53.723
1171,encruzilhada,,encruzilhada,bahia,brazil,-15.531,-40.909
1172,estancia velha,,estancia velha,rio grande do sul,brazil,-29.648,-51.174
1173,santa vitoria do palmar,,santa vitoria do palmar,rio grande do sul,brazil,-33.519,-53.368
1174,boqueirao,,boqueirao,paraiba,brazil,-7.482,-36.135
1175,tupaciguara,,tupaciguara,minas gerais,brazil,-18.593,-48.705
1176,uibai,,uibai,bahia,brazil,-11.337,-42.133
1177,jabora,,jabora,santa catarina,brazil,-27.176,-51.734
1178,esplanada,,esplanada,bahia,brazil,-11.796,-37.945
1179,sabara,,sabara,minas gerais,brazil,-19.886,-43.807
1180,sao goncalo do sapucai,,sao goncalo do sapucai,minas gerais,brazil,-21.892,-45.595
1181,joao camara,,joao camara,rio grande do norte,brazil,-5.538,-35.82
1182,seara,,seara,santa catarina,brazil,-27.149,-52.311
1183,estancia,,estancia,sergipe,brazil,-11.268,-37.438
1184,recreio,,recreio,minas gerais,brazil,-21.525,-42.469
1185,andradas,,andradas,minas gerais,brazil,-22.068,-46.569
1186,joao monlevade,,joao monlevade,minas gerais,brazil,-19.81,-43.174
1187,osvaldo cruz,,osvaldo cruz,sao paulo,brazil,-21.797,-50.89
1188,palmeira d oeste,,palmeira d oeste,sao paulo,brazil,-20.416,-50.762
1189,valente,,valente,bahia,brazil,-11.412,-39.462
1190,mirandopolis,,mirandopolis,sao paulo,brazil,-21.134,-51.102
1191,tel aviv,,tel aviv,tel aviv,israel,32.08088,34.78057
1192,centenario do sul,,centenario do sul,parana,brazil,-22.821,-51.595
1193,propria,,propria,sergipe,brazil,-10.211,-36.84
1194,iraceminha,,iraceminha,santa catarina,brazil,-26.823,-53.274
1195,kobe,,kobe,hyōgo,japan,34.6913,135.183
1196,independencia,,independencia,ceara,brazil,-5.396,-40.309
1197,paula candido,,paula candido,minas gerais,brazil,-20.874,-42.98
1198,mazagao,,mazagao,amapa,brazil,-0.115,-51.289
1199,agua preta,,agua preta,pernambuco,brazil,-8.707,-35.531
1200,orleans,,orleans,santa catarina,brazil,-28.359,-49.291
1201,taio,,taio,santa catarina,brazil,-27.116,-49.998
1202,irai,,irai,rio grande do sul,brazil,-27.194,-53.251
1203,ielmo marinho,,ielmo marinho,rio grande do norte,brazil,-5.824,-35.553
1204,gaurama,,gaurama,rio grande do sul,brazil,-27.584,-52.094
1205,veranopolis,,veranopolis,rio grande do sul,brazil,-28.936,-51.549
1206,campos sales,,campos sales,ceara,brazil,-7.074,-40.376
1207,general carneiro,,general carneiro,mato grosso,brazil,-15.711,-52.755
1208,amambai,,amambai,mato grosso do sul,brazil,-23.104,-55.226
1209,palma,,palma,minas gerais,brazil,-21.375,-42.314
1210,uruburetama,,uruburetama,ceara,brazil,-3.625,-39.508
1211,tabira,,tabira,pernambuco,brazil,-7.591,-37.539
1212,murutinga do sul,,murutinga do sul,sao paulo,brazil,-20.993,-51.278
1213,sume,,sume,paraiba,brazil,-7.672,-36.88
1214,urutai,,urutai,goias,brazil,-17.464,-48.203
1215,paulista,,paulista,paraiba,brazil,-6.594,-37.624
1216,ribeirao das neves,,ribeirao das neves,minas gerais,brazil,-19.767,-44.087
1217,itirapina,,itirapina,sao paulo,brazil,-22.253,-47.823
1218,benedito novo,,benedito novo,santa catarina,brazil,-26.783,-49.364
1219,itabaiana,,itabaiana,paraiba,brazil,-7.329,-35.333
1220,faxinal dos guedes,,faxinal dos guedes,santa catarina,brazil,-26.853,-52.26
1221,constantina,,constantina,rio grande do sul,brazil,-27.735,-52.992
1222,porangaba,,porangaba,sao paulo,brazil,-23.176,-48.125
1223,pariquera acu,,pariquera acu,sao paulo,brazil,-24.715,-47.881
1224,guapore,,guapore,rio grande do sul,brazil,-28.846,-51.89
1225,tuneiras do oeste,,tuneiras do oeste,parana,brazil,-23.871,-52.876
1226,matao,,matao,sao paulo,brazil,-21.603,-48.366
1227,moncao,,moncao,maranhao,brazil,-3.492,-45.251
1228,planalto,,planalto,parana,brazil,-25.716,-53.766
1229,grajau,,grajau,maranhao,brazil,-5.819,-46.139
1230,alta floresta,,alta floresta,mato grosso,brazil,-9.876,-56.086
1231,rio doce,,rio doce,minas gerais,brazil,-20.242,-42.907
1232,barreiros,,barreiros,pernambuco,brazil,-8.818,-35.186
1233,pato branco,,pato branco,parana,brazil,-26.229,-52.671
1234,viamao,,viamao,rio grande do sul,brazil,-30.081,-51.023
1235,duque bacelar,,duque bacelar,maranhao,brazil,-4.156,-42.944
1236,jacui,,jacui,minas gerais,brazil,-21.017,-46.741
1237,candido godoi,,candido godoi,rio grande do sul,brazil,-27.952,-54.752
1238,sertania,,sertania,pernambuco,brazil,-8.074,-37.264
1239,bicas,,bicas,minas gerais,brazil,-21.725,-43.059
1240,castelo,,castelo,espirito santo,brazil,-20.604,-41.185
1241,clementina,,clementina,sao paulo,brazil,-21.56,-50.449
1242,bariri,,bariri,sao paulo,brazil,-22.074,-48.74
1243,esteio,,esteio,rio grande do sul,brazil,-29.861,-51.179
1244,pao de acucar,,pao de acucar,alagoas,brazil,-9.748,-37.437
1245,sape,,sape,paraiba,brazil,-7.095,-35.233
1246,tefe,,tefe,amazonas,brazil,-3.354,-64.711
1247,rondon,,rondon,parana,brazil,-23.411,-52.761
1248,sao vicente do sul,,sao vicente do sul,rio grande do sul,brazil,-29.692,-54.679
1249,nova granada,,nova granada,sao paulo,brazil,-20.534,-49.314
1250,ibipora,,ibipora,parana,brazil,-23.269,-51.048
1251,jaguaribe,,jaguaribe,ceara,brazil,-5.891,-38.622
1252,sao gabriel,,sao gabriel,rio grande do sul,brazil,-30.336,-54.32
1253,itu,,itu,sao paulo,brazil,-23.264,-47.299
1254,gravatai,,gravatai,rio grande do sul,brazil,-29.944,-50.992
1255,casa branca,,casa branca,sao paulo,brazil,-21.774,-47.086
1256,pombal,,pombal,paraiba,brazil,-6.77,-37.802
1257,formoso,,formoso,goias,brazil,-13.654,-48.882
1258,cuite,,cuite,paraiba,brazil,-6.485,-36.157
1259,morada nova,,morada nova,ceara,brazil,-5.107,-38.373
1260,santopolis do aguapei,,santopolis do aguapei,sao paulo,brazil,-21.638,-50.5
1261,piranhas,,piranhas,goias,brazil,-16.427,-51.822
1262,ibirarema,,ibirarema,sao paulo,brazil,-22.818,-50.073
1263,novo oriente do piaui,,novo oriente do piaui,piaui,brazil,-6.449,-41.939
1264,sao felix,,sao felix,bahia,brazil,-12.605,-38.972
1265,oriente,,oriente,sao paulo,brazil,-22.153,-50.091
1266,palmeira,,palmeira,parana,brazil,-25.429,-50.006
1267,sao jose do sabugi,,sao jose do sabugi,paraiba,brazil,-6.776,-36.799
1268,itaporanga,,itaporanga,paraiba,brazil,-7.304,-38.15
1269,itaju do colonia,,itaju do colonia,bahia,brazil,-15.143,-39.724
1270,abatia,,abatia,parana,brazil,-23.304,-50.313
1271,conceicao,,conceicao,paraiba,brazil,-7.562,-38.509
1272,ribeirao bonito,,ribeirao bonito,sao paulo,brazil,-22.067,-48.176
1273,campina verde,,campina verde,minas gerais,brazil,-19.536,-49.486
1274,itaguai,,itaguai,rio de janeiro,brazil,-22.852,-43.775
1275,arvorezinha,,arvorezinha,rio grande do sul,brazil,-28.872,-52.175
1276,urai,,urai,parana,brazil,-23.198,-50.796
1277,marau,,marau,rio grande do sul,brazil,-28.449,-52.2
1278,aquidauana,,aquidauana,mato grosso do sul,brazil,-20.471,-55.787
1279,tiradentes,,tiradentes,minas gerais,brazil,-21.11,-44.178
1280,uruana,,uruana,goias,brazil,-15.498,-49.688
1281,ribeirao do pinhal,,ribeirao do pinhal,parana,brazil,-23.408,-50.357
1282,balsamo,,balsamo,sao paulo,brazil,-20.735,-49.584
1283,poco fundo,,poco fundo,minas gerais,brazil,-21.781,-45.965
1284,itaporanga d ajuda,,itaporanga d ajuda,sergipe,brazil,-10.998,-37.311
1285,ampere,,ampere,parana,brazil,-25.915,-53.473
1286,cabo frio,,cabo frio,rio de janeiro,brazil,-22.879,-42.019
1287,marumbi,,marumbi,parana,brazil,-23.706,-51.639
1288,surubim,,surubim,pernambuco,brazil,-7.832,-35.756
1289,matinha,,matinha,maranhao,brazil,-3.101,-45.034
1290,corumba,,corumba,mato grosso do sul,brazil,-18.507,-54.76
1291,sao tome,,sao tome,parana,brazil,-23.538,-52.591
1292,carpina,,carpina,pernambuco,brazil,-7.851,-35.255
1293,rio tinto,,rio tinto,paraiba,brazil,-6.803,-35.081
1294,boa esperanca,,boa esperanca,minas gerais,brazil,-21.09,-45.566
1295,tomazina,,tomazina,parana,brazil,-23.778,-49.95
1296,araruama,,araruama,rio de janeiro,brazil,-22.873,-42.343
1297,dois lajeados,,dois lajeados,rio grande do sul,brazil,-28.984,-51.836
1298,asuncion,,asuncion,asunción,paraguay,-25.30066,-57.63591
1299,nossa senhora das dores,,nossa senhora das dores,sergipe,brazil,-10.492,-37.193
1300,acarau,,acarau,ceara,brazil,-2.886,-40.12
1301,rancharia,,rancharia,sao paulo,brazil,-22.229,-50.893
1302,campo maior,,campo maior,piaui,brazil,-4.828,-42.169
1303,bocaiuva,,bocaiuva,minas gerais,brazil,-17.108,-43.815
1304,martinopolis,,martinopolis,sao paulo,brazil,-22.146,-51.171
1305,guaraciaba do norte,,guaraciaba do norte,ceara,brazil,-4.167,-40.748
1306,tuparendi,,tuparendi,rio grande do sul,brazil,-27.756,-54.482
1307,cachoeira paulista,,cachoeira paulista,sao paulo,brazil,-22.665,-45.009
1308,cacador,,cacador,santa catarina,brazil,-26.775,-51.015
1309,cipotanea,,cipotanea,minas gerais,brazil,-20.905,-43.366
1310,bom sucesso,,bom sucesso,parana,brazil,-23.71,-51.764
1311,caico,,caico,rio grande do norte,brazil,-6.458,-37.098
1312,barao de cocais,,barao de cocais,minas gerais,brazil,-19.946,-43.487
1313,serro,,serro,minas gerais,brazil,-18.605,-43.379
1314,palmitos,,palmitos,santa catarina,brazil,-27.068,-53.161
1315,guaira,,guaira,sao paulo,brazil,-20.318,-48.311
1316,inhumas,,inhumas,goias,brazil,-16.358,-49.496
1317,jucurutu,,jucurutu,rio grande do norte,brazil,-6.034,-37.02
1318,eskilstuna,,eskilstuna,södermanland,sweden,59.36661,16.5077
1319,palmeira dos indios,,palmeira dos indios,alagoas,brazil,-9.407,-36.628
1320,minduri,,minduri,minas gerais,brazil,-21.682,-44.604
1321,trieste,,trieste,friuli venezia giulia,italy,45.64325,13.7903
1322,ribera,,ribera,sicily,italy,37.49773,13.26676
1323,bora,,bora,sao paulo,brazil,-22.27,-50.534
1324,arapongas,,arapongas,parana,brazil,-23.419,-51.424
1325,indiana,,indiana,sao paulo,brazil,-22.174,-51.252
1326,rio negro,,rio negro,parana,brazil,-26.106,-49.798
1327,mundo novo,,mundo novo,mato grosso do sul,brazil,-23.938,-54.271
1328,sao joao nepomuceno,,sao joao nepomuceno,minas gerais,brazil,-21.54,-43.011
1329,catende,,catende,pernambuco,brazil,-8.667,-35.717
1330,paulista,,paulista,pernambuco,brazil,-7.941,-34.873
1331,mendes,,mendes,rio de janeiro,brazil,-22.527,-43.733
1332,timbauba,,timbauba,pernambuco,brazil,-7.505,-35.318
1333,jacobina,,jacobina,bahia,brazil,-11.181,-40.518
1334,cabinda,,cabinda,cabinda,angola,-5.55,12.2
1335,paranaiba,,paranaiba,mato grosso do sul,brazil,-19.677,-51.191
1336,ubatuba,,ubatuba,sao paulo,brazil,-23.434,-45.071
1337,carlopolis,,carlopolis,parana,brazil,-23.425,-49.721
1338,parana,,parana,rio grande do norte,brazil,-6.486,-38.313
1339,sao joaquim,,sao joaquim,santa catarina,brazil,-28.294,-49.932
1340,angra dos reis,,angra dos reis,rio de janeiro,brazil,-23.007,-44.318
1341,ilha solteira,,ilha solteira,sao paulo,brazil,-20.433,-51.343
1342,santa salete,,santa salete,sao paulo,brazil,-20.245,-50.688
1343,bananal,,bananal,sao paulo,brazil,-22.684,-44.323
1344,sao lourenco da mata,,sao lourenco da mata,pernambuco,brazil,-8.002,-35.018
1345,silvania,,silvania,goias,brazil,-16.659,-48.608
1346,julio de castilhos,,julio de castilhos,rio grande do sul,brazil,-29.227,-53.682
1347,taquaritinga,,taquaritinga,sao paulo,brazil,-21.406,-48.505
1348,cravinhos,,cravinhos,sao paulo,brazil,-21.34,-47.729
1349,vacaria,,vacaria,rio grande do sul,brazil,-28.512,-50.934
1350,florida paulista,,florida paulista,sao paulo,brazil,-21.615,-51.174
1351,padre marcos,,padre marcos,piaui,brazil,-7.355,-40.904
1352,barras,,barras,piaui,brazil,-4.247,-42.296
1353,monte azul paulista,,monte azul paulista,sao paulo,brazil,-20.907,-48.641
1354,tupandi,,tupandi,rio grande do sul,brazil,-29.476,-51.421
1355,viadutos,,viadutos,rio grande do sul,brazil,-27.569,-52.02
1356,vera cruz,,vera cruz,sao paulo,brazil,-22.22,-49.819
1357,itirucu,,itirucu,bahia,brazil,-13.532,-40.15
1358,lagoa vermelha,,lagoa vermelha,rio grande do sul,brazil,-28.209,-51.526
1359,nova fatima,,nova fatima,parana,brazil,-23.432,-50.564
1360,roca sales,,roca sales,rio grande do sul,brazil,-29.284,-51.868
1361,entre rios,,entre rios,bahia,brazil,-11.942,-38.084
1362,perdoes,,perdoes,minas gerais,brazil,-21.091,-45.091
1363,marechal candido rondon,,marechal candido rondon,parana,brazil,-24.556,-54.057
1364,ibitiara,,ibitiara,bahia,brazil,-12.652,-42.218
1365,canhotinho,,canhotinho,pernambuco,brazil,-8.882,-36.191
1366,pedralva,,pedralva,minas gerais,brazil,-22.243,-45.466
1367,palotina,,palotina,parana,brazil,-24.284,-53.84
1368,martinho campos,,martinho campos,minas gerais,brazil,-19.332,-45.237
1369,cruzeiro do sul,,cruzeiro do sul,acre,brazil,-7.631,-72.67
1370,canapolis,,canapolis,minas gerais,brazil,-18.725,-49.204
1371,ico,,ico,ceara,brazil,-6.401,-38.862
1372,arroio trinta,,arroio trinta,santa catarina,brazil,-26.933,-51.339
1373,quata,,quata,sao paulo,brazil,-22.248,-50.698
1374,tapejara,,tapejara,parana,brazil,-23.733,-52.873
1375,macaubas,,macaubas,bahia,brazil,-13.019,-42.699
1376,brasilia de minas,,brasilia de minas,minas gerais,brazil,-16.208,-44.429
1377,jaguarari,,jaguarari,bahia,brazil,-10.26,-40.196
1378,matoes,,matoes,maranhao,brazil,-5.519,-43.199
1379,estrela d oeste,,estrela d oeste,sao paulo,brazil,-20.288,-50.401
1380,iguatu,,iguatu,ceara,brazil,-6.359,-39.299
1381,japura,,japura,parana,brazil,-23.47,-52.553
1382,muritiba,,muritiba,bahia,brazil,-12.626,-38.99
1383,francisco sa,,francisco sa,minas gerais,brazil,-16.476,-43.488
1384,belem de sao francisco,,belem de sao francisco,pernambuco,brazil,-8.758,-38.964
1385,inaja,,inaja,parana,brazil,-22.749,-52.198
1386,guaranesia,,guaranesia,minas gerais,brazil,-21.299,-46.803
1387,ipua,,ipua,sao paulo,brazil,-20.438,-48.012
1388,barra de santa rosa,,barra de santa rosa,paraiba,brazil,-6.72,-36.061
1389,vargem alta,,vargem alta,espirito santo,brazil,-20.671,-41.007
1390,brejo do cruz,,brejo do cruz,paraiba,brazil,-6.349,-37.498
1391,ilhota,,ilhota,santa catarina,brazil,-26.9,-48.827
1392,sao lourenco do sul,,sao lourenco do sul,rio grande do sul,brazil,-31.365,-51.978
1393,douradina,,douradina,parana,brazil,-23.381,-53.292
1394,francisco beltrao,,francisco beltrao,parana,brazil,-26.081,-53.055
1395,mundo novo,,mundo novo,bahia,brazil,-11.859,-40.472
1396,cariacica,,cariacica,espirito santo,brazil,-20.264,-40.42
1397,altamira,,altamira,para,brazil,-3.203,-52.206
1398,pinhal grande,,pinhal grande,rio grande do sul,brazil,-29.346,-53.307
1399,paranaiguara,,paranaiguara,goias,brazil,-18.916,-50.654
1400,whangarei,,whangarei,northland,new zealand,-35.73167,174.32391
1401,pastos bons,,pastos bons,maranhao,brazil,-6.602,-44.077
1402,tapejara,,tapejara,rio grande do sul,brazil,-28.068,-52.014
1403,mesa,,mesa,arizona,united states,33.42227,-111.82264
1404,alto garcas,,alto garcas,mato grosso,brazil,-16.944,-53.528
1405,independencia,,independencia,rio grande do sul,brazil,-27.833,-54.188
1406,mamanguape,,mamanguape,paraiba,brazil,-6.839,-35.126
1407,boa esperanca,,boa esperanca,espirito santo,brazil,-18.54,-40.296
1408,pendencias,,pendencias,rio grande do norte,brazil,-5.26,-36.722
1409,boa nova,,boa nova,bahia,brazil,-14.363,-40.208
1410,brejo santo,,brejo santo,ceara,brazil,-7.493,-38.985
1411,registro,,registro,sao paulo,brazil,-24.488,-47.844
1412,goioere,,goioere,parana,brazil,-24.185,-53.028
1413,santo antonio da alegria,,santo antonio da alegria,sao paulo,brazil,-21.087,-47.151
1414,irapuru,,irapuru,sao paulo,brazil,-21.571,-51.345
1415,quebrangulo,,quebrangulo,alagoas,brazil,-9.319,-36.471
1416,taquara,,taquara,rio grande do sul,brazil,-29.651,-50.781
1417,cruzeiro,,cruzeiro,sao paulo,brazil,-22.576,-44.963
1418,cumari,,cumari,goias,brazil,-18.263,-48.151
1419,urania,,urania,sao paulo,brazil,-20.246,-50.643
1420,montanha,,montanha,espirito santo,brazil,-18.127,-40.363
1421,santa isabel,,santa isabel,sao paulo,brazil,-23.316,-46.221
1422,iracemapolis,,iracemapolis,sao paulo,brazil,-22.581,-47.519
1423,moji mirim,,moji mirim,sao paulo,brazil,-22.432,-46.958
1424,santa maria da vitoria,,santa maria da vitoria,bahia,brazil,-13.398,-44.198
1425,capinopolis,,capinopolis,minas gerais,brazil,-18.682,-49.57
1426,sao bento do sul,,sao bento do sul,santa catarina,brazil,-26.25,-49.379
1427,equador,,equador,rio grande do norte,brazil,-6.945,-36.718
1428,sao mateus do sul,,sao mateus do sul,parana,brazil,-25.874,-50.383
1429,dresden,,dresden,saxony,germany,51.05089,13.73832
1430,caibate,,caibate,rio grande do sul,brazil,-28.288,-54.638
1431,sao benedito,,sao benedito,ceara,brazil,-4.049,-40.865
1432,tiangua,,tiangua,ceara,brazil,-3.732,-40.992
1433,aguas de lindoia,,aguas de lindoia,sao paulo,brazil,-22.476,-46.633
1434,nova erechim,,nova erechim,santa catarina,brazil,-26.903,-52.906
1435,tapera,,tapera,rio grande do sul,brazil,-28.626,-52.87
1436,guiratinga,,guiratinga,mato grosso,brazil,-16.349,-53.758
1437,panambi,,panambi,rio grande do sul,brazil,-28.293,-53.502
1438,pederneiras,,pederneiras,sao paulo,brazil,-22.352,-48.775
1439,sao paulo das missoes,,sao paulo das missoes,rio grande do sul,brazil,-28.021,-54.936
1440,firminopolis,,firminopolis,goias,brazil,-16.582,-50.305
1441,aracruz,,aracruz,espirito santo,brazil,-19.82,-40.273
1442,videira,,videira,santa catarina,brazil,-27.008,-51.152
1443,estrela,,estrela,rio grande do sul,brazil,-29.502,-51.966
1444,currais novos,,currais novos,rio grande do norte,brazil,-6.261,-36.515
1445,andira,,andira,parana,brazil,-23.051,-50.229
1446,marialva,,marialva,parana,brazil,-23.485,-51.792
1447,ouvidor,,ouvidor,goias,brazil,-18.234,-47.839
1448,cubatao,,cubatao,sao paulo,brazil,-23.895,-46.425
1449,ubaitaba,,ubaitaba,bahia,brazil,-14.313,-39.323
1450,ituporanga,,ituporanga,santa catarina,brazil,-27.414,-49.601
1451,arroio dos ratos,,arroio dos ratos,rio grande do sul,brazil,-30.077,-51.729
1452,igarassu,,igarassu,pernambuco,brazil,-7.834,-34.906
1453,jutai,,jutai,amazonas,brazil,-2.747,-66.767
1454,pocone,,pocone,mato grosso,brazil,-16.257,-56.623
1455,nova olinda,,nova olinda,ceara,brazil,-7.092,-39.681
1456,estrela do norte,,estrela do norte,goias,brazil,-13.868,-49.073
1457,sao jose de ribamar,,sao jose de ribamar,maranhao,brazil,-2.562,-44.054
1458,sao sepe,,sao sepe,rio grande do sul,brazil,-30.161,-53.565
1459,ivaipora,,ivaipora,parana,brazil,-24.248,-51.685
1460,rincao,,rincao,sao paulo,brazil,-21.587,-48.071
1461,americo brasiliense,,americo brasiliense,sao paulo,brazil,-21.724,-48.102
1462,alto araguaia,,alto araguaia,mato grosso,brazil,-17.315,-53.215
1463,serra negra,,serra negra,sao paulo,brazil,-22.612,-46.701
1464,santo antonio da platina,,santo antonio da platina,parana,brazil,-23.295,-50.077
1465,trombudo central,,trombudo central,santa catarina,brazil,-27.299,-49.79
1466,itutinga,,itutinga,minas gerais,brazil,-21.298,-44.658
1467,pinhalzinho,,pinhalzinho,santa catarina,brazil,-26.848,-52.992
1468,mambore,,mambore,parana,brazil,-24.319,-52.53
1469,pinheiro machado,,pinheiro machado,rio grande do sul,brazil,-31.578,-53.381
1470,quipapa,,quipapa,pernambuco,brazil,-8.828,-36.012
1471,gandu,,gandu,bahia,brazil,-13.744,-39.487
1472,silvianopolis,,silvianopolis,minas gerais,brazil,-22.029,-45.835
1473,apiai,,apiai,sao paulo,brazil,-24.509,-48.843
1474,queimados,,queimados,rio de janeiro,brazil,-22.716,-43.555
1475,tres barras,,tres barras,santa catarina,brazil,-26.106,-50.322
1476,macau,,macau,rio grande do norte,brazil,-5.115,-36.634
1477,paraiba do sul,,paraiba do sul,rio de janeiro,brazil,-22.162,-43.293
1478,curitibanos,,curitibanos,santa catarina,brazil,-27.283,-50.584
1479,cachoeiras de macacu,,cachoeiras de macacu,rio de janeiro,brazil,-22.463,-42.653
1480,le vesinet,,le vesinet,île-de-france,france,48.89281,2.13308
1481,simonesia,,simonesia,minas gerais,brazil,-20.124,-42.001
1482,cruzeiro do sul,,cruzeiro do sul,rio grande do sul,brazil,-29.513,-51.985
1483,porto nacional,,porto nacional,tocantins,brazil,-10.708,-48.417
1484,teutonia,,teutonia,rio grande do sul,brazil,-29.448,-51.806
1485,torrinha,,torrinha,sao paulo,brazil,-22.426,-48.169
1486,maquine,,maquine,rio grande do sul,brazil,-29.675,-50.207
1487,pocoes,,pocoes,bahia,brazil,-14.53,-40.365
1488,sao domingos do sul,,sao domingos do sul,rio grande do sul,brazil,-28.531,-51.888
1489,taiuva,,taiuva,sao paulo,brazil,-21.124,-48.452
1490,coronel freitas,,coronel freitas,santa catarina,brazil,-26.909,-52.703
1491,auriflama,,auriflama,sao paulo,brazil,-20.686,-50.555
1492,girua,,girua,rio grande do sul,brazil,-28.028,-54.35
1493,piau,,piau,minas gerais,brazil,-21.509,-43.323
1494,prata,,prata,minas gerais,brazil,-19.307,-48.924
1495,sao jose do cedro,,sao jose do cedro,santa catarina,brazil,-26.455,-53.494
1496,sao goncalo do abaete,,sao goncalo do abaete,minas gerais,brazil,-18.338,-45.833
1497,bonito de santa fe,,bonito de santa fe,paraiba,brazil,-7.313,-38.515
1498,seoul,,seoul,seoul,south korea,37.566,126.9784
1499,piracanjuba,,piracanjuba,goias,brazil,-17.303,-49.018
1500,carapebus,,carapebus,rio de janeiro,brazil,-22.187,-41.661
1501,rivera,,rivera,rivera,uruguay,-30.90534,-55.55076
1502,rio piracicaba,,rio piracicaba,minas gerais,brazil,-19.929,-43.174
1503,taperoa,,taperoa,paraiba,brazil,-7.207,-36.827
1504,jose bonifacio,,jose bonifacio,sao paulo,brazil,-21.053,-49.688
1505,pio ix,,pio ix,piaui,brazil,-6.838,-40.579
1506,alexandria,,alexandria,rio grande do norte,brazil,-6.413,-38.016
1507,russas,,russas,ceara,brazil,-4.94,-37.976
1508,muqui,,muqui,espirito santo,brazil,-20.952,-41.346
1509,rio espera,,rio espera,minas gerais,brazil,-20.855,-43.474
1510,campo ere,,campo ere,santa catarina,brazil,-26.394,-53.078
1511,nova russas,,nova russas,ceara,brazil,-4.707,-40.563
1512,missal,,missal,parana,brazil,-25.092,-54.248
1513,macaiba,,macaiba,rio grande do norte,brazil,-5.858,-35.354
1514,itarana,,itarana,espirito santo,brazil,-19.874,-40.875
1515,jaguapita,,jaguapita,parana,brazil,-23.113,-51.532
1516,bodoco,,bodoco,pernambuco,brazil,-7.778,-39.941
1517,palhano,,palhano,ceara,brazil,-4.745,-37.959
1518,portalegre,,portalegre,rio grande do norte,brazil,-6.024,-37.988
1519,itaqui,,itaqui,rio grande do sul,brazil,-29.125,-56.553
1520,bastos,,bastos,sao paulo,brazil,-21.922,-50.734
1521,boituva,,boituva,sao paulo,brazil,-23.283,-47.672
1522,curaca,,curaca,bahia,brazil,-8.992,-39.908
1523,jose de freitas,,jose de freitas,piaui,brazil,-4.756,-42.576
1524,espumoso,,espumoso,rio grande do sul,brazil,-28.725,-52.85
1525,lago da pedra,,lago da pedra,maranhao,brazil,-4.57,-45.132
1526,ferros,,ferros,minas gerais,brazil,-19.232,-43.023
1527,barbalha,,barbalha,ceara,brazil,-7.305,-39.302
1528,ribeirao,,ribeirao,pernambuco,brazil,-8.514,-35.378
1529,taquarituba,,taquarituba,sao paulo,brazil,-23.533,-49.244
1530,rosario do sul,,rosario do sul,rio grande do sul,brazil,-30.258,-54.914
1531,lavinia,,lavinia,sao paulo,brazil,-21.168,-51.04
1532,cruzalia,,cruzalia,sao paulo,brazil,-22.677,-50.794
1533,butia,,butia,rio grande do sul,brazil,-30.12,-51.962
1534,eldorado,,eldorado,sao paulo,brazil,-24.52,-48.108
1535,piacatu,,piacatu,sao paulo,brazil,-21.592,-50.599
1536,alvinopolis,,alvinopolis,minas gerais,brazil,-20.107,-43.049
1537,santana do acarau,,santana do acarau,ceara,brazil,-3.461,-40.212
1538,paraiso do tocantins,,paraiso do tocantins,tocantins,brazil,-10.176,-48.867
1539,tamboril,,tamboril,ceara,brazil,-4.832,-40.321
1540,getulio vargas,,getulio vargas,rio grande do sul,brazil,-27.89,-52.228
1541,nanuque,,nanuque,minas gerais,brazil,-17.839,-40.354
1542,sao tome,,sao tome,rio grande do norte,brazil,-5.973,-36.075
1543,guiricema,,guiricema,minas gerais,brazil,-21.008,-42.718
1544,rio novo,,rio novo,minas gerais,brazil,-21.458,-43.125
1545,dona francisca,,dona francisca,rio grande do sul,brazil,-29.622,-53.357
1546,paulo afonso,,paulo afonso,bahia,brazil,-9.408,-38.222
1547,ibituruna,,ibituruna,minas gerais,brazil,-21.153,-44.748
1548,sao joaquim da barra,,sao joaquim da barra,sao paulo,brazil,-20.581,-47.855
1549,pianco,,pianco,paraiba,brazil,-7.198,-37.929
1550,iguai,,iguai,bahia,brazil,-14.756,-40.089
1551,bossoroca,,bossoroca,rio grande do sul,brazil,-28.73,-54.9
1552,los angeles,,los angeles,biobío,chile,-37.46973,-72.35366
1553,rosana,,rosana,sao paulo,brazil,-22.58,-53.059
1554,valinhos,,valinhos,sao paulo,brazil,-22.971,-46.996
1555,cardoso,,cardoso,sao paulo,brazil,-20.082,-49.914
1556,duartina,,duartina,sao paulo,brazil,-22.414,-49.404
1557,nova iorque,,nova iorque,maranhao,brazil,-6.734,-44.044
1558,cambara,,cambara,parana,brazil,-23.046,-50.074
1559,pedras grandes,,pedras grandes,santa catarina,brazil,-28.436,-49.185
1560,conceicao da feira,,conceicao da feira,bahia,brazil,-12.506,-38.999
1561,lencois paulista,,lencois paulista,sao paulo,brazil,-22.599,-48.8
1562,inga,,inga,paraiba,brazil,-7.268,-35.613
1563,matozinhos,,matozinhos,minas gerais,brazil,-19.558,-44.081
1564,laranjal paulista,,laranjal paulista,sao paulo,brazil,-23.05,-47.837
1565,sao gabriel da palha,,sao gabriel da palha,espirito santo,brazil,-19.017,-40.536
1566,cordeiro,,cordeiro,rio de janeiro,brazil,-22.029,-42.361
1567,pirai,,pirai,rio de janeiro,brazil,-22.629,-43.898
1568,imbituba,,imbituba,santa catarina,brazil,-28.24,-48.67
1569,saltinho,,saltinho,sao paulo,brazil,-22.847,-47.677
1570,entre folhas,,entre folhas,minas gerais,brazil,-19.625,-42.231
1571,coromandel,,coromandel,minas gerais,brazil,-18.473,-47.2
1572,pedro canario,,pedro canario,espirito santo,brazil,-18.03,-40.151
1573,rinopolis,,rinopolis,sao paulo,brazil,-21.726,-50.722
1574,carmo do cajuru,,carmo do cajuru,minas gerais,brazil,-20.184,-44.771
1575,jacinto,,jacinto,minas gerais,brazil,-16.144,-40.293
1576,ipanguacu,,ipanguacu,rio grande do norte,brazil,-5.498,-36.855
1577,porto firme,,porto firme,minas gerais,brazil,-20.673,-43.084
1578,nazare,,nazare,bahia,brazil,-13.035,-39.014
1579,detroit,,detroit,michigan,united states,42.33143,-83.04575
1580,santa rosa,,santa rosa,rio grande do sul,brazil,-27.871,-54.481
1581,lagarto,,lagarto,sergipe,brazil,-10.917,-37.65
1582,cajobi,,cajobi,sao paulo,brazil,-20.88,-48.809
1583,manduri,,manduri,sao paulo,brazil,-23.003,-49.322
1584,mariano moro,,mariano moro,rio grande do sul,brazil,-27.354,-52.147
1585,quatigua,,quatigua,parana,brazil,-23.567,-49.914
1586,peixe boi,,peixe boi,para,brazil,-1.192,-47.314
1587,pirapora,,pirapora,minas gerais,brazil,-17.345,-44.942
1588,sarandi,,sarandi,rio grande do sul,brazil,-27.944,-52.923
1589,sales oliveira,,sales oliveira,sao paulo,brazil,-20.772,-47.838
1590,divinolandia,,divinolandia,sao paulo,brazil,-21.661,-46.739
1591,tarumirim,,tarumirim,minas gerais,brazil,-19.281,-42.007
1592,santa barbara,,santa barbara,minas gerais,brazil,-19.959,-43.415
1593,torres,,torres,rio grande do sul,brazil,-29.335,-49.727
1594,queluz,,queluz,sao paulo,brazil,-22.537,-44.774
1595,turvo,,turvo,santa catarina,brazil,-28.926,-49.679
1596,loreto,,loreto,maranhao,brazil,-7.084,-45.141
1597,vieiras,,vieiras,minas gerais,brazil,-20.866,-42.244
1598,taquari,,taquari,rio grande do sul,brazil,-29.8,-51.864
1599,descanso,,descanso,santa catarina,brazil,-26.826,-53.502
1600,brejo,,brejo,maranhao,brazil,-3.684,-42.75
1601,santa helena,,santa helena,maranhao,brazil,-2.231,-45.3
1602,itaberaba,,itaberaba,bahia,brazil,-12.528,-40.307
1603,santa juliana,,santa juliana,minas gerais,brazil,-19.309,-47.525
1604,sanharo,,sanharo,pernambuco,brazil,-8.361,-36.566
1605,congonhas,,congonhas,minas gerais,brazil,-20.5,-43.858
1606,lagoa formosa,,lagoa formosa,minas gerais,brazil,-18.779,-46.408
1607,monteiro,,monteiro,paraiba,brazil,-7.889,-37.12
1608,flores da cunha,,flores da cunha,rio grande do sul,brazil,-29.029,-51.182
1609,serrana,,serrana,sao paulo,brazil,-21.211,-47.596
1610,picos,,picos,piaui,brazil,-7.077,-41.467
1611,areia branca,,areia branca,rio grande do norte,brazil,-4.956,-37.137
1612,assai,,assai,parana,brazil,-23.373,-50.841
1613,neropolis,,neropolis,goias,brazil,-16.406,-49.219
1614,itauna,,itauna,minas gerais,brazil,-20.075,-44.576
1615,sao joao,,sao joao,parana,brazil,-25.828,-52.725
1616,muzambinho,,muzambinho,minas gerais,brazil,-21.376,-46.526
