"id";"city";"city_ascii";"uf";"country";"country_ascii";"country_abbr";"latitude";"longitude";"created_at";"updated_at"
2;"Jequié";"jequie";"bahia";"brasil";"brasil";"BR";-13.858;-40.084;"2015-02-17 16:44:49.394493";"2015-02-17 16:44:49.400352"
3;"Belo Horizonte";"belo horizonte";"minas gerais";"brasil";"brasil";"BR";-19.817;-43.956;"2015-02-17 16:44:49.394493";"2015-02-17 16:44:49.400352"
4;"Rio de Janeiro";"rio de janeiro";"rio de janeiro";"brasil";"brasil";"BR";-22.903;-43.208;"2015-02-17 16:44:49.394493";"2015-02-17 16:44:49.400352"
5;"Saquarema";"saquarema";"rio de janeiro";"brasil";"brasil";"BR";-22.92;-42.51;"2015-02-17 16:44:49.394493";"2015-02-17 16:44:49.400352"
6;"Milano";"milano";"Lombardy";"Italy";"italy";"IT";45.46427;9.18951;"2015-02-17 16:44:49.394493";"2015-02-17 16:44:49.400352"
7;"Botucatu";"botucatu";"sao paulo";"brasil";"brasil";"BR";-22.886;-48.445;"2015-02-17 16:44:49.394493";"2015-02-17 16:44:49.400352"
8;"Maputo";"maputo";"Maputo City";"Mozambique";"mozambique";"MZ";-25.96553;32.58322;"2015-02-17 16:44:49.394493";"2015-02-17 16:44:49.400352"
9;"São Paulo";"sao paulo";"sao paulo";"brasil";"brasil";"BR";-23.548;-46.636;"2015-02-17 16:44:49.394493";"2015-02-17 16:44:49.400352"
10;"Santiago";"santiago";"Santiago";"Chile";"chile";"CL";-33.45694;-70.64827;"2015-02-17 16:44:49.394493";"2015-02-17 16:44:49.400352"
11;"Delījān";"delijan";"Markazi";"Iran";"iran";"IR";33.9905;50.6838;"2015-02-17 16:44:49.394493";"2015-02-17 16:44:49.400352"
12;"Quito";"quito";"Pichincha";"Ecuador";"ecuador";"EC";-0.22985;-78.52495;"2015-02-17 16:44:49.394493";"2015-02-17 16:44:49.400352"
13;"Carmo";"carmo";"rio de janeiro";"brasil";"brasil";"BR";-21.934;-42.609;"2015-02-17 16:44:49.394493";"2015-02-17 16:44:49.400352"
14;"Plymouth";"plymouth";"England";"United Kingdom";"united kingdom";"GB";50.37153;-4.14305;"2015-02-17 16:44:49.394493";"2015-02-17 16:44:49.400352"
15;"Buenos Aires";"buenos aires";"Buenos Aires F.D.";"Argentina";"argentina";"AR";-34.61315;-58.37723;"2015-02-17 16:44:49.394493";"2015-02-17 16:44:49.400352"
16;"Avaré";"avare";"sao paulo";"brasil";"brasil";"BR";-23.099;-48.926;"2015-02-17 16:44:49.394493";"2015-02-17 16:44:49.400352"
17;"Moscow";"moscow";"Moscow";"Russia";"russia";"RU";55.75222;37.61556;"2015-02-17 16:44:49.394493";"2015-02-17 16:44:49.400352"
18;"Béziers";"beziers";"Languedoc-Roussillon";"France";"france";"FR";43.34122;3.21402;"2015-02-17 16:44:49.394493";"2015-02-17 16:44:49.400352"
19;"Puebla";"puebla";"Puebla";"Mexico";"mexico";"MX";19.04334;-98.20193;"2015-02-17 16:44:49.394493";"2015-02-17 16:44:49.400352"
20;"Borrazópolis";"borrazopolis";"parana";"brasil";"brasil";"BR";-23.941;-51.588;"2015-02-17 16:44:49.394493";"2015-02-17 16:44:49.400352"
21;"Braga";"braga";"Braga";"Portugal";"portugal";"PT";41.55032;-8.42005;"2015-02-17 16:44:49.394493";"2015-02-17 16:44:49.400352"
22;"São José";"sao jose";"santa catarina";"brasil";"brasil";"BR";-27.615;-48.628;"2015-02-17 16:44:49.394493";"2015-02-17 16:44:49.400352"
23;"Veracruz";"veracruz";"Veracruz-Llave";"Mexico";"mexico";"MX";19.18095;-96.1429;"2015-02-17 16:44:49.394493";"2015-02-17 16:44:49.400352"
24;"Coimbra";"coimbra";"Coimbra";"Portugal";"portugal";"PT";40.20564;-8.41955;"2015-02-17 16:44:49.394493";"2015-02-17 16:44:49.400352"
25;"Fernandópolis";"fernandopolis";"sao paulo";"brasil";"brasil";"BR";-20.284;-50.246;"2015-02-17 16:44:49.394493";"2015-02-17 16:44:49.400352"
26;"Recife";"recife";"pernambuco";"brasil";"brasil";"BR";-8.054;-34.881;"2015-02-17 16:44:49.394493";"2015-02-17 16:44:49.400352"
27;"Victoria";"victoria";"British Columbia";"Canada";"canada";"CA";48.43294;-123.3693;"2015-02-17 16:44:49.394493";"2015-02-17 16:44:49.400352"
28;"Ribeirão Preto";"ribeirao preto";"sao paulo";"brasil";"brasil";"BR";-21.178;-47.81;"2015-02-17 16:44:49.394493";"2015-02-17 16:44:49.400352"
29;"Manaus";"manaus";"amazonas";"brasil";"brasil";"BR";-3.102;-60.025;"2015-02-17 16:44:49.394493";"2015-02-17 16:44:49.400352"
30;"Porto Alegre";"porto alegre";"rio grande do sul";"brasil";"brasil";"BR";-30.033;-51.23;"2015-02-17 16:44:49.394493";"2015-02-17 16:44:49.400352"
31;"Cork";"cork";"Munster";"Ireland";"ireland";"IE";51.89797;-8.47061;"2015-02-17 16:44:49.394493";"2015-02-17 16:44:49.400352"
32;"Peshawar";"peshawar";"North-West Frontier Province";"Pakistan";"pakistan";"PK";34.008;71.57849;"2015-02-17 16:44:49.394493";"2015-02-17 16:44:49.400352"
33;"Cali";"cali";"Valle del Cauca";"Colombia";"colombia";"CO";3.43722;-76.5225;"2015-02-17 16:44:49.394493";"2015-02-17 16:44:49.400352"
34;"Bogotá";"bogota";"Bogota D.C.";"Colombia";"colombia";"CO";4.60971;-74.08175;"2015-02-17 16:44:49.394493";"2015-02-17 16:44:49.400352"
35;"Caracas";"caracas";"Distrito Federal";"Venezuela";"venezuela";"VE";10.48801;-66.87919;"2015-02-17 16:44:49.394493";"2015-02-17 16:44:49.400352"
36;"Ica";"ica";"Ica";"Peru";"peru";"PE";-14.06777;-75.72861;"2015-02-17 16:44:49.394493";"2015-02-17 16:44:49.400352"
37;"Lima";"lima";"Provincia de Lima";"Peru";"peru";"PE";-12.04318;-77.02824;"2015-02-17 16:44:49.394493";"2015-02-17 16:44:49.400352"
38;"Cornélio Procópio";"cornelio procopio";"parana";"brasil";"brasil";"BR";-23.181;-50.647;"2015-02-17 16:44:49.394493";"2015-02-17 16:44:49.400352"
39;"Córdoba";"cordoba";"Córdoba";"Argentina";"argentina";"AR";-31.4135;-64.18105;"2015-02-17 16:44:49.394493";"2015-02-17 16:44:49.400352"
40;"Cusco";"cusco";"Cusco";"Peru";"peru";"PE";-13.52264;-71.96734;"2015-02-17 16:44:49.394493";"2015-02-17 16:44:49.400352"
41;"Havana";"havana";"Ciudad de La Habana";"Cuba";"cuba";"CU";23.13302;-82.38304;"2015-02-17 16:44:49.394493";"2015-02-17 16:44:49.400352"
42;"Nova Iguaçu";"nova iguacu";"rio de janeiro";"brasil";"brasil";"BR";-22.759;-43.451;"2015-02-17 16:44:49.394493";"2015-02-17 16:44:49.400352"
43;"Londrina";"londrina";"parana";"brasil";"brasil";"BR";-23.31;-51.163;"2015-02-17 16:44:49.394493";"2015-02-17 16:44:49.400352"
44;"Calarcá";"calarca";"Quindío";"Colombia";"colombia";"CO";4.52949;-75.64091;"2015-02-17 16:44:49.394493";"2015-02-17 16:44:49.400352"
45;"Campos dos Goytacazes";"campos dos goytacazes";"rio de janeiro";"brasil";"brasil";"BR";-21.754;-41.324;"2015-02-17 16:44:49.394493";"2015-02-17 16:44:49.400352"
46;"Évora";"evora";"Évora";"Portugal";"portugal";"PT";38.56667;-7.9;"2015-02-17 16:44:49.394493";"2015-02-17 16:44:49.400352"
47;"Imphal";"imphal";"Manipur";"India";"india";"IN";24.80805;93.9442;"2015-02-17 16:44:49.394493";"2015-02-17 16:44:49.400352"
48;"Itamari";"itamari";"bahia";"brasil";"brasil";"BR";-13.778;-39.684;"2015-02-17 16:44:49.394493";"2015-02-17 16:44:49.400352"
49;"Barcelona";"barcelona";"Catalonia";"Spain";"spain";"ES";41.38879;2.15899;"2015-02-17 16:44:49.394493";"2015-02-17 16:44:49.400352"
50;"Franco da Rocha";"franco da rocha";"sao paulo";"brasil";"brasil";"BR";-23.322;-46.727;"2015-02-17 16:44:49.394493";"2015-02-17 16:44:49.400352"
51;"Esslingen";"esslingen";"Baden-Württemberg Region";"Germany";"germany";"DE";48.73961;9.30473;"2015-02-17 16:44:49.394493";"2015-02-17 16:44:49.400352"
52;"Ponta Grossa";"ponta grossa";"parana";"brasil";"brasil";"BR";-25.095;-50.162;"2015-02-17 16:44:49.394493";"2015-02-17 16:44:49.400352"
53;"Araraquara";"araraquara";"sao paulo";"brasil";"brasil";"BR";-21.794;-48.176;"2015-02-17 16:44:49.394493";"2015-02-17 16:44:49.400352"
54;"Nāgercoil";"nagercoil";"Tamil Nādu";"India";"india";"IN";8.17731;77.43437;"2015-02-17 16:44:49.394493";"2015-02-17 16:44:49.400352"
55;"Chivilcoy";"chivilcoy";"Buenos Aires";"Argentina";"argentina";"AR";-34.89566;-60.01667;"2015-02-17 16:44:49.394493";"2015-02-17 16:44:49.400352"
56;"Mossoró";"mossoro";"rio grande do norte";"brasil";"brasil";"BR";-5.188;-37.344;"2015-02-17 16:44:49.394493";"2015-02-17 16:44:49.400352"
57;"Caratinga";"caratinga";"minas gerais";"brasil";"brasil";"BR";-19.79;-42.139;"2015-02-17 16:44:49.394493";"2015-02-17 16:44:49.400352"
58;"Santiago de Cuba";"santiago de cuba";"Santiago de Cuba";"Cuba";"cuba";"CU";20.02472;-75.82194;"2015-02-17 16:44:49.394493";"2015-02-17 16:44:49.400352"
59;"Roubaix";"roubaix";"Nord-Pas-de-Calais";"France";"france";"FR";50.69421;3.17456;"2015-02-17 16:44:49.394493";"2015-02-17 16:44:49.400352"
60;"Trujillo";"trujillo";"La Libertad";"Peru";"peru";"PE";-8.11599;-79.02998;"2015-02-17 16:44:49.394493";"2015-02-17 16:44:49.400352"
61;"Curitiba";"curitiba";"parana";"brasil";"brasil";"BR";-25.428;-49.273;"2015-02-17 16:44:49.394493";"2015-02-17 16:44:49.400352"
62;"Chiclayo";"chiclayo";"Lambayeque";"Peru";"peru";"PE";-6.77137;-79.84088;"2015-02-17 16:44:49.394493";"2015-02-17 16:44:49.400352"
63;"La Plata";"la plata";"Buenos Aires";"Argentina";"argentina";"AR";-34.92145;-57.95453;"2015-02-17 16:44:49.394493";"2015-02-17 16:44:49.400352"
64;"Pernik";"pernik";"Pernik";"Bulgaria";"bulgaria";"BG";42.6;23.03333;"2015-02-17 16:44:49.394493";"2015-02-17 16:44:49.400352"
65;"Formosa do Oeste";"formosa do oeste";"parana";"brasil";"brasil";"BR";-24.293;-53.313;"2015-02-17 16:44:49.394493";"2015-02-17 16:44:49.400352"
66;"Porto";"porto";"Porto";"Portugal";"portugal";"PT";41.14961;-8.61099;"2015-02-17 16:44:49.394493";"2015-02-17 16:44:49.400352"
67;"Blackburn";"blackburn";"England";"United Kingdom";"united kingdom";"GB";53.75;-2.48333;"2015-02-17 16:44:49.394493";"2015-02-17 16:44:49.400352"
68;"Challans";"challans";"Pays de la Loire";"France";"france";"FR";46.84363;-1.87491;"2015-02-17 16:44:49.394493";"2015-02-17 16:44:49.400352"
69;"Butare";"butare";"Southern Province";"Rwanda";"rwanda";"RW";-2.59667;29.73944;"2015-02-17 16:44:49.394493";"2015-02-17 16:44:49.400352"
70;"Formigueiro";"formigueiro";"rio grande do sul";"brasil";"brasil";"BR";-30;-53.499;"2015-02-17 16:44:49.394493";"2015-02-17 16:44:49.400352"
71;"Brasília";"brasilia";"federal district";"brasil";"brasil";"BR";-15.78;-47.93;"2015-02-17 16:44:49.394493";"2015-02-17 16:44:49.400352"
72;"Vitória da Conquista";"vitoria da conquista";"bahia";"brasil";"brasil";"BR";-14.866;-40.839;"2015-02-17 16:44:49.394493";"2015-02-17 16:44:49.400352"
73;"Marseille";"marseille";"Provence-Alpes-Côte d'Azur";"France";"france";"FR";43.29695;5.38107;"2015-02-17 16:44:49.394493";"2015-02-17 16:44:49.400352"
74;"Visconde do Rio Branco";"visconde do rio branco";"minas gerais";"brasil";"brasil";"BR";-21.01;-42.841;"2015-02-17 16:44:49.394493";"2015-02-17 16:44:49.400352"
75;"São João de Meriti";"sao joao de meriti";"rio de janeiro";"brasil";"brasil";"BR";-22.804;-43.372;"2015-02-17 16:44:49.394493";"2015-02-17 16:44:49.400352"
76;"Catalão";"catalao";"goias";"brasil";"brasil";"BR";-18.17;-47.942;"2015-02-17 16:44:49.394493";"2015-02-17 16:44:49.400352"
77;"Conchas";"conchas";"sao paulo";"brasil";"brasil";"BR";-23.015;-48.011;"2015-02-17 16:44:49.394493";"2015-02-17 16:44:49.400352"
78;"Alcobaça";"alcobaca";"bahia";"brasil";"brasil";"BR";-17.519;-39.196;"2015-02-17 16:44:49.394493";"2015-02-17 16:44:49.400352"
79;"Paris";"paris";"Île-de-France";"France";"france";"FR";48.85341;2.3488;"2015-02-17 16:44:49.394493";"2015-02-17 16:44:49.400352"
80;"Goiânia";"goiania";"goias";"brasil";"brasil";"BR";-16.679;-49.254;"2015-02-17 16:44:49.394493";"2015-02-17 16:44:49.400352"
81;"Juliaca";"juliaca";"Puno";"Peru";"peru";"PE";-15.5;-70.13333;"2015-02-17 16:44:49.394493";"2015-02-17 16:44:49.400352"
82;"Covilhã";"covilha";"Castelo Branco";"Portugal";"portugal";"PT";40.28601;-7.50396;"2015-02-17 16:44:49.394493";"2015-02-17 16:44:49.400352"
83;"Limeira";"limeira";"sao paulo";"brasil";"brasil";"BR";-22.565;-47.402;"2015-02-17 16:44:49.394493";"2015-02-17 16:44:49.400352"
84;"São Leopoldo";"sao leopoldo";"rio grande do sul";"brasil";"brasil";"BR";-29.76;-51.147;"2015-02-17 16:44:49.394493";"2015-02-17 16:44:49.400352"
85;"Espírito Santo do Pinhal";"espirito santo do pinhal";"sao paulo";"brasil";"brasil";"BR";-22.191;-46.741;"2015-02-17 16:44:49.394493";"2015-02-17 16:44:49.400352"
86;"Pamplona";"pamplona";"Norte de Santander";"Colombia";"colombia";"CO";7.37565;-72.64795;"2015-02-17 16:44:49.394493";"2015-02-17 16:44:49.400352"
87;"Apucarana";"apucarana";"parana";"brasil";"brasil";"BR";-23.551;-51.461;"2015-02-17 16:44:49.394493";"2015-02-17 16:44:49.400352"
88;"Cachoeira do Sul";"cachoeira do sul";"rio grande do sul";"brasil";"brasil";"BR";-30.039;-52.894;"2015-02-17 16:44:49.394493";"2015-02-17 16:44:49.400352"
89;"Pojuca";"pojuca";"bahia";"brasil";"brasil";"BR";-12.431;-38.328;"2015-02-17 16:44:49.394493";"2015-02-17 16:44:49.400352"
90;"Promissão";"promissao";"sao paulo";"brasil";"brasil";"BR";-21.537;-49.858;"2015-02-17 16:44:49.394493";"2015-02-17 16:44:49.400352"
91;"Cachoeiro de Itapemirim";"cachoeiro de itapemirim";"espirito Santo";"brasil";"brasil";"BR";-20.849;-41.113;"2015-02-17 16:44:49.394493";"2015-02-17 16:44:49.400352"
92;"Hannover";"hannover";"Lower Saxony";"Germany";"germany";"DE";52.37052;9.73322;"2015-02-17 16:44:49.394493";"2015-02-17 16:44:49.400352"
93;"Santo Domingo";"santo domingo";"Distrito Nacional";"Dominican Republic";"dominican republic";"DO";18.50012;-69.98857;"2015-02-17 16:44:49.394493";"2015-02-17 16:44:49.400352"
94;"Baltimore";"baltimore";"Maryland";"United States";"united states";"US";39.29038;-76.61219;"2015-02-17 16:44:49.394493";"2015-02-17 16:44:49.400352"
95;"Vitória";"vitoria";"espirito Santo";"brasil";"brasil";"BR";-20.319;-40.338;"2015-02-17 16:44:49.394493";"2015-02-17 16:44:49.400352"
96;"Mollendo";"mollendo";"Arequipa";"Peru";"peru";"PE";-17.02306;-72.01472;"2015-02-17 16:44:49.394493";"2015-02-17 16:44:49.400352"
97;"Chicago";"chicago";"Illinois";"United States";"united states";"US";41.85003;-87.65005;"2015-02-17 16:44:49.394493";"2015-02-17 16:44:49.400352"
98;"Minatitlan";"minatitlan";"Veracruz-Llave";"Mexico";"mexico";"MX";17.99925;-94.55441;"2015-02-17 16:44:49.394493";"2015-02-17 16:44:49.400352"
99;"Maringá";"maringa";"parana";"brasil";"brasil";"BR";-23.425;-51.939;"2015-02-17 16:44:49.394493";"2015-02-17 16:44:49.400352"
100;"Pontevedra";"pontevedra";"Galicia";"Spain";"spain";"ES";42.431;-8.64435;"2015-02-17 16:44:49.394493";"2015-02-17 16:44:49.400352"
101;"Paranaguá";"paranagua";"parana";"brasil";"brasil";"BR";-25.52;-48.509;"2015-02-17 16:44:49.394493";"2015-02-17 16:44:49.400352"
102;"Mâcon";"macon";"Bourgogne";"France";"france";"FR";46.3;4.83333;"2015-02-17 16:44:49.394493";"2015-02-17 16:44:49.400352"
103;"Santander";"santander";"Cantabria";"Spain";"spain";"ES";43.46472;-3.80444;"2015-02-17 16:44:49.394493";"2015-02-17 16:44:49.400352"
104;"Campinas";"campinas";"sao paulo";"brasil";"brasil";"BR";-22.906;-47.061;"2015-02-17 16:44:49.394493";"2015-02-17 16:44:49.400352"
105;"Dej";"dej";"Cluj";"Romania";"romania";"RO";47.15;23.86667;"2015-02-17 16:44:49.394493";"2015-02-17 16:44:49.400352"
106;"Arica";"arica";"Arica y Parinacota";"Chile";"chile";"CL";-18.4746;-70.29792;"2015-02-17 16:44:49.394493";"2015-02-17 16:44:49.400352"
107;"Mandaguaçu";"mandaguacu";"parana";"brasil";"brasil";"BR";-23.347;-52.095;"2015-02-17 16:44:49.394493";"2015-02-17 16:44:49.400352"
108;"Fortaleza";"fortaleza";"ceara";"brasil";"brasil";"BR";-3.717;-38.543;"2015-02-17 16:44:49.394493";"2015-02-17 16:44:49.400352"
109;"Vila Rica";"vila rica";"mato grosso";"brasil";"brasil";"BR";-10.012;-51.116;"2015-02-17 16:44:49.394493";"2015-02-17 16:44:49.400352"
110;"San Francisco";"san francisco";"California";"United States";"united states";"US";37.77493;-122.41942;"2015-02-17 16:44:49.394493";"2015-02-17 16:44:49.400352"
111;"London";"london";"England";"United Kingdom";"united kingdom";"GB";51.50853;-0.12574;"2015-02-17 16:44:49.394493";"2015-02-17 16:44:49.400352"
112;"São Gabriel da Cachoeira";"sao gabriel da cachoeira";"amazonas";"brasil";"brasil";"BR";-0.13;-67.089;"2015-02-17 16:44:49.394493";"2015-02-17 16:44:49.400352"
113;"Mainz";"mainz";"Rheinland-Pfalz";"Germany";"germany";"DE";49.98419;8.2791;"2015-02-17 16:44:49.394493";"2015-02-17 16:44:49.400352"
114;"Bologna";"bologna";"Emilia-Romagna";"Italy";"italy";"IT";44.49381;11.33875;"2015-02-17 16:44:49.394493";"2015-02-17 16:44:49.400352"
115;"Jaboticabal";"jaboticabal";"sao paulo";"brasil";"brasil";"BR";-21.255;-48.322;"2015-02-17 16:44:49.394493";"2015-02-17 16:44:49.400352"
116;"Votuporanga";"votuporanga";"sao paulo";"brasil";"brasil";"BR";-20.423;-49.973;"2015-02-17 16:44:49.394493";"2015-02-17 16:44:49.400352"
117;"Itajubá";"itajuba";"minas gerais";"brasil";"brasil";"BR";-22.426;-45.453;"2015-02-17 16:44:49.394493";"2015-02-17 16:44:49.400352"
118;"Cruz Alta";"cruz alta";"rio grande do sul";"brasil";"brasil";"BR";-28.639;-53.606;"2015-02-17 16:44:49.394493";"2015-02-17 16:44:49.400352"
119;"Santos";"santos";"sao paulo";"brasil";"brasil";"BR";-23.961;-46.334;"2015-02-17 16:44:49.394493";"2015-02-17 16:44:49.400352"
120;"Envigado";"envigado";"Departamento de Antioquia";"Colombia";"colombia";"CO";6.17591;-75.59174;"2015-02-17 16:44:49.394493";"2015-02-17 16:44:49.400352"
121;"Maracás";"maracas";"bahia";"brasil";"brasil";"BR";-13.441;-40.431;"2015-02-17 16:44:49.394493";"2015-02-17 16:44:49.400352"
122;"New York City";"new york city";"New York";"United States";"united states";"US";40.71427;-74.00597;"2015-02-17 16:44:49.394493";"2015-02-17 16:44:49.400352"
123;"Granada";"granada";"Andalusia";"Spain";"spain";"ES";37.18817;-3.60667;"2015-02-17 16:44:49.394493";"2015-02-17 16:44:49.400352"
124;"Santa Rosa";"santa rosa";"La Pampa";"Argentina";"argentina";"AR";-36.61667;-64.28333;"2015-02-17 16:44:49.394493";"2015-02-17 16:44:49.400352"
125;"Amadora";"amadora";"Lisbon";"Portugal";"portugal";"PT";38.75382;-9.23083;"2015-02-17 16:44:49.394493";"2015-02-17 16:44:49.400352"
126;"Hamilton";"hamilton";"Ontario";"Canada";"canada";"CA";43.25011;-79.84963;"2015-02-17 16:44:49.394493";"2015-02-17 16:44:49.400352"
127;"Los Angeles";"los angeles";"California";"United States";"united states";"US";34.05223;-118.24368;"2015-02-17 16:44:49.394493";"2015-02-17 16:44:49.400352"
128;"Montréal";"montreal";"Quebec";"Canada";"canada";"CA";45.50884;-73.58781;"2015-02-17 16:44:49.394493";"2015-02-17 16:44:49.400352"
129;"Raalte";"raalte";"Overijssel";"Netherlands";"netherlands";"NL";52.38583;6.275;"2015-02-17 16:44:49.394493";"2015-02-17 16:44:49.400352"
130;"Montevideo";"montevideo";"Montevideo";"Uruguay";"uruguay";"UY";-34.90328;-56.18816;"2015-02-17 16:44:49.394493";"2015-02-17 16:44:49.400352"
131;"Blumenau";"blumenau";"santa catarina";"brasil";"brasil";"BR";-26.919;-49.066;"2015-02-17 16:44:49.394493";"2015-02-17 16:44:49.400352"
132;"Siena";"siena";"Tuscany";"Italy";"italy";"IT";43.32215;11.3259;"2015-02-17 16:44:49.394493";"2015-02-17 16:44:49.400352"
133;"Versailles";"versailles";"Île-de-France";"France";"france";"FR";48.8;2.13333;"2015-02-17 16:44:49.394493";"2015-02-17 16:44:49.400352"
134;"Guantánamo";"guantanamo";"Guantánamo";"Cuba";"cuba";"CU";20.14444;-75.20917;"2015-02-17 16:44:49.394493";"2015-02-17 16:44:49.400352"
135;"Jaraguá do Sul";"jaragua do sul";"santa catarina";"brasil";"brasil";"BR";-26.486;-49.067;"2015-02-17 16:44:49.394493";"2015-02-17 16:44:49.400352"
136;"Morros";"morros";"maranhao";"brasil";"brasil";"BR";-2.864;-44.039;"2015-02-17 16:44:49.394493";"2015-02-17 16:44:49.400352"
137;"Caçapava do Sul";"cacapava do sul";"rio grande do sul";"brasil";"brasil";"BR";-30.512;-53.491;"2015-02-17 16:44:49.394493";"2015-02-17 16:44:49.400352"
138;"Natal";"natal";"rio grande do norte";"brasil";"brasil";"BR";-5.795;-35.209;"2015-02-17 16:44:49.394493";"2015-02-17 16:44:49.400352"
139;"Pinar del Río";"pinar del rio";"Pinar del Río";"Cuba";"cuba";"CU";22.4175;-83.69806;"2015-02-17 16:44:49.394493";"2015-02-17 16:44:49.400352"
140;"Salerno";"salerno";"Campania";"Italy";"italy";"IT";40.67545;14.79328;"2015-02-17 16:44:49.394493";"2015-02-17 16:44:49.400352"
141;"Mar del Plata";"mar del plata";"Buenos Aires";"Argentina";"argentina";"AR";-38.00228;-57.55754;"2015-02-17 16:44:49.394493";"2015-02-17 16:44:49.400352"
142;"Anguera";"anguera";"bahia";"brasil";"brasil";"BR";-12.151;-39.246;"2015-02-17 16:44:49.394493";"2015-02-17 16:44:49.400352"
143;"Zadar";"zadar";"Zadarska";"Croatia";"croatia";"HR";44.11972;15.24222;"2015-02-17 16:44:49.394493";"2015-02-17 16:44:49.400352"
144;"Boaco";"boaco";"Boaco";"Nicaragua";"nicaragua";"NI";12.47224;-85.6586;"2015-02-17 16:44:49.394493";"2015-02-17 16:44:49.400352"
145;"Votorantim";"votorantim";"sao paulo";"brasil";"brasil";"BR";-23.547;-47.438;"2015-02-17 16:44:49.394493";"2015-02-17 16:44:49.400352"
146;"Boa Esperança do Iguaçu";"boa esperanca do iguacu";"parana";"brasil";"brasil";"BR";-25.636;-53.212;"2015-02-17 16:44:49.394493";"2015-02-17 16:44:49.400352"
147;"Campo Largo";"campo largo";"parana";"brasil";"brasil";"BR";-25.459;-49.528;"2015-02-17 16:44:49.394493";"2015-02-17 16:44:49.400352"
148;"São José dos Campos";"sao jose dos campos";"sao paulo";"brasil";"brasil";"BR";-23.179;-45.887;"2015-02-17 16:44:49.394493";"2015-02-17 16:44:49.400352"
149;"Malta";"malta";"paraiba";"brasil";"brasil";"BR";-6.904;-37.522;"2015-02-17 16:44:49.394493";"2015-02-17 16:44:49.400352"
150;"João Pessoa";"joao pessoa";"paraiba";"brasil";"brasil";"BR";-7.115;-34.863;"2015-02-17 16:44:49.394493";"2015-02-17 16:44:49.400352"
151;"Jundiaí";"jundiai";"sao paulo";"brasil";"brasil";"BR";-23.186;-46.884;"2015-02-17 16:44:49.394493";"2015-02-17 16:44:49.400352"
152;"Aschaffenburg";"aschaffenburg";"Bavaria";"Germany";"germany";"DE";49.97704;9.15214;"2015-02-17 16:44:49.394493";"2015-02-17 16:44:49.400352"
153;"Toulouse";"toulouse";"Midi-Pyrénées";"France";"france";"FR";43.60426;1.44367;"2015-02-17 16:44:49.394493";"2015-02-17 16:44:49.400352"
154;"Holguín";"holguin";"Holguín";"Cuba";"cuba";"CU";20.88722;-76.26306;"2015-02-17 16:44:49.394493";"2015-02-17 16:44:49.400352"
155;"Crissiumal";"crissiumal";"rio grande do sul";"brasil";"brasil";"BR";-27.5;-54.101;"2015-02-17 16:44:49.394493";"2015-02-17 16:44:49.400352"
156;"Ponte Nova";"ponte nova";"minas gerais";"brasil";"brasil";"BR";-20.416;-42.909;"2015-02-17 16:44:49.394493";"2015-02-17 16:44:49.400352"
157;"Cambuí";"cambui";"minas gerais";"brasil";"brasil";"BR";-22.612;-46.058;"2015-02-17 16:44:49.394493";"2015-02-17 16:44:49.400352"
158;"Manacapuru";"manacapuru";"amazonas";"brasil";"brasil";"BR";-3.3;-60.621;"2015-02-17 16:44:49.394493";"2015-02-17 16:44:49.400352"
159;"Varanasi";"varanasi";"Uttar Pradesh";"India";"india";"IN";25.31668;83.01041;"2015-02-17 16:44:49.394493";"2015-02-17 16:44:49.400352"
160;"Tucunduva";"tucunduva";"rio grande do sul";"brasil";"brasil";"BR";-27.657;-54.44;"2015-02-17 16:44:49.394493";"2015-02-17 16:44:49.400352"
161;"Bangalore";"bangalore";"Karnātaka";"India";"india";"IN";12.97194;77.59369;"2015-02-17 16:44:49.394493";"2015-02-17 16:44:49.400352"
162;"Brest";"brest";"Brestskaya Voblastsʼ";"Belarus";"belarus";"BY";52.09755;23.68775;"2015-02-17 16:44:49.394493";"2015-02-17 16:44:49.400352"
163;"Codó";"codo";"maranhao";"brasil";"brasil";"BR";-4.455;-43.886;"2015-02-17 16:44:49.394493";"2015-02-17 16:44:49.400352"
164;"Andradina";"andradina";"sao paulo";"brasil";"brasil";"BR";-20.896;-51.379;"2015-02-17 16:44:49.394493";"2015-02-17 16:44:49.400352"
165;"Três Rios";"tres rios";"rio de janeiro";"brasil";"brasil";"BR";-22.117;-43.209;"2015-02-17 16:44:49.394493";"2015-02-17 16:44:49.400352"
166;"Dourados";"dourados";"mato grosso do sul";"brasil";"brasil";"BR";-22.221;-54.806;"2015-02-17 16:44:49.394493";"2015-02-17 16:44:49.400352"
167;"Seberi";"seberi";"rio grande do sul";"brasil";"brasil";"BR";-27.478;-53.403;"2015-02-17 16:44:49.394493";"2015-02-17 16:44:49.400352"
168;"Medianeira";"medianeira";"parana";"brasil";"brasil";"BR";-25.295;-54.094;"2015-02-17 16:44:49.394493";"2015-02-17 16:44:49.400352"
169;"Diamantina";"diamantina";"minas gerais";"brasil";"brasil";"BR";-18.249;-43.6;"2015-02-17 16:44:49.394493";"2015-02-17 16:44:49.400352"
170;"Juiz de Fora";"juiz de fora";"minas gerais";"brasil";"brasil";"BR";-21.764;-43.35;"2015-02-17 16:44:49.394493";"2015-02-17 16:44:49.400352"
171;"Cristalândia";"cristalandia";"tocantins";"brasil";"brasil";"BR";-10.6;-49.193;"2015-02-17 16:44:49.394493";"2015-02-17 16:44:49.400352"
172;"Baependi";"baependi";"minas gerais";"brasil";"brasil";"BR";-21.959;-44.89;"2015-02-17 16:44:49.394493";"2015-02-17 16:44:49.400352"
173;"Haarlem";"haarlem";"North Holland";"Netherlands";"netherlands";"NL";52.38084;4.63683;"2015-02-17 16:44:49.394493";"2015-02-17 16:44:49.400352"
174;"Olímpia";"olimpia";"sao paulo";"brasil";"brasil";"BR";-20.737;-48.915;"2015-02-17 16:44:49.394493";"2015-02-17 16:44:49.400352"
175;"Niterói";"niteroi";"rio de janeiro";"brasil";"brasil";"BR";-22.883;-43.104;"2015-02-17 16:44:49.394493";"2015-02-17 16:44:49.400352"
176;"Quetzaltenango";"quetzaltenango";"Quetzaltenango";"Guatemala";"guatemala";"GT";14.83472;-91.51806;"2015-02-17 16:44:49.394493";"2015-02-17 16:44:49.400352"
177;"Paranavaí";"paranavai";"parana";"brasil";"brasil";"BR";-23.073;-52.465;"2015-02-17 16:44:49.394493";"2015-02-17 16:44:49.400352"
178;"Freiburg";"freiburg";"Baden-Württemberg Region";"Germany";"germany";"DE";47.9959;7.85222;"2015-02-17 16:44:49.394493";"2015-02-17 16:44:49.400352"
179;"Santa Clara";"santa clara";"Villa Clara";"Cuba";"cuba";"CU";22.4;-79.96667;"2015-02-17 16:44:49.394493";"2015-02-17 16:44:49.400352"
180;"Salvador";"salvador";"bahia";"brasil";"brasil";"BR";-12.971;-38.511;"2015-02-17 16:44:49.394493";"2015-02-17 16:44:49.400352"
181;"Piracicaba";"piracicaba";"sao paulo";"brasil";"brasil";"BR";-22.725;-47.649;"2015-02-17 16:44:49.394493";"2015-02-17 16:44:49.400352"
182;"Campos Gerais";"campos gerais";"minas gerais";"brasil";"brasil";"BR";-21.235;-45.759;"2015-02-17 16:44:49.394493";"2015-02-17 16:44:49.400352"
183;"Ervália";"ervalia";"minas gerais";"brasil";"brasil";"BR";-20.84;-42.657;"2015-02-17 16:44:49.394493";"2015-02-17 16:44:49.400352"
184;"Florianópolis";"florianopolis";"santa catarina";"brasil";"brasil";"BR";-27.597;-48.549;"2015-02-17 16:44:49.394493";"2015-02-17 16:44:49.400352"
185;"Nova Cruz";"nova cruz";"rio grande do norte";"brasil";"brasil";"BR";-6.478;-35.434;"2015-02-17 16:44:49.394493";"2015-02-17 16:44:49.400352"
186;"Warwick";"warwick";"England";"United Kingdom";"united kingdom";"GB";52.28333;-1.58333;"2015-02-17 16:44:49.394493";"2015-02-17 16:44:49.400352"
187;"Juazeiro";"juazeiro";"bahia";"brasil";"brasil";"BR";-9.414;-40.503;"2015-02-17 16:44:49.394493";"2015-02-17 16:44:49.400352"
188;"Itumirim";"itumirim";"minas gerais";"brasil";"brasil";"BR";-21.317;-44.871;"2015-02-17 16:44:49.394493";"2015-02-17 16:44:49.400352"
189;"Goiandira";"goiandira";"goias";"brasil";"brasil";"BR";-18.133;-48.085;"2015-02-17 16:44:49.394493";"2015-02-17 16:44:49.400352"
190;"Uberlândia";"uberlandia";"minas gerais";"brasil";"brasil";"BR";-18.919;-48.277;"2015-02-17 16:44:49.394493";"2015-02-17 16:44:49.400352"
191;"Esperança";"esperanca";"paraiba";"brasil";"brasil";"BR";-7.023;-35.86;"2015-02-17 16:44:49.394493";"2015-02-17 16:44:49.400352"
192;"Parnaíba";"parnaiba";"piaui";"brasil";"brasil";"BR";-2.905;-41.777;"2015-02-17 16:44:49.394493";"2015-02-17 16:44:49.400352"
193;"São João da Boa Vista";"sao joao da boa vista";"sao paulo";"brasil";"brasil";"BR";-21.969;-46.798;"2015-02-17 16:44:49.394493";"2015-02-17 16:44:49.400352"
194;"Teresina";"teresina";"piaui";"brasil";"brasil";"BR";-5.089;-42.802;"2015-02-17 16:44:49.394493";"2015-02-17 16:44:49.400352"
195;"Medellín";"medellin";"Departamento de Antioquia";"Colombia";"colombia";"CO";6.25184;-75.56359;"2015-02-17 16:44:49.394493";"2015-02-17 16:44:49.400352"
196;"São Luís";"sao luis";"maranhao";"brasil";"brasil";"BR";-2.53;-44.303;"2015-02-17 16:44:49.394493";"2015-02-17 16:44:49.400352"
197;"Dijon";"dijon";"Bourgogne";"France";"france";"FR";47.31667;5.01667;"2015-02-17 16:44:49.394493";"2015-02-17 16:44:49.400352"
198;"Linz";"linz";"Upper Austria";"Austria";"austria";"AT";48.30639;14.28611;"2015-02-17 16:44:49.394493";"2015-02-17 16:44:49.400352"
199;"Frankfurt am Main";"frankfurt am main";"Hesse";"Germany";"germany";"DE";50.11552;8.68417;"2015-02-17 16:44:49.394493";"2015-02-17 16:44:49.400352"
200;"Caxias do Sul";"caxias do sul";"rio grande do sul";"brasil";"brasil";"BR";-29.168;-51.179;"2015-02-17 16:44:49.394493";"2015-02-17 16:44:49.400352"
201;"Rosario";"rosario";"Santa Fe";"Argentina";"argentina";"AR";-32.94682;-60.63932;"2015-02-17 16:44:49.394493";"2015-02-17 16:44:49.400352"
202;"Juara";"juara";"mato grosso";"brasil";"brasil";"BR";-11.255;-57.52;"2015-02-17 16:44:49.394493";"2015-02-17 16:44:49.400352"
203;"Ijuí";"ijui";"rio grande do sul";"brasil";"brasil";"BR";-28.388;-53.915;"2015-02-17 16:44:49.394493";"2015-02-17 16:44:49.400352"
204;"Jales";"jales";"sao paulo";"brasil";"brasil";"BR";-20.269;-50.546;"2015-02-17 16:44:49.394493";"2015-02-17 16:44:49.400352"
205;"Presidente Prudente";"presidente prudente";"sao paulo";"brasil";"brasil";"BR";-22.126;-51.389;"2015-02-17 16:44:49.394493";"2015-02-17 16:44:49.400352"
206;"Santa Fé do Sul";"santa fe do sul";"sao paulo";"brasil";"brasil";"BR";-20.211;-50.926;"2015-02-17 16:44:49.394493";"2015-02-17 16:44:49.400352"
207;"Campo Belo";"campo belo";"minas gerais";"brasil";"brasil";"BR";-20.897;-45.277;"2015-02-17 16:44:49.394493";"2015-02-17 16:44:49.400352"
208;"Cambé";"cambe";"parana";"brasil";"brasil";"BR";-23.276;-51.278;"2015-02-17 16:44:49.394493";"2015-02-17 16:44:49.400352"
209;"São Manuel";"sao manuel";"sao paulo";"brasil";"brasil";"BR";-22.731;-48.571;"2015-02-17 16:44:49.394493";"2015-02-17 16:44:49.400352"
210;"Huancayo";"huancayo";"Junín";"Peru";"peru";"PE";-12.06513;-75.20486;"2015-02-17 16:44:49.394493";"2015-02-17 16:44:49.400352"
211;"Pirajuí";"pirajui";"sao paulo";"brasil";"brasil";"BR";-21.999;-49.457;"2015-02-17 16:44:49.394493";"2015-02-17 16:44:49.400352"
212;"Carmo do Paranaíba";"carmo do paranaiba";"minas gerais";"brasil";"brasil";"BR";-19.001;-46.316;"2015-02-17 16:44:49.394493";"2015-02-17 16:44:49.400352"
213;"Burton upon Trent";"burton upon trent";"England";"United Kingdom";"united kingdom";"GB";52.80728;-1.64263;"2015-02-17 16:44:49.394493";"2015-02-17 16:44:49.400352"
214;"Adamantina";"adamantina";"sao paulo";"brasil";"brasil";"BR";-21.685;-51.073;"2015-02-17 16:44:49.394493";"2015-02-17 16:44:49.400352"
215;"Carazinho";"carazinho";"rio grande do sul";"brasil";"brasil";"BR";-28.284;-52.786;"2015-02-17 16:44:49.394493";"2015-02-17 16:44:49.400352"
216;"Tibau do Sul";"tibau do sul";"rio grande do norte";"brasil";"brasil";"BR";-6.187;-35.092;"2015-02-17 16:44:49.394493";"2015-02-17 16:44:49.400352"
217;"Passo Fundo";"passo fundo";"rio grande do sul";"brasil";"brasil";"BR";-28.263;-52.407;"2015-02-17 16:44:49.394493";"2015-02-17 16:44:49.400352"
218;"Talcahuano";"talcahuano";"Biobío";"Chile";"chile";"CL";-36.72494;-73.11684;"2015-02-17 16:44:49.394493";"2015-02-17 16:44:49.400352"
219;"Maceió";"maceio";"alagoas";"brasil";"brasil";"BR";-9.666;-35.735;"2015-02-17 16:44:49.394493";"2015-02-17 16:44:49.400352"
220;"Garibaldi";"garibaldi";"rio grande do sul";"brasil";"brasil";"BR";-29.256;-51.534;"2015-02-17 16:44:49.394493";"2015-02-17 16:44:49.400352"
221;"Adolfo";"adolfo";"sao paulo";"brasil";"brasil";"BR";-21.235;-49.644;"2015-02-17 16:44:49.394493";"2015-02-17 16:44:49.400352"
222;"Frauenfeld";"frauenfeld";"Thurgau";"Switzerland";"switzerland";"CH";47.55816;8.89854;"2015-02-17 16:44:49.394493";"2015-02-17 16:44:49.400352"
223;"Joaçaba";"joacaba";"santa catarina";"brasil";"brasil";"BR";-27.178;-51.505;"2015-02-17 16:44:49.394493";"2015-02-17 16:44:49.400352"
224;"Sorocaba";"sorocaba";"sao paulo";"brasil";"brasil";"BR";-23.502;-47.458;"2015-02-17 16:44:49.394493";"2015-02-17 16:44:49.400352"
225;"Piumhi";"piumhi";"minas gerais";"brasil";"brasil";"BR";-20.465;-45.958;"2015-02-17 16:44:49.394493";"2015-02-17 16:44:49.400352"
226;"Leszno";"leszno";"Greater Poland Voivodeship";"Poland";"poland";"PL";51.84034;16.57494;"2015-02-17 16:44:49.394493";"2015-02-17 16:44:49.400352"
227;"Patos";"patos";"paraiba";"brasil";"brasil";"BR";-7.024;-37.28;"2015-02-17 16:44:49.394493";"2015-02-17 16:44:49.400352"
228;"Alexandria";"alexandria";"Alexandria";"Egypt";"egypt";"EG";31.21564;29.95527;"2015-02-17 16:44:49.394493";"2015-02-17 16:44:49.400352"
229;"Manzanillo";"manzanillo";"Granma";"Cuba";"cuba";"CU";20.34333;-77.11667;"2015-02-17 16:44:49.394493";"2015-02-17 16:44:49.400352"
230;"São Caetano do Sul";"sao caetano do sul";"sao paulo";"brasil";"brasil";"BR";-23.623;-46.551;"2015-02-17 16:44:49.394493";"2015-02-17 16:44:49.400352"
231;"Cariús";"carius";"ceara";"brasil";"brasil";"BR";-6.537;-39.497;"2015-02-17 16:44:49.394493";"2015-02-17 16:44:49.400352"
232;"Raul Soares";"raul soares";"minas gerais";"brasil";"brasil";"BR";-20.102;-42.453;"2015-02-17 16:44:49.394493";"2015-02-17 16:44:49.400352"
233;"Mexico";"mexico";"Central Luzon";"Philippines";"philippines";"PH";15.0646;120.7198;"2015-02-17 16:44:49.394493";"2015-02-17 16:44:49.400352"
234;"Bauru";"bauru";"sao paulo";"brasil";"brasil";"BR";-22.315;-49.061;"2015-02-17 16:44:49.394493";"2015-02-17 16:44:49.400352"
235;"Assis";"assis";"sao paulo";"brasil";"brasil";"BR";-22.662;-50.412;"2015-02-17 16:44:49.394493";"2015-02-17 16:44:49.400352"
236;"São Luiz";"sao luiz";"roraima";"brasil";"brasil";"BR";1.005;-60.159;"2015-02-17 16:44:49.394493";"2015-02-17 16:44:49.400352"
237;"Camaragibe";"camaragibe";"pernambuco";"brasil";"brasil";"BR";-8.022;-34.981;"2015-02-17 16:44:49.394493";"2015-02-17 16:44:49.400352"
238;"Vila Velha";"vila velha";"espirito Santo";"brasil";"brasil";"BR";-20.33;-40.292;"2015-02-17 16:44:49.394493";"2015-02-17 16:44:49.400352"
239;"Caeté";"caete";"minas gerais";"brasil";"brasil";"BR";-19.88;-43.67;"2015-02-17 16:44:49.394493";"2015-02-17 16:44:49.400352"
240;"Jacarezinho";"jacarezinho";"parana";"brasil";"brasil";"BR";-23.161;-49.969;"2015-02-17 16:44:49.394493";"2015-02-17 16:44:49.400352"
241;"Wiesbaden";"wiesbaden";"Hesse";"Germany";"germany";"DE";50.08258;8.24932;"2015-02-17 16:44:49.394493";"2015-02-17 16:44:49.400352"
242;"Porto Ferreira";"porto ferreira";"sao paulo";"brasil";"brasil";"BR";-21.854;-47.479;"2015-02-17 16:44:49.394493";"2015-02-17 16:44:49.400352"
243;"Canoas";"canoas";"rio grande do sul";"brasil";"brasil";"BR";-29.918;-51.184;"2015-02-17 16:44:49.394493";"2015-02-17 16:44:49.400352"
244;"Guaratinguetá";"guaratingueta";"sao paulo";"brasil";"brasil";"BR";-22.816;-45.193;"2015-02-17 16:44:49.394493";"2015-02-17 16:44:49.400352"
245;"Guararema";"guararema";"sao paulo";"brasil";"brasil";"BR";-23.415;-46.035;"2015-02-17 16:44:49.394493";"2015-02-17 16:44:49.400352"
246;"Galveston";"galveston";"Texas";"United States";"united states";"US";29.30135;-94.7977;"2015-02-17 16:44:49.394493";"2015-02-17 16:44:49.400352"
247;"Bela Vista do Paraíso";"bela vista do paraiso";"parana";"brasil";"brasil";"BR";-22.997;-51.191;"2015-02-17 16:44:49.394493";"2015-02-17 16:44:49.400352"
248;"João Alfredo";"joao alfredo";"pernambuco";"brasil";"brasil";"BR";-7.856;-35.588;"2015-02-17 16:44:49.394493";"2015-02-17 16:44:49.400352"
249;"Santa Cruz do Rio Pardo";"santa cruz do rio pardo";"sao paulo";"brasil";"brasil";"BR";-22.899;-49.633;"2015-02-17 16:44:49.394493";"2015-02-17 16:44:49.400352"
250;"Mogi das Cruzes";"mogi das cruzes";"sao paulo";"brasil";"brasil";"BR";-23.523;-46.188;"2015-02-17 16:44:49.394493";"2015-02-17 16:44:49.400352"
251;"Alfenas";"alfenas";"minas gerais";"brasil";"brasil";"BR";-21.429;-45.947;"2015-02-17 16:44:49.394493";"2015-02-17 16:44:49.400352"
252;"Hamburg";"hamburg";"Free and Hanseatic City of Hamburg";"Germany";"germany";"DE";53.57532;10.01534;"2015-02-17 16:44:49.394493";"2015-02-17 16:44:49.400352"
253;"Leeds";"leeds";"England";"United Kingdom";"united kingdom";"GB";53.79648;-1.54785;"2015-02-17 16:44:49.394493";"2015-02-17 16:44:49.400352"
254;"Porto União";"porto uniao";"santa catarina";"brasil";"brasil";"BR";-26.238;-51.078;"2015-02-17 16:44:49.394493";"2015-02-17 16:44:49.400352"
255;"Güira de Melena";"guira de melena";"Provincia Artemisa";"Cuba";"cuba";"CU";22.79274;-82.50823;"2015-02-17 16:44:49.394493";"2015-02-17 16:44:49.400352"
256;"Joinville";"joinville";"santa catarina";"brasil";"brasil";"BR";-26.304;-48.846;"2015-02-17 16:44:49.394493";"2015-02-17 16:44:49.400352"
257;"Tucson";"tucson";"Arizona";"United States";"united states";"US";32.22174;-110.92648;"2015-02-17 16:44:49.394493";"2015-02-17 16:44:49.400352"
258;"Rabat";"rabat";"Rabat-Salé-Zemmour-Zaër";"Morocco";"morocco";"MA";34.01325;-6.83255;"2015-02-17 16:44:49.394493";"2015-02-17 16:44:49.400352"
259;"Wellington";"wellington";"Wellington";"New Zealand";"new zealand";"NZ";-41.28664;174.77557;"2015-02-17 16:44:49.394493";"2015-02-17 16:44:49.400352"
260;"Nova Canaã";"nova canaa";"bahia";"brasil";"brasil";"BR";-14.794;-40.142;"2015-02-17 16:44:49.394493";"2015-02-17 16:44:49.400352"
261;"Faxinal do Soturno";"faxinal do soturno";"rio grande do sul";"brasil";"brasil";"BR";-29.575;-53.445;"2015-02-17 16:44:49.394493";"2015-02-17 16:44:49.400352"
262;"Lages";"lages";"santa catarina";"brasil";"brasil";"BR";-27.816;-50.326;"2015-02-17 16:44:49.394493";"2015-02-17 16:44:49.400352"
263;"São Borja";"sao borja";"rio grande do sul";"brasil";"brasil";"BR";-28.661;-56.004;"2015-02-17 16:44:49.394493";"2015-02-17 16:44:49.400352"
264;"Itapetininga";"itapetininga";"sao paulo";"brasil";"brasil";"BR";-23.592;-48.053;"2015-02-17 16:44:49.394493";"2015-02-17 16:44:49.400352"
265;"Rio Pomba";"rio pomba";"minas gerais";"brasil";"brasil";"BR";-21.275;-43.179;"2015-02-17 16:44:49.394493";"2015-02-17 16:44:49.400352"
266;"Água Santa";"agua santa";"rio grande do sul";"brasil";"brasil";"BR";-28.177;-52.034;"2015-02-17 16:44:49.394493";"2015-02-17 16:44:49.400352"
267;"Senhor do Bonfim";"senhor do bonfim";"bahia";"brasil";"brasil";"BR";-10.463;-40.191;"2015-02-17 16:44:49.394493";"2015-02-17 16:44:49.400352"
268;"Fênix";"fenix";"parana";"brasil";"brasil";"BR";-23.916;-51.979;"2015-02-17 16:44:49.394493";"2015-02-17 16:44:49.400352"
269;"Mombaça";"mombaca";"ceara";"brasil";"brasil";"BR";-5.743;-39.628;"2015-02-17 16:44:49.394493";"2015-02-17 16:44:49.400352"
270;"Crato";"crato";"ceara";"brasil";"brasil";"BR";-7.234;-39.409;"2015-02-17 16:44:49.394493";"2015-02-17 16:44:49.400352"
271;"Vila Real";"vila real";"Vila Real";"Portugal";"portugal";"PT";41.30062;-7.74413;"2015-02-17 16:44:49.394493";"2015-02-17 16:44:49.400352"
272;"Alto Piquiri";"alto piquiri";"parana";"brasil";"brasil";"BR";-24.028;-53.441;"2015-02-17 16:44:49.394493";"2015-02-17 16:44:49.400352"
273;"São José do Rio Preto";"sao jose do rio preto";"sao paulo";"brasil";"brasil";"BR";-20.82;-49.379;"2015-02-17 16:44:49.394493";"2015-02-17 16:44:49.400352"
274;"Belfast";"belfast";"N Ireland";"United Kingdom";"united kingdom";"GB";54.58333;-5.93333;"2015-02-17 16:44:49.394493";"2015-02-17 16:44:49.400352"
275;"Santiago del Estero";"santiago del estero";"Santiago del Estero";"Argentina";"argentina";"AR";-27.79511;-64.26149;"2015-02-17 16:44:49.394493";"2015-02-17 16:44:49.400352"
276;"Quimper";"quimper";"Brittany";"France";"france";"FR";48;-4.1;"2015-02-17 16:44:49.394493";"2015-02-17 16:44:49.400352"
277;"Frederico Westphalen";"frederico westphalen";"rio grande do sul";"brasil";"brasil";"BR";-27.359;-53.394;"2015-02-17 16:44:49.394493";"2015-02-17 16:44:49.400352"
278;"Oslo";"oslo";"Oslo County";"Norway";"norway";"NO";59.91273;10.74609;"2015-02-17 16:44:49.394493";"2015-02-17 16:44:49.400352"
279;"Campina Grande";"campina grande";"paraiba";"brasil";"brasil";"BR";-7.231;-35.881;"2015-02-17 16:44:49.394493";"2015-02-17 16:44:49.400352"
280;"Lyon";"lyon";"Rhône-Alpes";"France";"france";"FR";45.74846;4.84671;"2015-02-17 16:44:49.394493";"2015-02-17 16:44:49.400352"
281;"São Pedro do Sul";"sao pedro do sul";"rio grande do sul";"brasil";"brasil";"BR";-29.621;-54.179;"2015-02-17 16:44:49.394493";"2015-02-17 16:44:49.400352"
282;"Rolândia";"rolandia";"parana";"brasil";"brasil";"BR";-23.31;-51.369;"2015-02-17 16:44:49.394493";"2015-02-17 16:44:49.400352"
283;"Bacabal";"bacabal";"maranhao";"brasil";"brasil";"BR";-4.225;-44.78;"2015-02-17 16:44:49.394493";"2015-02-17 16:44:49.400352"
284;"Brasiléia";"brasileia";"acre";"brasil";"brasil";"BR";-11.01;-68.748;"2015-02-17 16:44:49.394493";"2015-02-17 16:44:49.400352"
285;"Caruaru";"caruaru";"pernambuco";"brasil";"brasil";"BR";-8.283;-35.976;"2015-02-17 16:44:49.394493";"2015-02-17 16:44:49.400352"
286;"Baturité";"baturite";"ceara";"brasil";"brasil";"BR";-4.329;-38.885;"2015-02-17 16:44:49.394493";"2015-02-17 16:44:49.400352"
287;"Orlândia";"orlandia";"sao paulo";"brasil";"brasil";"BR";-20.72;-47.887;"2015-02-17 16:44:49.394493";"2015-02-17 16:44:49.400352"
288;"Pedro Osório";"pedro osorio";"rio grande do sul";"brasil";"brasil";"BR";-31.864;-52.823;"2015-02-17 16:44:49.394493";"2015-02-17 16:44:49.400352"
289;"Turvânia";"turvania";"goias";"brasil";"brasil";"BR";-16.614;-50.134;"2015-02-17 16:44:49.394493";"2015-02-17 16:44:49.400352"
290;"Santo Ângelo";"santo angelo";"rio grande do sul";"brasil";"brasil";"BR";-28.299;-54.263;"2015-02-17 16:44:49.394493";"2015-02-17 16:44:49.400352"
291;"Ubajara";"ubajara";"ceara";"brasil";"brasil";"BR";-3.854;-40.921;"2015-02-17 16:44:49.394493";"2015-02-17 16:44:49.400352"
292;"Rio do Sul";"rio do sul";"santa catarina";"brasil";"brasil";"BR";-27.214;-49.643;"2015-02-17 16:44:49.394493";"2015-02-17 16:44:49.400352"
293;"Santa Bárbara do Sul";"santa barbara do sul";"rio grande do sul";"brasil";"brasil";"BR";-28.358;-53.247;"2015-02-17 16:44:49.394493";"2015-02-17 16:44:49.400352"
294;"Presidente Olegário";"presidente olegario";"minas gerais";"brasil";"brasil";"BR";-18.418;-46.418;"2015-02-17 16:44:49.394493";"2015-02-17 16:44:49.400352"
295;"Boa Esperança do Sul";"boa esperanca do sul";"sao paulo";"brasil";"brasil";"BR";-21.993;-48.391;"2015-02-17 16:44:49.394493";"2015-02-17 16:44:49.400352"
296;"Marília";"marilia";"sao paulo";"brasil";"brasil";"BR";-22.214;-49.946;"2015-02-17 16:44:49.394493";"2015-02-17 16:44:49.400352"
297;"Aracaju";"aracaju";"sergipe";"brasil";"brasil";"BR";-10.911;-37.072;"2015-02-17 16:44:49.394493";"2015-02-17 16:44:49.400352"
298;"Pouso Alegre";"pouso alegre";"minas gerais";"brasil";"brasil";"BR";-22.23;-45.936;"2015-02-17 16:44:49.394493";"2015-02-17 16:44:49.400352"
299;"Irituia";"irituia";"para";"brasil";"brasil";"BR";-1.769;-47.439;"2015-02-17 16:44:49.394493";"2015-02-17 16:44:49.400352"
300;"Lambari";"lambari";"minas gerais";"brasil";"brasil";"BR";-21.976;-45.35;"2015-02-17 16:44:49.394493";"2015-02-17 16:44:49.400352"
301;"Capivari";"capivari";"sao paulo";"brasil";"brasil";"BR";-22.995;-47.508;"2015-02-17 16:44:49.394493";"2015-02-17 16:44:49.400352"
302;"Sapeaçu";"sapeacu";"bahia";"brasil";"brasil";"BR";-12.728;-39.182;"2015-02-17 16:44:49.394493";"2015-02-17 16:44:49.400352"
303;"Lavras";"lavras";"minas gerais";"brasil";"brasil";"BR";-21.245;-45;"2015-02-17 16:44:49.394493";"2015-02-17 16:44:49.400352"
304;"Barra Mansa";"barra mansa";"rio de janeiro";"brasil";"brasil";"BR";-22.544;-44.171;"2015-02-17 16:44:49.394493";"2015-02-17 16:44:49.400352"
305;"Feira de Santana";"feira de santana";"bahia";"brasil";"brasil";"BR";-12.267;-38.967;"2015-02-17 16:44:49.394493";"2015-02-17 16:44:49.400352"
306;"Poços de Caldas";"pocos de caldas";"minas gerais";"brasil";"brasil";"BR";-21.788;-46.561;"2015-02-17 16:44:49.394493";"2015-02-17 16:44:49.400352"
307;"São João del Rei";"sao joao del rei";"minas gerais";"brasil";"brasil";"BR";-21.136;-44.262;"2015-02-17 16:44:49.394493";"2015-02-17 16:44:49.400352"
308;"Petrópolis";"petropolis";"rio de janeiro";"brasil";"brasil";"BR";-22.505;-43.179;"2015-02-17 16:44:49.394493";"2015-02-17 16:44:49.400352"
309;"Boulogne-Billancourt";"boulogne-billancourt";"Île-de-France";"France";"france";"FR";48.83333;2.25;"2015-02-17 16:44:49.394493";"2015-02-17 16:44:49.400352"
310;"Paramaribo";"paramaribo";"Paramaribo";"Suriname";"suriname";"SR";5.86638;-55.16682;"2015-02-17 16:44:49.394493";"2015-02-17 16:44:49.400352"
311;"León";"leon";"Castille and León";"Spain";"spain";"ES";42.60003;-5.57032;"2015-02-17 16:44:49.394493";"2015-02-17 16:44:49.400352"
312;"Anicuns";"anicuns";"goias";"brasil";"brasil";"BR";-16.461;-49.962;"2015-02-17 16:44:49.394493";"2015-02-17 16:44:49.400352"
313;"Uberaba";"uberaba";"minas gerais";"brasil";"brasil";"BR";-19.748;-47.932;"2015-02-17 16:44:49.394493";"2015-02-17 16:44:49.400352"
314;"Uruguaiana";"uruguaiana";"rio grande do sul";"brasil";"brasil";"BR";-29.755;-57.088;"2015-02-17 16:44:49.394493";"2015-02-17 16:44:49.400352"
315;"Tupã";"tupa";"sao paulo";"brasil";"brasil";"BR";-21.935;-50.514;"2015-02-17 16:44:49.394493";"2015-02-17 16:44:49.400352"
316;"Oruro";"oruro";"Oruro";"Bolivia";"bolivia";"BO";-17.98333;-67.15;"2015-02-17 16:44:49.394493";"2015-02-17 16:44:49.400352"
317;"Padova";"padova";"Veneto";"Italy";"italy";"IT";45.40797;11.88586;"2015-02-17 16:44:49.394493";"2015-02-17 16:44:49.400352"
318;"Loures";"loures";"Lisbon";"Portugal";"portugal";"PT";38.83091;-9.16845;"2015-02-17 16:44:49.394493";"2015-02-17 16:44:49.400352"
319;"Nova Roma";"nova roma";"goias";"brasil";"brasil";"BR";-13.742;-46.88;"2015-02-17 16:44:49.394493";"2015-02-17 16:44:49.400352"
320;"Curepipe";"curepipe";"Plaines Wilhems";"Mauritius";"mauritius";"MU";-20.31472;57.52028;"2015-02-17 16:44:49.394493";"2015-02-17 16:44:49.400352"
321;"Treinta y Tres";"treinta y tres";"Treinta y Tres";"Uruguay";"uruguay";"UY";-33.23333;-54.38333;"2015-02-17 16:44:49.394493";"2015-02-17 16:44:49.400352"
322;"Beijing";"beijing";"Beijing";"China";"china";"CN";39.9075;116.39723;"2015-02-17 16:44:49.394493";"2015-02-17 16:44:49.400352"
323;"Quirinópolis";"quirinopolis";"goias";"brasil";"brasil";"BR";-18.448;-50.452;"2015-02-17 16:44:49.394493";"2015-02-17 16:44:49.400352"
324;"Coburg";"coburg";"Bavaria";"Germany";"germany";"DE";50.25937;10.96384;"2015-02-17 16:44:49.394493";"2015-02-17 16:44:49.400352"
325;"Cartagena";"cartagena";"Bolívar";"Colombia";"colombia";"CO";10.39972;-75.51444;"2015-02-17 16:44:49.394493";"2015-02-17 16:44:49.400352"
326;"Macieira";"macieira";"santa catarina";"brasil";"brasil";"BR";-26.856;-51.378;"2015-02-17 16:44:49.394493";"2015-02-17 16:44:49.400352"
327;"Sūrat";"surat";"Gujarāt";"India";"india";"IN";21.19594;72.83023;"2015-02-17 16:44:49.394493";"2015-02-17 16:44:49.400352"
328;"Rondinha";"rondinha";"rio grande do sul";"brasil";"brasil";"BR";-27.828;-52.91;"2015-02-17 16:44:49.394493";"2015-02-17 16:44:49.400352"
329;"Águas da Prata";"aguas da prata";"sao paulo";"brasil";"brasil";"BR";-21.937;-46.717;"2015-02-17 16:44:49.394493";"2015-02-17 16:44:49.400352"
330;"Nova Xavantina";"nova xavantina";"mato grosso";"brasil";"brasil";"BR";-14.673;-52.353;"2015-02-17 16:44:49.394493";"2015-02-17 16:44:49.400352"
331;"Terezinha";"terezinha";"pernambuco";"brasil";"brasil";"BR";-9.056;-36.623;"2015-02-17 16:44:49.394493";"2015-02-17 16:44:49.400352"
332;"Taipei";"taipei";"Taipei";"Taiwan";"taiwan";"TW";25.04776;121.53185;"2015-02-17 16:44:49.394493";"2015-02-17 16:44:49.400352"
333;"Vigo";"vigo";"Galicia";"Spain";"spain";"ES";42.23282;-8.72264;"2015-02-17 16:44:49.394493";"2015-02-17 16:44:49.400352"
334;"Cosmópolis";"cosmopolis";"sao paulo";"brasil";"brasil";"BR";-22.646;-47.196;"2015-02-17 16:44:49.394493";"2015-02-17 16:44:49.400352"
335;"Campina das Missões";"campina das missoes";"rio grande do sul";"brasil";"brasil";"BR";-27.989;-54.839;"2015-02-17 16:44:49.394493";"2015-02-17 16:44:49.400352"
336;"Sanok";"sanok";"Subcarpathian Voivodeship";"Poland";"poland";"PL";49.55573;22.2056;"2015-02-17 16:44:49.394493";"2015-02-17 16:44:49.400352"
337;"Sogamoso";"sogamoso";"Boyacá";"Colombia";"colombia";"CO";5.71434;-72.93391;"2015-02-17 16:44:49.394493";"2015-02-17 16:44:49.400352"
338;"Magé";"mage";"rio de janeiro";"brasil";"brasil";"BR";-22.653;-43.041;"2015-02-17 16:44:49.394493";"2015-02-17 16:44:49.400352"
339;"Jaú";"jau";"sao paulo";"brasil";"brasil";"BR";-22.296;-48.558;"2015-02-17 16:44:49.394493";"2015-02-17 16:44:49.400352"
340;"Mangaratiba";"mangaratiba";"rio de janeiro";"brasil";"brasil";"BR";-22.96;-44.041;"2015-02-17 16:44:49.394493";"2015-02-17 16:44:49.400352"
341;"Martins";"martins";"rio grande do norte";"brasil";"brasil";"BR";-6.088;-37.911;"2015-02-17 16:44:49.394493";"2015-02-17 16:44:49.400352"
342;"Nova Bassano";"nova bassano";"rio grande do sul";"brasil";"brasil";"BR";-28.724;-51.705;"2015-02-17 16:44:49.394493";"2015-02-17 16:44:49.400352"
343;"Canguçu";"cangucu";"rio grande do sul";"brasil";"brasil";"BR";-31.395;-52.676;"2015-02-17 16:44:49.394493";"2015-02-17 16:44:49.400352"
344;"Franca";"franca";"sao paulo";"brasil";"brasil";"BR";-20.539;-47.401;"2015-02-17 16:44:49.394493";"2015-02-17 16:44:49.400352"
345;"Monte Aprazível";"monte aprazivel";"sao paulo";"brasil";"brasil";"BR";-20.773;-49.714;"2015-02-17 16:44:49.394493";"2015-02-17 16:44:49.400352"
346;"Tietê";"tiete";"sao paulo";"brasil";"brasil";"BR";-23.102;-47.715;"2015-02-17 16:44:49.394493";"2015-02-17 16:44:49.400352"
347;"Tacaratu";"tacaratu";"pernambuco";"brasil";"brasil";"BR";-9.106;-38.15;"2015-02-17 16:44:49.394493";"2015-02-17 16:44:49.400352"
348;"Barretos";"barretos";"sao paulo";"brasil";"brasil";"BR";-20.557;-48.568;"2015-02-17 16:44:49.394493";"2015-02-17 16:44:49.400352"
349;"Isfahan";"isfahan";"Ostān-e Eşfahān";"Iran";"iran";"IR";32.65246;51.67462;"2015-02-17 16:44:49.394493";"2015-02-17 16:44:49.400352"
350;"Mogi Guaçu";"mogi guacu";"sao paulo";"brasil";"brasil";"BR";-22.372;-46.942;"2015-02-17 16:44:49.394493";"2015-02-17 16:44:49.400352"
351;"Pelotas";"pelotas";"rio grande do sul";"brasil";"brasil";"BR";-31.772;-52.343;"2015-02-17 16:44:49.394493";"2015-02-17 16:44:49.400352"
352;"Monte Azul";"monte azul";"minas gerais";"brasil";"brasil";"BR";-15.155;-42.875;"2015-02-17 16:44:49.394493";"2015-02-17 16:44:49.400352"
353;"Guararapes";"guararapes";"sao paulo";"brasil";"brasil";"BR";-21.261;-50.643;"2015-02-17 16:44:49.394493";"2015-02-17 16:44:49.400352"
354;"João Neiva";"joao neiva";"espirito Santo";"brasil";"brasil";"BR";-19.758;-40.386;"2015-02-17 16:44:49.394493";"2015-02-17 16:44:49.400352"
355;"Ipameri";"ipameri";"goias";"brasil";"brasil";"BR";-17.722;-48.16;"2015-02-17 16:44:49.394493";"2015-02-17 16:44:49.400352"
356;"Nepomuceno";"nepomuceno";"minas gerais";"brasil";"brasil";"BR";-21.236;-45.236;"2015-02-17 16:44:49.394493";"2015-02-17 16:44:49.400352"
357;"Iquitos";"iquitos";"Loreto";"Peru";"peru";"PE";-3.74912;-73.25383;"2015-02-17 16:44:49.394493";"2015-02-17 16:44:49.400352"
358;"San Salvador";"san salvador";"San Salvador";"El Salvador";"el salvador";"SV";13.68935;-89.18718;"2015-02-17 16:44:49.394493";"2015-02-17 16:44:49.400352"
359;"Thiruvananthapuram";"thiruvananthapuram";"Kerala";"India";"india";"IN";8.4855;76.94924;"2015-02-17 16:44:49.394493";"2015-02-17 16:44:49.400352"
360;"Cardiff";"cardiff";"Wales";"United Kingdom";"united kingdom";"GB";51.48;-3.18;"2015-02-17 16:44:49.394493";"2015-02-17 16:44:49.400352"
361;"Birmingham";"birmingham";"England";"United Kingdom";"united kingdom";"GB";52.48142;-1.89983;"2015-02-17 16:44:49.394493";"2015-02-17 16:44:49.400352"
362;"Madrid";"madrid";"Madrid";"Spain";"spain";"ES";40.4165;-3.70256;"2015-02-17 16:44:49.394493";"2015-02-17 16:44:49.400352"
363;"Gualeguay";"gualeguay";"Entre Ríos";"Argentina";"argentina";"AR";-33.14156;-59.30966;"2015-02-17 16:44:49.394493";"2015-02-17 16:44:49.400352"
364;"Tubarão";"tubarao";"santa catarina";"brasil";"brasil";"BR";-28.467;-49.007;"2015-02-17 16:44:49.394493";"2015-02-17 16:44:49.400352"
365;"Araçatuba";"aracatuba";"sao paulo";"brasil";"brasil";"BR";-21.209;-50.433;"2015-02-17 16:44:49.394493";"2015-02-17 16:44:49.400352"
366;"Nova Palma";"nova palma";"rio grande do sul";"brasil";"brasil";"BR";-29.472;-53.469;"2015-02-17 16:44:49.394493";"2015-02-17 16:44:49.400352"
367;"Bebedouro";"bebedouro";"sao paulo";"brasil";"brasil";"BR";-20.949;-48.479;"2015-02-17 16:44:49.394493";"2015-02-17 16:44:49.400352"
368;"Pereira Barreto";"pereira barreto";"sao paulo";"brasil";"brasil";"BR";-20.638;-51.109;"2015-02-17 16:44:49.394493";"2015-02-17 16:44:49.400352"
369;"Floriano";"floriano";"piaui";"brasil";"brasil";"BR";-6.767;-43.023;"2015-02-17 16:44:49.394493";"2015-02-17 16:44:49.400352"
370;"Santana do Livramento";"santana do livramento";"rio grande do sul";"brasil";"brasil";"BR";-30.891;-55.533;"2015-02-17 16:44:49.394493";"2015-02-17 16:44:49.400352"
371;"Porteirinha";"porteirinha";"minas gerais";"brasil";"brasil";"BR";-15.743;-43.028;"2015-02-17 16:44:49.394493";"2015-02-17 16:44:49.400352"
372;"Birigui";"birigui";"sao paulo";"brasil";"brasil";"BR";-21.289;-50.34;"2015-02-17 16:44:49.394493";"2015-02-17 16:44:49.400352"
373;"Marliéria";"marlieria";"minas gerais";"brasil";"brasil";"BR";-19.712;-42.732;"2015-02-17 16:44:49.394493";"2015-02-17 16:44:49.400352"
374;"Palmira";"palmira";"Valle del Cauca";"Colombia";"colombia";"CO";3.53944;-76.30361;"2015-02-17 16:44:49.394493";"2015-02-17 16:44:49.400352"
375;"Santa Cruz de la Sierra";"santa cruz de la sierra";"Santa Cruz";"Bolivia";"bolivia";"BO";-17.78629;-63.18117;"2015-02-17 16:44:49.394493";"2015-02-17 16:44:49.400352"
376;"Aperibé";"aperibe";"rio de janeiro";"brasil";"brasil";"BR";-21.621;-42.103;"2015-02-17 16:44:49.394493";"2015-02-17 16:44:49.400352"
377;"Venâncio Aires";"venancio aires";"rio grande do sul";"brasil";"brasil";"BR";-29.606;-52.192;"2015-02-17 16:44:49.394493";"2015-02-17 16:44:49.400352"
378;"Delhi";"delhi";"NCT";"India";"india";"IN";28.65381;77.22897;"2015-02-17 16:44:49.394493";"2015-02-17 16:44:49.400352"
379;"Ipiales";"ipiales";"Nariño";"Colombia";"colombia";"CO";0.83018;-77.64959;"2015-02-17 16:44:49.394493";"2015-02-17 16:44:49.400352"
380;"Swābi";"swabi";"North-West Frontier Province";"Pakistan";"pakistan";"PK";34.11988;72.46987;"2015-02-17 16:44:49.394493";"2015-02-17 16:44:49.400352"
381;"Bela Vista";"bela vista";"mato grosso do sul";"brasil";"brasil";"BR";-22.109;-56.521;"2015-02-17 16:44:49.394493";"2015-02-17 16:44:49.400352"
382;"Angélica";"angelica";"mato grosso do sul";"brasil";"brasil";"BR";-22.153;-53.771;"2015-02-17 16:44:49.394493";"2015-02-17 16:44:49.400352"
383;"Barbosa Ferraz";"barbosa ferraz";"parana";"brasil";"brasil";"BR";-24.03;-52.012;"2015-02-17 16:44:49.394493";"2015-02-17 16:44:49.400352"
384;"Contagem";"contagem";"minas gerais";"brasil";"brasil";"BR";-19.932;-44.054;"2015-02-17 16:44:49.394493";"2015-02-17 16:44:49.400352"
385;"Ilhéus";"ilheus";"bahia";"brasil";"brasil";"BR";-14.789;-39.049;"2015-02-17 16:44:49.394493";"2015-02-17 16:44:49.400352"
386;"Ipatinga";"ipatinga";"minas gerais";"brasil";"brasil";"BR";-19.468;-42.537;"2015-02-17 16:44:49.394493";"2015-02-17 16:44:49.400352"
387;"São Gonçalo";"sao goncalo";"rio de janeiro";"brasil";"brasil";"BR";-22.827;-43.054;"2015-02-17 16:44:49.394493";"2015-02-17 16:44:49.400352"
388;"Coronel Fabriciano";"coronel fabriciano";"minas gerais";"brasil";"brasil";"BR";-19.519;-42.629;"2015-02-17 16:44:49.394493";"2015-02-17 16:44:49.400352"
389;"Mococa";"mococa";"sao paulo";"brasil";"brasil";"BR";-21.468;-47.005;"2015-02-17 16:44:49.394493";"2015-02-17 16:44:49.400352"
390;"Ibitinga";"ibitinga";"sao paulo";"brasil";"brasil";"BR";-21.758;-48.829;"2015-02-17 16:44:49.394493";"2015-02-17 16:44:49.400352"
391;"Barbacena";"barbacena";"minas gerais";"brasil";"brasil";"BR";-21.226;-43.774;"2015-02-17 16:44:49.394493";"2015-02-17 16:44:49.400352"
392;"Budapest";"budapest";"Budapest";"Hungary";"hungary";"HU";47.49801;19.03991;"2015-02-17 16:44:49.394493";"2015-02-17 16:44:49.400352"
393;"Formiga";"formiga";"minas gerais";"brasil";"brasil";"BR";-20.464;-45.426;"2015-02-17 16:44:49.394493";"2015-02-17 16:44:49.400352"
394;"Matanzas";"matanzas";"Matanzas";"Cuba";"cuba";"CU";23.04111;-81.5775;"2015-02-17 16:44:49.394493";"2015-02-17 16:44:49.400352"
395;"San Salvador de Jujuy";"san salvador de jujuy";"Jujuy";"Argentina";"argentina";"AR";-24.19457;-65.29712;"2015-02-17 16:44:49.394493";"2015-02-17 16:44:49.400352"
396;"Governador Valadares";"governador valadares";"minas gerais";"brasil";"brasil";"BR";-18.851;-41.949;"2015-02-17 16:44:49.394493";"2015-02-17 16:44:49.400352"
397;"Karlstadt";"karlstadt";"Bavaria";"Germany";"germany";"DE";49.96034;9.77239;"2015-02-17 16:44:49.394493";"2015-02-17 16:44:49.400352"
398;"Christchurch";"christchurch";"Canterbury";"New Zealand";"new zealand";"NZ";-43.53333;172.63333;"2015-02-17 16:44:49.394493";"2015-02-17 16:44:49.400352"
399;"São Bernardo do Campo";"sao bernardo do campo";"sao paulo";"brasil";"brasil";"BR";-23.694;-46.565;"2015-02-17 16:44:49.394493";"2015-02-17 16:44:49.400352"
400;"Toronto";"toronto";"Ontario";"Canada";"canada";"CA";43.70011;-79.4163;"2015-02-17 16:44:49.394493";"2015-02-17 16:44:49.400352"
401;"Riga";"riga";"Rīga";"Latvia";"latvia";"LV";56.946;24.10589;"2015-02-17 16:44:49.394493";"2015-02-17 16:44:49.400352"
402;"Três Passos";"tres passos";"rio grande do sul";"brasil";"brasil";"BR";-27.456;-53.932;"2015-02-17 16:44:49.394493";"2015-02-17 16:44:49.400352"
403;"Huancavelica";"huancavelica";"Huancavelica";"Peru";"peru";"PE";-12.78261;-74.97266;"2015-02-17 16:44:49.394493";"2015-02-17 16:44:49.400352"
404;"Taiobeiras";"taiobeiras";"minas gerais";"brasil";"brasil";"BR";-15.808;-42.233;"2015-02-17 16:44:49.394493";"2015-02-17 16:44:49.400352"
405;"Sherbrooke";"sherbrooke";"Quebec";"Canada";"canada";"CA";45.40008;-71.89908;"2015-02-17 16:44:49.394493";"2015-02-17 16:44:49.400352"
406;"Dubna";"dubna";"Moskovskaya";"Russia";"russia";"RU";56.73333;37.16667;"2015-02-17 16:44:49.394493";"2015-02-17 16:44:49.400352"
407;"Vancouver";"vancouver";"British Columbia";"Canada";"canada";"CA";49.24966;-123.11934;"2015-02-17 16:44:49.394493";"2015-02-17 16:44:49.400352"
408;"Palencia";"palencia";"Castille and León";"Spain";"spain";"ES";42.00955;-4.52406;"2015-02-17 16:44:49.394493";"2015-02-17 16:44:49.400352"
409;"Colina";"colina";"sao paulo";"brasil";"brasil";"BR";-20.713;-48.541;"2015-02-17 16:44:49.394493";"2015-02-17 16:44:49.400352"
410;"Quixeramobim";"quixeramobim";"ceara";"brasil";"brasil";"BR";-5.199;-39.293;"2015-02-17 16:44:49.394493";"2015-02-17 16:44:49.400352"
411;"Três Lagoas";"tres lagoas";"mato grosso do sul";"brasil";"brasil";"BR";-20.751;-51.678;"2015-02-17 16:44:49.394493";"2015-02-17 16:44:49.400352"
412;"Cajazeiras";"cajazeiras";"paraiba";"brasil";"brasil";"BR";-6.89;-38.562;"2015-02-17 16:44:49.394493";"2015-02-17 16:44:49.400352"
413;"Hardenberg";"hardenberg";"Overijssel";"Netherlands";"netherlands";"NL";52.57583;6.61944;"2015-02-17 16:44:49.394493";"2015-02-17 16:44:49.400352"
414;"Varginha";"varginha";"minas gerais";"brasil";"brasil";"BR";-21.551;-45.43;"2015-02-17 16:44:49.394493";"2015-02-17 16:44:49.400352"
415;"Montes Claros";"montes claros";"minas gerais";"brasil";"brasil";"BR";-16.735;-43.862;"2015-02-17 16:44:49.394493";"2015-02-17 16:44:49.400352"
416;"Guarabira";"guarabira";"paraiba";"brasil";"brasil";"BR";-6.855;-35.49;"2015-02-17 16:44:49.394493";"2015-02-17 16:44:49.400352"
417;"Genève";"geneve";"Geneva";"Switzerland";"switzerland";"CH";46.20222;6.14569;"2015-02-17 16:44:49.394493";"2015-02-17 16:44:49.400352"
418;"San Cristóbal";"san cristobal";"Estado Táchira";"Venezuela";"venezuela";"VE";7.76694;-72.225;"2015-02-17 16:44:49.394493";"2015-02-17 16:44:49.400352"
419;"Tandil";"tandil";"Buenos Aires";"Argentina";"argentina";"AR";-37.32167;-59.13316;"2015-02-17 16:44:49.394493";"2015-02-17 16:44:49.400352"
420;"Arequipa";"arequipa";"Arequipa";"Peru";"peru";"PE";-16.39889;-71.535;"2015-02-17 16:44:49.394493";"2015-02-17 16:44:49.400352"
421;"Leiria";"leiria";"Leiria";"Portugal";"portugal";"PT";39.74362;-8.80705;"2015-02-17 16:44:49.394493";"2015-02-17 16:44:49.400352"
422;"Cranbrook";"cranbrook";"British Columbia";"Canada";"canada";"CA";49.49991;-115.76879;"2015-02-17 16:44:49.394493";"2015-02-17 16:44:49.400352"
423;"Artigas";"artigas";"Artigas";"Uruguay";"uruguay";"UY";-30.4;-56.46667;"2015-02-17 16:44:49.394493";"2015-02-17 16:44:49.400352"
424;"Bragança Paulista";"braganca paulista";"sao paulo";"brasil";"brasil";"BR";-22.952;-46.542;"2015-02-17 16:44:49.394493";"2015-02-17 16:44:49.400352"
425;"Nijmegen";"nijmegen";"Gelderland";"Netherlands";"netherlands";"NL";51.8425;5.85278;"2015-02-17 16:44:49.394493";"2015-02-17 16:44:49.400352"
426;"Nancy";"nancy";"Lorraine";"France";"france";"FR";48.68439;6.18496;"2015-02-17 16:44:49.394493";"2015-02-17 16:44:49.400352"
427;"Campo Formoso";"campo formoso";"bahia";"brasil";"brasil";"BR";-10.509;-40.321;"2015-02-17 16:44:49.394493";"2015-02-17 16:44:49.400352"
428;"Sete Lagoas";"sete lagoas";"minas gerais";"brasil";"brasil";"BR";-19.466;-44.247;"2015-02-17 16:44:49.394493";"2015-02-17 16:44:49.400352"
429;"Carangola";"carangola";"minas gerais";"brasil";"brasil";"BR";-20.733;-42.029;"2015-02-17 16:44:49.394493";"2015-02-17 16:44:49.400352"
430;"Modena";"modena";"Emilia-Romagna";"Italy";"italy";"IT";44.64783;10.92539;"2015-02-17 16:44:49.394493";"2015-02-17 16:44:49.400352"
431;"São Gotardo";"sao gotardo";"minas gerais";"brasil";"brasil";"BR";-19.311;-46.049;"2015-02-17 16:44:49.394493";"2015-02-17 16:44:49.400352"
432;"Goiatuba";"goiatuba";"goias";"brasil";"brasil";"BR";-18.013;-49.357;"2015-02-17 16:44:49.394493";"2015-02-17 16:44:49.400352"
433;"Santa Tereza";"santa tereza";"rio grande do sul";"brasil";"brasil";"BR";-29.169;-51.735;"2015-02-17 16:44:49.394493";"2015-02-17 16:44:49.400352"
434;"Mérida";"merida";"Estado Mérida";"Venezuela";"venezuela";"VE";8.59524;-71.1434;"2015-02-17 16:44:49.394493";"2015-02-17 16:44:49.400352"
435;"Bucaramanga";"bucaramanga";"Santander";"Colombia";"colombia";"CO";7.12539;-73.1198;"2015-02-17 16:44:49.394493";"2015-02-17 16:44:49.400352"
436;"Botumirim";"botumirim";"minas gerais";"brasil";"brasil";"BR";-16.872;-43.011;"2015-02-17 16:44:49.394493";"2015-02-17 16:44:49.400352"
437;"Guarulhos";"guarulhos";"sao paulo";"brasil";"brasil";"BR";-23.463;-46.533;"2015-02-17 16:44:49.394493";"2015-02-17 16:44:49.400352"
438;"Itapuí";"itapui";"sao paulo";"brasil";"brasil";"BR";-22.233;-48.719;"2015-02-17 16:44:49.394493";"2015-02-17 16:44:49.400352"
439;"Itanhomi";"itanhomi";"minas gerais";"brasil";"brasil";"BR";-19.172;-41.865;"2015-02-17 16:44:49.394493";"2015-02-17 16:44:49.400352"
440;"Taubaté";"taubate";"sao paulo";"brasil";"brasil";"BR";-23.026;-45.555;"2015-02-17 16:44:49.394493";"2015-02-17 16:44:49.400352"
441;"Porto Franco";"porto franco";"maranhao";"brasil";"brasil";"BR";-6.338;-47.399;"2015-02-17 16:44:49.394493";"2015-02-17 16:44:49.400352"
442;"Ribeirão Vermelho";"ribeirao vermelho";"minas gerais";"brasil";"brasil";"BR";-21.191;-45.062;"2015-02-17 16:44:49.394493";"2015-02-17 16:44:49.400352"
443;"Cochabamba";"cochabamba";"Cochabamba";"Bolivia";"bolivia";"BO";-17.3895;-66.1568;"2015-02-17 16:44:49.394493";"2015-02-17 16:44:49.400352"
444;"Ibagué";"ibague";"Tolima";"Colombia";"colombia";"CO";4.43889;-75.23222;"2015-02-17 16:44:49.394493";"2015-02-17 16:44:49.400352"
445;"Jacareí";"jacarei";"sao paulo";"brasil";"brasil";"BR";-23.305;-45.966;"2015-02-17 16:44:49.394493";"2015-02-17 16:44:49.400352"
446;"São Sebastião do Paraíso";"sao sebastiao do paraiso";"minas gerais";"brasil";"brasil";"BR";-20.917;-46.991;"2015-02-17 16:44:49.394493";"2015-02-17 16:44:49.400352"
447;"Antony";"antony";"Île-de-France";"France";"france";"FR";48.75;2.3;"2015-02-17 16:44:49.394493";"2015-02-17 16:44:49.400352"
448;"Tottori";"tottori";"Tottori";"Japan";"japan";"JP";35.5;134.23333;"2015-02-17 16:44:49.394493";"2015-02-17 16:44:49.400352"
449;"Pasto";"pasto";"Nariño";"Colombia";"colombia";"CO";1.21361;-77.28111;"2015-02-17 16:44:49.394493";"2015-02-17 16:44:49.400352"
450;"Sancti Spíritus";"sancti spiritus";"Sancti Spíritus";"Cuba";"cuba";"CU";21.92972;-79.4425;"2015-02-17 16:44:49.394493";"2015-02-17 16:44:49.400352"
451;"Araguacema";"araguacema";"tocantins";"brasil";"brasil";"BR";-8.804;-49.556;"2015-02-17 16:44:49.394493";"2015-02-17 16:44:49.400352"
452;"Americana";"americana";"sao paulo";"brasil";"brasil";"BR";-22.739;-47.331;"2015-02-17 16:44:49.394493";"2015-02-17 16:44:49.400352"
453;"Ipiaú";"ipiau";"bahia";"brasil";"brasil";"BR";-14.137;-39.734;"2015-02-17 16:44:49.394493";"2015-02-17 16:44:49.400352"
454;"Mantena";"mantena";"minas gerais";"brasil";"brasil";"BR";-18.782;-40.98;"2015-02-17 16:44:49.394493";"2015-02-17 16:44:49.400352"
455;"La Paz";"la paz";"La Paz";"Bolivia";"bolivia";"BO";-16.5;-68.15;"2015-02-17 16:44:49.394493";"2015-02-17 16:44:49.400352"
456;"Colonia";"colonia";"New Jersey";"United States";"united states";"US";40.57455;-74.30209;"2015-02-17 16:44:49.394493";"2015-02-17 16:44:49.400352"
457;"Nuevitas";"nuevitas";"Camagüey";"Cuba";"cuba";"CU";21.54528;-77.26444;"2015-02-17 16:44:49.394493";"2015-02-17 16:44:49.400352"
458;"Chimbote";"chimbote";"Ancash";"Peru";"peru";"PE";-9.08528;-78.57833;"2015-02-17 16:44:49.394493";"2015-02-17 16:44:49.400352"
459;"Graneros";"graneros";"O'Higgins";"Chile";"chile";"CL";-34.06863;-70.72747;"2015-02-17 16:44:49.394493";"2015-02-17 16:44:49.400352"
460;"Luanda";"luanda";"Luanda";"Angola";"angola";"AO";-8.83682;13.23432;"2015-02-17 16:44:49.394493";"2015-02-17 16:44:49.400352"
461;"Manizales";"manizales";"Caldas";"Colombia";"colombia";"CO";5.06889;-75.51738;"2015-02-17 16:44:49.394493";"2015-02-17 16:44:49.400352"
462;"Lins";"lins";"sao paulo";"brasil";"brasil";"BR";-21.679;-49.743;"2015-02-17 16:44:49.394493";"2015-02-17 16:44:49.400352"
463;"Capinzal";"capinzal";"santa catarina";"brasil";"brasil";"BR";-27.344;-51.612;"2015-02-17 16:44:49.394493";"2015-02-17 16:44:49.400352"
464;"Tomsk";"tomsk";"Tomsk";"Russia";"russia";"RU";56.49771;84.97437;"2015-02-17 16:44:49.394493";"2015-02-17 16:44:49.400352"
465;"Tocantins";"tocantins";"minas gerais";"brasil";"brasil";"BR";-21.175;-43.018;"2015-02-17 16:44:49.394493";"2015-02-17 16:44:49.400352"
466;"Santarém";"santarem";"Santarém";"Portugal";"portugal";"PT";39.23333;-8.68333;"2015-02-17 16:44:49.394493";"2015-02-17 16:44:49.400352"
467;"Cajamarca";"cajamarca";"Cajamarca";"Peru";"peru";"PE";-7.16378;-78.50027;"2015-02-17 16:44:49.394493";"2015-02-17 16:44:49.400352"
468;"Nova Friburgo";"nova friburgo";"rio de janeiro";"brasil";"brasil";"BR";-22.282;-42.531;"2015-02-17 16:44:49.394493";"2015-02-17 16:44:49.400352"
469;"Stuttgart";"stuttgart";"Baden-Württemberg Region";"Germany";"germany";"DE";48.78232;9.17702;"2015-02-17 16:44:49.394493";"2015-02-17 16:44:49.400352"
470;"Vitória de Santo Antão";"vitoria de santo antao";"pernambuco";"brasil";"brasil";"BR";-8.118;-35.291;"2015-02-17 16:44:49.394493";"2015-02-17 16:44:49.400352"
471;"Quixadá";"quixada";"ceara";"brasil";"brasil";"BR";-4.971;-39.015;"2015-02-17 16:44:49.394493";"2015-02-17 16:44:49.400352"
472;"Tauá";"taua";"ceara";"brasil";"brasil";"BR";-6.003;-40.293;"2015-02-17 16:44:49.394493";"2015-02-17 16:44:49.400352"
473;"Santo Augusto";"santo augusto";"rio grande do sul";"brasil";"brasil";"BR";-27.851;-53.777;"2015-02-17 16:44:49.394493";"2015-02-17 16:44:49.400352"
474;"Pune";"pune";"Mahārāshtra";"India";"india";"IN";18.51957;73.85535;"2015-02-17 16:44:49.394493";"2015-02-17 16:44:49.400352"
475;"Coroatá";"coroata";"maranhao";"brasil";"brasil";"BR";-4.13;-44.124;"2015-02-17 16:44:49.394493";"2015-02-17 16:44:49.400352"
476;"Antonina";"antonina";"parana";"brasil";"brasil";"BR";-25.429;-48.712;"2015-02-17 16:44:49.394493";"2015-02-17 16:44:49.400352"
477;"Osasco";"osasco";"sao paulo";"brasil";"brasil";"BR";-23.533;-46.792;"2015-02-17 16:44:49.394493";"2015-02-17 16:44:49.400352"
478;"Santos Dumont";"santos dumont";"minas gerais";"brasil";"brasil";"BR";-21.457;-43.553;"2015-02-17 16:44:49.394493";"2015-02-17 16:44:49.400352"
479;"Guaíba";"guaiba";"rio grande do sul";"brasil";"brasil";"BR";-30.114;-51.325;"2015-02-17 16:44:49.394493";"2015-02-17 16:44:49.400352"
480;"Cachoeira de Minas";"cachoeira de minas";"minas gerais";"brasil";"brasil";"BR";-22.355;-45.779;"2015-02-17 16:44:49.394493";"2015-02-17 16:44:49.400352"
481;"Dolcinópolis";"dolcinopolis";"sao paulo";"brasil";"brasil";"BR";-20.123;-50.513;"2015-02-17 16:44:49.394493";"2015-02-17 16:44:49.400352"
482;"Concepción";"concepcion";"Biobío";"Chile";"chile";"CL";-36.82699;-73.04977;"2015-02-17 16:44:49.394493";"2015-02-17 16:44:49.400352"
483;"Cuiabá";"cuiaba";"mato grosso";"brasil";"brasil";"BR";-15.596;-56.097;"2015-02-17 16:44:49.394493";"2015-02-17 16:44:49.400352"
484;"Croatá";"croata";"ceara";"brasil";"brasil";"BR";-4.4;-40.911;"2015-02-17 16:44:49.394493";"2015-02-17 16:44:49.400352"
485;"Cipolletti";"cipolletti";"Río Negro";"Argentina";"argentina";"AR";-38.93392;-67.99032;"2015-02-17 16:44:49.394493";"2015-02-17 16:44:49.400352"
486;"Manhumirim";"manhumirim";"minas gerais";"brasil";"brasil";"BR";-20.358;-41.958;"2015-02-17 16:44:49.394493";"2015-02-17 16:44:49.400352"
487;"Bielefeld";"bielefeld";"North Rhine-Westphalia";"Germany";"germany";"DE";52.03333;8.53333;"2015-02-17 16:44:49.394493";"2015-02-17 16:44:49.400352"
488;"Pereira";"pereira";"Risaralda";"Colombia";"colombia";"CO";4.81333;-75.69611;"2015-02-17 16:44:49.394493";"2015-02-17 16:44:49.400352"
489;"Santa Quitéria";"santa quiteria";"ceara";"brasil";"brasil";"BR";-4.332;-40.157;"2015-02-17 16:44:49.394493";"2015-02-17 16:44:49.400352"
490;"Jerez de la Frontera";"jerez de la frontera";"Andalusia";"Spain";"spain";"ES";36.68645;-6.13606;"2015-02-17 16:44:49.394493";"2015-02-17 16:44:49.400352"
491;"Timóteo";"timoteo";"minas gerais";"brasil";"brasil";"BR";-19.583;-42.644;"2015-02-17 16:44:49.394493";"2015-02-17 16:44:49.400352"
492;"Londerzeel";"londerzeel";"Flanders";"Belgium";"belgium";"BE";51.00468;4.30304;"2015-02-17 16:44:49.394493";"2015-02-17 16:44:49.400352"
493;"Pires do Rio";"pires do rio";"goias";"brasil";"brasil";"BR";-17.301;-48.28;"2015-02-17 16:44:49.394493";"2015-02-17 16:44:49.400352"
494;"Chennai";"chennai";"Tamil Nādu";"India";"india";"IN";13.08784;80.27847;"2015-02-17 16:44:49.394493";"2015-02-17 16:44:49.400352"
495;"Ivorá";"ivora";"rio grande do sul";"brasil";"brasil";"BR";-29.52;-53.581;"2015-02-17 16:44:49.394493";"2015-02-17 16:44:49.400352"
496;"Mariana";"mariana";"minas gerais";"brasil";"brasil";"BR";-20.378;-43.416;"2015-02-17 16:44:49.394493";"2015-02-17 16:44:49.400352"
497;"São Francisco de Assis";"sao francisco de assis";"rio grande do sul";"brasil";"brasil";"BR";-29.55;-55.131;"2015-02-17 16:44:49.394493";"2015-02-17 16:44:49.400352"
498;"Coronel Vivida";"coronel vivida";"parana";"brasil";"brasil";"BR";-25.98;-52.568;"2015-02-17 16:44:49.394493";"2015-02-17 16:44:49.400352"
499;"Nampula";"nampula";"Nampula";"Mozambique";"mozambique";"MZ";-15.11646;39.2666;"2015-02-17 16:44:49.394493";"2015-02-17 16:44:49.400352"
500;"Ituiutaba";"ituiutaba";"minas gerais";"brasil";"brasil";"BR";-18.969;-49.465;"2015-02-17 16:44:49.394493";"2015-02-17 16:44:49.400352"
501;"Guiyang";"guiyang";"Guizhou Sheng";"China";"china";"CN";26.58333;106.71667;"2015-02-17 16:44:49.394493";"2015-02-17 16:44:49.400352"
502;"Aveiro";"aveiro";"Aveiro";"Portugal";"portugal";"PT";40.64427;-8.64554;"2015-02-17 16:44:49.394493";"2015-02-17 16:44:49.400352"
503;"Hubli";"hubli";"Karnātaka";"India";"india";"IN";15.34776;75.13378;"2015-02-17 16:44:49.394493";"2015-02-17 16:44:49.400352"
504;"Itabuna";"itabuna";"bahia";"brasil";"brasil";"BR";-14.786;-39.28;"2015-02-17 16:44:49.394493";"2015-02-17 16:44:49.400352"
505;"Igarapava";"igarapava";"sao paulo";"brasil";"brasil";"BR";-20.038;-47.747;"2015-02-17 16:44:49.394493";"2015-02-17 16:44:49.400352"
506;"Barreiras";"barreiras";"bahia";"brasil";"brasil";"BR";-12.153;-44.99;"2015-02-17 16:44:49.394493";"2015-02-17 16:44:49.400352"
507;"Karlsruhe";"karlsruhe";"Baden-Württemberg Region";"Germany";"germany";"DE";49.00937;8.40444;"2015-02-17 16:44:49.394493";"2015-02-17 16:44:49.400352"
508;"Nasīrābād";"nasirabad";"Rajasthan";"India";"india";"IN";26.30473;74.73364;"2015-02-17 16:44:49.394493";"2015-02-17 16:44:49.400352"
509;"Melo";"melo";"Cerro Largo";"Uruguay";"uruguay";"UY";-32.36667;-54.18333;"2015-02-17 16:44:49.394493";"2015-02-17 16:44:49.400352"
510;"Bagé";"bage";"rio grande do sul";"brasil";"brasil";"BR";-31.331;-54.107;"2015-02-17 16:44:49.394493";"2015-02-17 16:44:49.400352"
511;"Bilac";"bilac";"sao paulo";"brasil";"brasil";"BR";-21.403;-50.471;"2015-02-17 16:44:49.394493";"2015-02-17 16:44:49.400352"
512;"Juanjuí";"juanjui";"San Martín";"Peru";"peru";"PE";-7.17697;-76.72774;"2015-02-17 16:44:49.394493";"2015-02-17 16:44:49.400352"
513;"Jaguarão";"jaguarao";"rio grande do sul";"brasil";"brasil";"BR";-32.566;-53.376;"2015-02-17 16:44:49.394493";"2015-02-17 16:44:49.400352"
514;"Vinhedo";"vinhedo";"sao paulo";"brasil";"brasil";"BR";-23.03;-46.975;"2015-02-17 16:44:49.394493";"2015-02-17 16:44:49.400352"
515;"Herford";"herford";"North Rhine-Westphalia";"Germany";"germany";"DE";52.11457;8.67343;"2015-02-17 16:44:49.394493";"2015-02-17 16:44:49.400352"
516;"Boa Ventura";"boa ventura";"paraiba";"brasil";"brasil";"BR";-7.414;-38.216;"2015-02-17 16:44:49.394493";"2015-02-17 16:44:49.400352"
517;"Bassano del Grappa";"bassano del grappa";"Veneto";"Italy";"italy";"IT";45.76231;11.73112;"2015-02-17 16:44:49.394493";"2015-02-17 16:44:49.400352"
518;"Pinhal";"pinhal";"rio grande do sul";"brasil";"brasil";"BR";-27.511;-53.215;"2015-02-17 16:44:49.394493";"2015-02-17 16:44:49.400352"
519;"Pamplona";"pamplona";"Navarre";"Spain";"spain";"ES";42.81687;-1.64323;"2015-02-17 16:44:49.394493";"2015-02-17 16:44:49.400352"
520;"Sioux City";"sioux city";"Iowa";"United States";"united states";"US";42.49999;-96.40031;"2015-02-17 16:44:49.394493";"2015-02-17 16:44:49.400352"
521;"Brasópolis";"brasopolis";"minas gerais";"brasil";"brasil";"BR";-22.474;-45.608;"2015-02-17 16:44:49.394493";"2015-02-17 16:44:49.400352"
522;"Itápolis";"itapolis";"sao paulo";"brasil";"brasil";"BR";-21.596;-48.813;"2015-02-17 16:44:49.394493";"2015-02-17 16:44:49.400352"
523;"Nuoro";"nuoro";"Sardinia";"Italy";"italy";"IT";40.31949;9.31394;"2015-02-17 16:44:49.394493";"2015-02-17 16:44:49.400352"
524;"Fátima do Sul";"fatima do sul";"mato grosso do sul";"brasil";"brasil";"BR";-22.374;-54.514;"2015-02-17 16:44:49.394493";"2015-02-17 16:44:49.400352"
525;"Patrocínio";"patrocinio";"minas gerais";"brasil";"brasil";"BR";-18.944;-46.993;"2015-02-17 16:44:49.394493";"2015-02-17 16:44:49.400352"
526;"Huambo";"huambo";"Huambo";"Angola";"angola";"AO";-12.77611;15.73917;"2015-02-17 16:44:49.394493";"2015-02-17 16:44:49.400352"
527;"Balneário Camboriú";"balneario camboriu";"santa catarina";"brasil";"brasil";"BR";-26.991;-48.635;"2015-02-17 16:44:49.394493";"2015-02-17 16:44:49.400352"
528;"Senador Firmino";"senador firmino";"minas gerais";"brasil";"brasil";"BR";-20.912;-43.097;"2015-02-17 16:44:49.394493";"2015-02-17 16:44:49.400352"
529;"Itapetinga";"itapetinga";"bahia";"brasil";"brasil";"BR";-15.249;-40.248;"2015-02-17 16:44:49.394493";"2015-02-17 16:44:49.400352"
530;"Valencia";"valencia";"Estado Carabobo";"Venezuela";"venezuela";"VE";10.16202;-68.00765;"2015-02-17 16:44:49.394493";"2015-02-17 16:44:49.400352"
531;"Itajaí";"itajai";"santa catarina";"brasil";"brasil";"BR";-26.908;-48.662;"2015-02-17 16:44:49.394493";"2015-02-17 16:44:49.400352"
532;"Além Paraíba";"alem paraiba";"minas gerais";"brasil";"brasil";"BR";-21.888;-42.704;"2015-02-17 16:44:49.394493";"2015-02-17 16:44:49.400352"
533;"Lucknow";"lucknow";"Uttar Pradesh";"India";"india";"IN";26.83928;80.92313;"2015-02-17 16:44:49.394493";"2015-02-17 16:44:49.400352"
534;"Chillán";"chillan";"Biobío";"Chile";"chile";"CL";-36.60664;-72.10344;"2015-02-17 16:44:49.394493";"2015-02-17 16:44:49.400352"
535;"Erlangen";"erlangen";"Bavaria";"Germany";"germany";"DE";49.59099;11.00783;"2015-02-17 16:44:49.394493";"2015-02-17 16:44:49.400352"
536;"Macapá";"macapa";"amapa";"brasil";"brasil";"BR";0.039;-51.066;"2015-02-17 16:44:49.394493";"2015-02-17 16:44:49.400352"
537;"Cunha Porã";"cunha pora";"santa catarina";"brasil";"brasil";"BR";-26.894;-53.168;"2015-02-17 16:44:49.394493";"2015-02-17 16:44:49.400352"
538;"Chapecó";"chapeco";"santa catarina";"brasil";"brasil";"BR";-27.096;-52.618;"2015-02-17 16:44:49.394493";"2015-02-17 16:44:49.400352"
539;"Araxá";"araxa";"minas gerais";"brasil";"brasil";"BR";-19.593;-46.941;"2015-02-17 16:44:49.394493";"2015-02-17 16:44:49.400352"
540;"Campo do Brito";"campo do brito";"sergipe";"brasil";"brasil";"BR";-10.733;-37.493;"2015-02-17 16:44:49.394493";"2015-02-17 16:44:49.400352"
541;"Itabira";"itabira";"minas gerais";"brasil";"brasil";"BR";-19.619;-43.227;"2015-02-17 16:44:49.394493";"2015-02-17 16:44:49.400352"
542;"São Geraldo";"sao geraldo";"minas gerais";"brasil";"brasil";"BR";-20.923;-42.834;"2015-02-17 16:44:49.394493";"2015-02-17 16:44:49.400352"
543;"Serra Branca";"serra branca";"paraiba";"brasil";"brasil";"BR";-7.483;-36.665;"2015-02-17 16:44:49.394493";"2015-02-17 16:44:49.400352"
544;"Ferrol";"ferrol";"Galicia";"Spain";"spain";"ES";43.48321;-8.23689;"2015-02-17 16:44:49.394493";"2015-02-17 16:44:49.400352"
545;"Aimorés";"aimores";"minas gerais";"brasil";"brasil";"BR";-19.496;-41.064;"2015-02-17 16:44:49.394493";"2015-02-17 16:44:49.400352"
546;"Orléans";"orleans";"Centre";"France";"france";"FR";47.90289;1.90389;"2015-02-17 16:44:49.394493";"2015-02-17 16:44:49.400352"
547;"Cajuri";"cajuri";"minas gerais";"brasil";"brasil";"BR";-20.791;-42.797;"2015-02-17 16:44:49.394493";"2015-02-17 16:44:49.400352"
548;"Tacna";"tacna";"Tacna";"Peru";"peru";"PE";-18.01465;-70.25362;"2015-02-17 16:44:49.394493";"2015-02-17 16:44:49.400352"
549;"Simão Dias";"simao dias";"sergipe";"brasil";"brasil";"BR";-10.738;-37.811;"2015-02-17 16:44:49.394493";"2015-02-17 16:44:49.400352"
550;"Colatina";"colatina";"espirito Santo";"brasil";"brasil";"BR";-19.539;-40.631;"2015-02-17 16:44:49.394493";"2015-02-17 16:44:49.400352"
551;"Araguari";"araguari";"minas gerais";"brasil";"brasil";"BR";-18.649;-48.187;"2015-02-17 16:44:49.394493";"2015-02-17 16:44:49.400352"
552;"Lauro Muller";"lauro muller";"santa catarina";"brasil";"brasil";"BR";-28.393;-49.397;"2015-02-17 16:44:49.394493";"2015-02-17 16:44:49.400352"
553;"Tegucigalpa";"tegucigalpa";"Francisco Morazán";"Honduras";"honduras";"HN";14.0818;-87.20681;"2015-02-17 16:44:49.394493";"2015-02-17 16:44:49.400352"
554;"Alto Rio Doce";"alto rio doce";"minas gerais";"brasil";"brasil";"BR";-21.026;-43.411;"2015-02-17 16:44:49.394493";"2015-02-17 16:44:49.400352"
555;"Neuquén";"neuquen";"Neuquén";"Argentina";"argentina";"AR";-38.95161;-68.0591;"2015-02-17 16:44:49.394493";"2015-02-17 16:44:49.400352"
556;"Anápolis";"anapolis";"goias";"brasil";"brasil";"BR";-16.327;-48.953;"2015-02-17 16:44:49.394493";"2015-02-17 16:44:49.400352"
557;"Sèvres";"sevres";"Île-de-France";"France";"france";"FR";48.82292;2.21757;"2015-02-17 16:44:49.394493";"2015-02-17 16:44:49.400352"
558;"Logroño";"logrono";"La Rioja";"Spain";"spain";"ES";42.46667;-2.45;"2015-02-17 16:44:49.394493";"2015-02-17 16:44:49.400352"
559;"San Juan";"san juan";"San Juan";"Puerto Rico";"puerto rico";"PR";18.46633;-66.10572;"2015-02-17 16:44:49.394493";"2015-02-17 16:44:49.400352"
560;"Itatiba";"itatiba";"sao paulo";"brasil";"brasil";"BR";-23.006;-46.839;"2015-02-17 16:44:49.394493";"2015-02-17 16:44:49.400352"
561;"Strasbourg";"strasbourg";"Alsace";"France";"france";"FR";48.58392;7.74553;"2015-02-17 16:44:49.394493";"2015-02-17 16:44:49.400352"
562;"Ponte de Lima";"ponte de lima";"Viana do Castelo";"Portugal";"portugal";"PT";41.76719;-8.58393;"2015-02-17 16:44:49.394493";"2015-02-17 16:44:49.400352"
563;"Duque de Caxias";"duque de caxias";"rio de janeiro";"brasil";"brasil";"BR";-22.786;-43.312;"2015-02-17 16:44:49.394493";"2015-02-17 16:44:49.400352"
564;"Concepción";"concepcion";"Concepción";"Paraguay";"paraguay";"PY";-23.39985;-57.43236;"2015-02-17 16:44:49.394493";"2015-02-17 16:44:49.400352"
565;"Huánuco";"huanuco";"Huanuco";"Peru";"peru";"PE";-9.93062;-76.24223;"2015-02-17 16:44:49.394493";"2015-02-17 16:44:49.400352"
566;"Melun";"melun";"Île-de-France";"France";"france";"FR";48.53333;2.66667;"2015-02-17 16:44:49.394493";"2015-02-17 16:44:49.400352"
567;"Pavlodar";"pavlodar";"Pavlodar";"Kazakhstan";"kazakhstan";"KZ";52.27401;77.00438;"2015-02-17 16:44:49.394493";"2015-02-17 16:44:49.400352"
568;"Tehrān";"tehran";"Tehrān";"Iran";"iran";"IR";35.69439;51.42151;"2015-02-17 16:44:49.394493";"2015-02-17 16:44:49.400352"
569;"Picuí";"picui";"paraiba";"brasil";"brasil";"BR";-6.555;-36.349;"2015-02-17 16:44:49.394493";"2015-02-17 16:44:49.400352"
570;"Minneapolis";"minneapolis";"Minnesota";"United States";"united states";"US";44.97997;-93.26384;"2015-02-17 16:44:49.394493";"2015-02-17 16:44:49.400352"
571;"Würzburg";"wuerzburg";"Bavaria";"Germany";"germany";"DE";49.79391;9.95121;"2015-02-17 16:44:49.394493";"2015-02-17 16:44:49.400352"
572;"Sivakasi";"sivakasi";"Tamil Nādu";"India";"india";"IN";9.44999;77.79797;"2015-02-17 16:44:49.394493";"2015-02-17 16:44:49.400352"
573;"Riobamba";"riobamba";"Chimborazo";"Ecuador";"ecuador";"EC";-1.67098;-78.64712;"2015-02-17 16:44:49.394493";"2015-02-17 16:44:49.400352"
574;"Cruz das Almas";"cruz das almas";"bahia";"brasil";"brasil";"BR";-12.67;-39.102;"2015-02-17 16:44:49.394493";"2015-02-17 16:44:49.400352"
575;"Zipaquirá";"zipaquira";"Cundinamarca";"Colombia";"colombia";"CO";5.02208;-74.00481;"2015-02-17 16:44:49.394493";"2015-02-17 16:44:49.400352"
576;"Porecatu";"porecatu";"parana";"brasil";"brasil";"BR";-22.756;-51.379;"2015-02-17 16:44:49.394493";"2015-02-17 16:44:49.400352"
577;"Cañete";"canete";"Biobío";"Chile";"chile";"CL";-37.80128;-73.39616;"2015-02-17 16:44:49.394493";"2015-02-17 16:44:49.400352"
578;"Winterthur";"winterthur";"Zurich";"Switzerland";"switzerland";"CH";47.50003;8.7251;"2015-02-17 16:44:49.394493";"2015-02-17 16:44:49.400352"
579;"Banabuiú";"banabuiu";"ceara";"brasil";"brasil";"BR";-5.31;-38.921;"2015-02-17 16:44:49.394493";"2015-02-17 16:44:49.400352"
580;"Schwerte";"schwerte";"North Rhine-Westphalia";"Germany";"germany";"DE";51.44387;7.5675;"2015-02-17 16:44:49.394493";"2015-02-17 16:44:49.400352"
581;"San Juan";"san juan";"San Juan";"Argentina";"argentina";"AR";-31.5375;-68.53639;"2015-02-17 16:44:49.394493";"2015-02-17 16:44:49.400352"
582;"Valdivia";"valdivia";"Los Ríos";"Chile";"chile";"CL";-39.81422;-73.24589;"2015-02-17 16:44:49.394493";"2015-02-17 16:44:49.400352"
583;"Elói Mendes";"eloi mendes";"minas gerais";"brasil";"brasil";"BR";-21.61;-45.565;"2015-02-17 16:44:49.394493";"2015-02-17 16:44:49.400352"
584;"Óbidos";"obidos";"para";"brasil";"brasil";"BR";-1.918;-55.518;"2015-02-17 16:44:49.394493";"2015-02-17 16:44:49.400352"
585;"Mauá";"maua";"sao paulo";"brasil";"brasil";"BR";-23.668;-46.461;"2015-02-17 16:44:49.394493";"2015-02-17 16:44:49.400352"
586;"Tanabi";"tanabi";"sao paulo";"brasil";"brasil";"BR";-20.626;-49.649;"2015-02-17 16:44:49.394493";"2015-02-17 16:44:49.400352"
587;"Cotia";"cotia";"sao paulo";"brasil";"brasil";"BR";-23.604;-46.919;"2015-02-17 16:44:49.394493";"2015-02-17 16:44:49.400352"
588;"Nova Serrana";"nova serrana";"minas gerais";"brasil";"brasil";"BR";-19.876;-44.984;"2015-02-17 16:44:49.394493";"2015-02-17 16:44:49.400352"
589;"Alghero";"alghero";"Sardinia";"Italy";"italy";"IT";40.56541;8.32092;"2015-02-17 16:44:49.394493";"2015-02-17 16:44:49.400352"
590;"Ondo";"ondo";"Ondo";"Nigeria";"nigeria";"NG";7.1;4.83333;"2015-02-17 16:44:49.394493";"2015-02-17 16:44:49.400352"
591;"Hitchin";"hitchin";"England";"United Kingdom";"united kingdom";"GB";51.94924;-0.28496;"2015-02-17 16:44:49.394493";"2015-02-17 16:44:49.400352"
592;"Ferrara";"ferrara";"Emilia-Romagna";"Italy";"italy";"IT";44.84346;11.60868;"2015-02-17 16:44:49.394493";"2015-02-17 16:44:49.400352"
593;"Viña del Mar";"vina del mar";"Valparaíso";"Chile";"chile";"CL";-33.02457;-71.55183;"2015-02-17 16:44:49.394493";"2015-02-17 16:44:49.400352"
594;"Colombes";"colombes";"Île-de-France";"France";"france";"FR";48.91882;2.25404;"2015-02-17 16:44:49.394493";"2015-02-17 16:44:49.400352"
595;"Temuco";"temuco";"Araucanía";"Chile";"chile";"CL";-38.73965;-72.59842;"2015-02-17 16:44:49.394493";"2015-02-17 16:44:49.400352"
596;"Tenente Portela";"tenente portela";"rio grande do sul";"brasil";"brasil";"BR";-27.371;-53.758;"2015-02-17 16:44:49.394493";"2015-02-17 16:44:49.400352"
597;"Ilo";"ilo";"Moquegua";"Peru";"peru";"PE";-17.63944;-71.3375;"2015-02-17 16:44:49.394493";"2015-02-17 16:44:49.400352"
598;"Resende";"resende";"rio de janeiro";"brasil";"brasil";"BR";-22.469;-44.447;"2015-02-17 16:44:49.394493";"2015-02-17 16:44:49.400352"
599;"Salto";"salto";"Salto";"Uruguay";"uruguay";"UY";-31.38333;-57.96667;"2015-02-17 16:44:49.394493";"2015-02-17 16:44:49.400352"
600;"Punta Arenas";"punta arenas";"Magallanes";"Chile";"chile";"CL";-53.15483;-70.91129;"2015-02-17 16:44:49.394493";"2015-02-17 16:44:49.400352"
601;"São Gonçalo dos Campos";"sao goncalo dos campos";"bahia";"brasil";"brasil";"BR";-12.433;-38.967;"2015-02-17 16:44:49.394493";"2015-02-17 16:44:49.400352"
602;"Arroio do Meio";"arroio do meio";"rio grande do sul";"brasil";"brasil";"BR";-29.401;-51.945;"2015-02-17 16:44:49.394493";"2015-02-17 16:44:49.400352"
603;"Resende Costa";"resende costa";"minas gerais";"brasil";"brasil";"BR";-20.922;-44.238;"2015-02-17 16:44:49.394493";"2015-02-17 16:44:49.400352"
604;"Cerro Largo";"cerro largo";"rio grande do sul";"brasil";"brasil";"BR";-28.149;-54.738;"2015-02-17 16:44:49.394493";"2015-02-17 16:44:49.400352"
605;"Muriaé";"muriae";"minas gerais";"brasil";"brasil";"BR";-21.131;-42.366;"2015-02-17 16:44:49.394493";"2015-02-17 16:44:49.400352"
606;"Guayaquil";"guayaquil";"Guayas";"Ecuador";"ecuador";"EC";-2.20584;-79.90795;"2015-02-17 16:44:49.394493";"2015-02-17 16:44:49.400352"
607;"Besançon";"besancon";"Franche-Comté";"France";"france";"FR";47.24878;6.01815;"2015-02-17 16:44:49.394493";"2015-02-17 16:44:49.400352"
608;"Schwerin";"schwerin";"Mecklenburg-Vorpommern";"Germany";"germany";"DE";53.62937;11.41316;"2015-02-17 16:44:49.394493";"2015-02-17 16:44:49.400352"
609;"Piraí do Sul";"pirai do sul";"parana";"brasil";"brasil";"BR";-24.526;-49.949;"2015-02-17 16:44:49.394493";"2015-02-17 16:44:49.400352"
610;"Sofia";"sofia";"Sofia-Capital";"Bulgaria";"bulgaria";"BG";42.69751;23.32415;"2015-02-17 16:44:49.394493";"2015-02-17 16:44:49.400352"
611;"Jaguari";"jaguari";"rio grande do sul";"brasil";"brasil";"BR";-29.497;-54.69;"2015-02-17 16:44:49.394493";"2015-02-17 16:44:49.400352"
612;"Caconde";"caconde";"sao paulo";"brasil";"brasil";"BR";-21.529;-46.644;"2015-02-17 16:44:49.394493";"2015-02-17 16:44:49.400352"
613;"Neuchâtel";"neuchatel";"Neuchâtel";"Switzerland";"switzerland";"CH";46.99179;6.931;"2015-02-17 16:44:49.394493";"2015-02-17 16:44:49.400352"
614;"Catanduva";"catanduva";"sao paulo";"brasil";"brasil";"BR";-21.138;-48.973;"2015-02-17 16:44:49.394493";"2015-02-17 16:44:49.400352"
615;"Elmshorn";"elmshorn";"Schleswig-Holstein";"Germany";"germany";"DE";53.75396;9.65339;"2015-02-17 16:44:49.394493";"2015-02-17 16:44:49.400352"
616;"Castanhal";"castanhal";"para";"brasil";"brasil";"BR";-1.297;-47.922;"2015-02-17 16:44:49.394493";"2015-02-17 16:44:49.400352"
617;"Leopoldina";"leopoldina";"minas gerais";"brasil";"brasil";"BR";-21.532;-42.643;"2015-02-17 16:44:49.394493";"2015-02-17 16:44:49.400352"
618;"Teresópolis";"teresopolis";"rio de janeiro";"brasil";"brasil";"BR";-22.412;-42.966;"2015-02-17 16:44:49.394493";"2015-02-17 16:44:49.400352"
619;"Arapiraca";"arapiraca";"alagoas";"brasil";"brasil";"BR";-9.752;-36.661;"2015-02-17 16:44:49.394493";"2015-02-17 16:44:49.400352"
620;"Albi";"albi";"Midi-Pyrénées";"France";"france";"FR";43.9298;2.148;"2015-02-17 16:44:49.394493";"2015-02-17 16:44:49.400352"
621;"Itaiçaba";"itaicaba";"ceara";"brasil";"brasil";"BR";-4.674;-37.822;"2015-02-17 16:44:49.394493";"2015-02-17 16:44:49.400352"
622;"Rivas";"rivas";"Rivas";"Nicaragua";"nicaragua";"NI";11.43716;-85.82632;"2015-02-17 16:44:49.394493";"2015-02-17 16:44:49.400352"
623;"Leme";"leme";"sao paulo";"brasil";"brasil";"BR";-22.186;-47.39;"2015-02-17 16:44:49.394493";"2015-02-17 16:44:49.400352"
624;"Pedra";"pedra";"pernambuco";"brasil";"brasil";"BR";-8.497;-36.941;"2015-02-17 16:44:49.394493";"2015-02-17 16:44:49.400352"
625;"Alagoa Grande";"alagoa grande";"paraiba";"brasil";"brasil";"BR";-7.089;-35.635;"2015-02-17 16:44:49.394493";"2015-02-17 16:44:49.400352"
626;"Penápolis";"penapolis";"sao paulo";"brasil";"brasil";"BR";-21.42;-50.078;"2015-02-17 16:44:49.394493";"2015-02-17 16:44:49.400352"
627;"Maldonado";"maldonado";"Maldonado";"Uruguay";"uruguay";"UY";-34.9;-54.95;"2015-02-17 16:44:49.394493";"2015-02-17 16:44:49.400352"
628;"Mafra";"mafra";"santa catarina";"brasil";"brasil";"BR";-26.111;-49.805;"2015-02-17 16:44:49.394493";"2015-02-17 16:44:49.400352"
629;"Conselheiro Lafaiete";"conselheiro lafaiete";"minas gerais";"brasil";"brasil";"BR";-20.66;-43.786;"2015-02-17 16:44:49.394493";"2015-02-17 16:44:49.400352"
630;"Puerto Montt";"puerto montt";"Los Lagos";"Chile";"chile";"CL";-41.46574;-72.94289;"2015-02-17 16:44:49.394493";"2015-02-17 16:44:49.400352"
631;"Barra do Corda";"barra do corda";"maranhao";"brasil";"brasil";"BR";-5.506;-45.243;"2015-02-17 16:44:49.394493";"2015-02-17 16:44:49.400352"
632;"Foggia";"foggia";"Apulia";"Italy";"italy";"IT";41.45845;15.55188;"2015-02-17 16:44:49.394493";"2015-02-17 16:44:49.400352"
633;"Aígio";"aigio";"West Greece";"Greece";"greece";"GR";38.24861;22.08194;"2015-02-17 16:44:49.394493";"2015-02-17 16:44:49.400352"
634;"Rahden";"rahden";"North Rhine-Westphalia";"Germany";"germany";"DE";52.43367;8.61263;"2015-02-17 16:44:49.394493";"2015-02-17 16:44:49.400352"
635;"Mansoûra";"mansoura";"Tlemcen";"Algeria";"algeria";"DZ";34.86158;-1.33935;"2015-02-17 16:44:49.394493";"2015-02-17 16:44:49.400352"
636;"Criciúma";"criciuma";"santa catarina";"brasil";"brasil";"BR";-28.678;-49.37;"2015-02-17 16:44:49.394493";"2015-02-17 16:44:49.400352"
637;"Jandaia do Sul";"jandaia do sul";"parana";"brasil";"brasil";"BR";-23.603;-51.643;"2015-02-17 16:44:49.394493";"2015-02-17 16:44:49.400352"
638;"Morteros";"morteros";"Córdoba";"Argentina";"argentina";"AR";-30.71164;-61.99862;"2015-02-17 16:44:49.394493";"2015-02-17 16:44:49.400352"
639;"Januária";"januaria";"minas gerais";"brasil";"brasil";"BR";-15.488;-44.362;"2015-02-17 16:44:49.394493";"2015-02-17 16:44:49.400352"
640;"São Lourenço";"sao lourenco";"minas gerais";"brasil";"brasil";"BR";-22.116;-45.054;"2015-02-17 16:44:49.394493";"2015-02-17 16:44:49.400352"
641;"Olinda";"olinda";"pernambuco";"brasil";"brasil";"BR";-8.009;-34.855;"2015-02-17 16:44:49.394493";"2015-02-17 16:44:49.400352"
642;"São Félix do Xingu";"sao felix do xingu";"para";"brasil";"brasil";"BR";-6.645;-51.995;"2015-02-17 16:44:49.394493";"2015-02-17 16:44:49.400352"
643;"Glória de Dourados";"gloria de dourados";"mato grosso do sul";"brasil";"brasil";"BR";-22.418;-54.233;"2015-02-17 16:44:49.394493";"2015-02-17 16:44:49.400352"
644;"Amargosa";"amargosa";"bahia";"brasil";"brasil";"BR";-13.03;-39.605;"2015-02-17 16:44:49.394493";"2015-02-17 16:44:49.400352"
645;"União da Vitória";"uniao da vitoria";"parana";"brasil";"brasil";"BR";-26.23;-51.086;"2015-02-17 16:44:49.394493";"2015-02-17 16:44:49.400352"
646;"Amsterdam";"amsterdam";"North Holland";"Netherlands";"netherlands";"NL";52.37403;4.88969;"2015-02-17 16:44:49.394493";"2015-02-17 16:44:49.400352"
647;"Xanxerê";"xanxere";"santa catarina";"brasil";"brasil";"BR";-26.877;-52.404;"2015-02-17 16:44:49.394493";"2015-02-17 16:44:49.400352"
648;"Itararé";"itarare";"sao paulo";"brasil";"brasil";"BR";-24.115;-49.341;"2015-02-17 16:44:49.394493";"2015-02-17 16:44:49.400352"
649;"Volta Redonda";"volta redonda";"rio de janeiro";"brasil";"brasil";"BR";-22.523;-44.104;"2015-02-17 16:44:49.394493";"2015-02-17 16:44:49.400352"
650;"Sfax";"sfax";"Şafāqis";"Tunisia";"tunisia";"TN";34.74056;10.76028;"2015-02-17 16:44:49.394493";"2015-02-17 16:44:49.400352"
651;"Alegre";"alegre";"espirito Santo";"brasil";"brasil";"BR";-20.764;-41.533;"2015-02-17 16:44:49.394493";"2015-02-17 16:44:49.400352"
652;"Monte Alto";"monte alto";"sao paulo";"brasil";"brasil";"BR";-21.261;-48.496;"2015-02-17 16:44:49.394493";"2015-02-17 16:44:49.400352"
653;"Princesa Isabel";"princesa isabel";"paraiba";"brasil";"brasil";"BR";-7.737;-37.993;"2015-02-17 16:44:49.394493";"2015-02-17 16:44:49.400352"
654;"Reus";"reus";"Catalonia";"Spain";"spain";"ES";41.15612;1.10687;"2015-02-17 16:44:49.394493";"2015-02-17 16:44:49.400352"
655;"Barquisimeto";"barquisimeto";"Estado Lara";"Venezuela";"venezuela";"VE";10.07389;-69.32278;"2015-02-17 16:44:49.394493";"2015-02-17 16:44:49.400352"
656;"San Luis";"san luis";"San Luis";"Argentina";"argentina";"AR";-33.29501;-66.33563;"2015-02-17 16:44:49.394493";"2015-02-17 16:44:49.400352"
657;"Dois Córregos";"dois corregos";"sao paulo";"brasil";"brasil";"BR";-22.366;-48.38;"2015-02-17 16:44:49.394493";"2015-02-17 16:44:49.400352"
658;"Cametá";"cameta";"para";"brasil";"brasil";"BR";-2.244;-49.496;"2015-02-17 16:44:49.394493";"2015-02-17 16:44:49.400352"
659;"Kortrijk";"kortrijk";"Flanders";"Belgium";"belgium";"BE";50.82803;3.26487;"2015-02-17 16:44:49.394493";"2015-02-17 16:44:49.400352"
660;"Metz";"metz";"Lorraine";"France";"france";"FR";49.11911;6.17269;"2015-02-17 16:44:49.394493";"2015-02-17 16:44:49.400352"
661;"Bayamo";"bayamo";"Granma";"Cuba";"cuba";"CU";20.37917;-76.64333;"2015-02-17 16:44:49.394493";"2015-02-17 16:44:49.400352"
662;"General Câmara";"general camara";"rio grande do sul";"brasil";"brasil";"BR";-29.905;-51.76;"2015-02-17 16:44:49.394493";"2015-02-17 16:44:49.400352"
663;"Santa Rita do Passa Quatro";"santa rita do passa quatro";"sao paulo";"brasil";"brasil";"BR";-21.71;-47.478;"2015-02-17 16:44:49.394493";"2015-02-17 16:44:49.400352"
664;"Darmstadt";"darmstadt";"Hesse";"Germany";"germany";"DE";49.87167;8.65027;"2015-02-17 16:44:49.394493";"2015-02-17 16:44:49.400352"
665;"Santa Rita de Caldas";"santa rita de caldas";"minas gerais";"brasil";"brasil";"BR";-22.029;-46.337;"2015-02-17 16:44:49.394493";"2015-02-17 16:44:49.400352"
666;"Paracatu";"paracatu";"minas gerais";"brasil";"brasil";"BR";-17.222;-46.875;"2015-02-17 16:44:49.394493";"2015-02-17 16:44:49.400352"
667;"Vargem Grande do Sul";"vargem grande do sul";"sao paulo";"brasil";"brasil";"BR";-21.832;-46.894;"2015-02-17 16:44:49.394493";"2015-02-17 16:44:49.400352"
668;"Novo Hamburgo";"novo hamburgo";"rio grande do sul";"brasil";"brasil";"BR";-29.678;-51.131;"2015-02-17 16:44:49.394493";"2015-02-17 16:44:49.400352"
669;"Assis Chateaubriand";"assis chateaubriand";"parana";"brasil";"brasil";"BR";-24.42;-53.521;"2015-02-17 16:44:49.394493";"2015-02-17 16:44:49.400352"
670;"Barra do Piraí";"barra do pirai";"rio de janeiro";"brasil";"brasil";"BR";-22.47;-43.826;"2015-02-17 16:44:49.394493";"2015-02-17 16:44:49.400352"
671;"Uruçuí";"urucui";"piaui";"brasil";"brasil";"BR";-7.229;-44.556;"2015-02-17 16:44:49.394493";"2015-02-17 16:44:49.400352"
672;"Caraguatatuba";"caraguatatuba";"sao paulo";"brasil";"brasil";"BR";-23.62;-45.413;"2015-02-17 16:44:49.394493";"2015-02-17 16:44:49.400352"
673;"Gwalior";"gwalior";"Madhya Pradesh";"India";"india";"IN";26.22983;78.17337;"2015-02-17 16:44:49.394493";"2015-02-17 16:44:49.400352"
674;"Santo Anastácio";"santo anastacio";"sao paulo";"brasil";"brasil";"BR";-21.977;-51.652;"2015-02-17 16:44:49.394493";"2015-02-17 16:44:49.400352"
675;"Terra Rica";"terra rica";"parana";"brasil";"brasil";"BR";-22.709;-52.617;"2015-02-17 16:44:49.394493";"2015-02-17 16:44:49.400352"
676;"São Luiz Gonzaga";"sao luiz gonzaga";"rio grande do sul";"brasil";"brasil";"BR";-28.408;-54.961;"2015-02-17 16:44:49.394493";"2015-02-17 16:44:49.400352"
677;"Descalvado";"descalvado";"sao paulo";"brasil";"brasil";"BR";-21.904;-47.619;"2015-02-17 16:44:49.394493";"2015-02-17 16:44:49.400352"
678;"Indaiatuba";"indaiatuba";"sao paulo";"brasil";"brasil";"BR";-23.09;-47.218;"2015-02-17 16:44:49.394493";"2015-02-17 16:44:49.400352"
679;"São Miguel dos Campos";"sao miguel dos campos";"alagoas";"brasil";"brasil";"BR";-9.781;-36.094;"2015-02-17 16:44:49.394493";"2015-02-17 16:44:49.400352"
680;"Bento Gonçalves";"bento goncalves";"rio grande do sul";"brasil";"brasil";"BR";-29.171;-51.519;"2015-02-17 16:44:49.394493";"2015-02-17 16:44:49.400352"
681;"Antônio Prado";"antonio prado";"rio grande do sul";"brasil";"brasil";"BR";-28.858;-51.283;"2015-02-17 16:44:49.394493";"2015-02-17 16:44:49.400352"
682;"Ubá";"uba";"minas gerais";"brasil";"brasil";"BR";-21.12;-42.943;"2015-02-17 16:44:49.394493";"2015-02-17 16:44:49.400352"
683;"Itapitanga";"itapitanga";"bahia";"brasil";"brasil";"BR";-14.423;-39.565;"2015-02-17 16:44:49.394493";"2015-02-17 16:44:49.400352"
684;"Três Coroas";"tres coroas";"rio grande do sul";"brasil";"brasil";"BR";-29.517;-50.778;"2015-02-17 16:44:49.394493";"2015-02-17 16:44:49.400352"
685;"Manaíra";"manaira";"paraiba";"brasil";"brasil";"BR";-7.706;-38.154;"2015-02-17 16:44:49.394493";"2015-02-17 16:44:49.400352"
686;"Pirassununga";"pirassununga";"sao paulo";"brasil";"brasil";"BR";-21.996;-47.426;"2015-02-17 16:44:49.394493";"2015-02-17 16:44:49.400352"
687;"Dom Inocêncio";"dom inocencio";"piaui";"brasil";"brasil";"BR";-9.002;-41.974;"2015-02-17 16:44:49.394493";"2015-02-17 16:44:49.400352"
688;"Erechim";"erechim";"rio grande do sul";"brasil";"brasil";"BR";-27.634;-52.274;"2015-02-17 16:44:49.394493";"2015-02-17 16:44:49.400352"
689;"Cianorte";"cianorte";"parana";"brasil";"brasil";"BR";-23.663;-52.605;"2015-02-17 16:44:49.394493";"2015-02-17 16:44:49.400352"
690;"Alegrete";"alegrete";"rio grande do sul";"brasil";"brasil";"BR";-29.783;-55.792;"2015-02-17 16:44:49.394493";"2015-02-17 16:44:49.400352"
691;"Santa Bárbara d'Oeste";"santa barbara d'oeste";"sao paulo";"brasil";"brasil";"BR";-22.754;-47.414;"2015-02-17 16:44:49.394493";"2015-02-17 16:44:49.400352"
692;"Vicenza";"vicenza";"Veneto";"Italy";"italy";"IT";45.54672;11.5475;"2015-02-17 16:44:49.394493";"2015-02-17 16:44:49.400352"
693;"Ponte Serrada";"ponte serrada";"santa catarina";"brasil";"brasil";"BR";-26.872;-52.016;"2015-02-17 16:44:49.394493";"2015-02-17 16:44:49.400352"
694;"Paysandú";"paysandu";"Paysandú";"Uruguay";"uruguay";"UY";-32.32139;-58.07556;"2015-02-17 16:44:49.394493";"2015-02-17 16:44:49.400352"
695;"Caxias";"caxias";"maranhao";"brasil";"brasil";"BR";-4.859;-43.356;"2015-02-17 16:44:49.394493";"2015-02-17 16:44:49.400352"
696;"Umuarama";"umuarama";"parana";"brasil";"brasil";"BR";-23.766;-53.325;"2015-02-17 16:44:49.394493";"2015-02-17 16:44:49.400352"
697;"Passos";"passos";"minas gerais";"brasil";"brasil";"BR";-20.719;-46.61;"2015-02-17 16:44:49.394493";"2015-02-17 16:44:49.400352"
698;"Rancho Alegre";"rancho alegre";"parana";"brasil";"brasil";"BR";-23.07;-50.913;"2015-02-17 16:44:49.394493";"2015-02-17 16:44:49.400352"
699;"Tatuí";"tatui";"sao paulo";"brasil";"brasil";"BR";-23.356;-47.857;"2015-02-17 16:44:49.394493";"2015-02-17 16:44:49.400352"
700;"Farroupilha";"farroupilha";"rio grande do sul";"brasil";"brasil";"BR";-29.225;-51.348;"2015-02-17 16:44:49.394493";"2015-02-17 16:44:49.400352"
701;"Jaboatão dos Guararapes";"jaboatao dos guararapes";"pernambuco";"brasil";"brasil";"BR";-8.113;-35.015;"2015-02-17 16:44:49.394493";"2015-02-17 16:44:49.400352"
702;"Resistencia";"resistencia";"Chaco";"Argentina";"argentina";"AR";-27.46056;-58.98389;"2015-02-17 16:44:49.394493";"2015-02-17 16:44:49.400352"
703;"Guadalajara";"guadalajara";"Jalisco";"Mexico";"mexico";"MX";20.66682;-103.39182;"2015-02-17 16:44:49.394493";"2015-02-17 16:44:49.400352"
704;"Le Plessis-Trévise";"le plessis-trevise";"Île-de-France";"France";"france";"FR";48.81074;2.57363;"2015-02-17 16:44:49.394493";"2015-02-17 16:44:49.400352"
705;"Granada";"granada";"Granada";"Nicaragua";"nicaragua";"NI";11.92988;-85.95602;"2015-02-17 16:44:49.394493";"2015-02-17 16:44:49.400352"
706;"Itapira";"itapira";"sao paulo";"brasil";"brasil";"BR";-22.436;-46.822;"2015-02-17 16:44:49.394493";"2015-02-17 16:44:49.400352"
707;"Piura";"piura";"Piura";"Peru";"peru";"PE";-5.19449;-80.63282;"2015-02-17 16:44:49.394493";"2015-02-17 16:44:49.400352"
708;"Dom Pedrito";"dom pedrito";"rio grande do sul";"brasil";"brasil";"BR";-30.983;-54.673;"2015-02-17 16:44:49.394493";"2015-02-17 16:44:49.400352"
709;"Turiaçu";"turiacu";"maranhao";"brasil";"brasil";"BR";-1.663;-45.372;"2015-02-17 16:44:49.394493";"2015-02-17 16:44:49.400352"
710;"Horizontina";"horizontina";"rio grande do sul";"brasil";"brasil";"BR";-27.626;-54.308;"2015-02-17 16:44:49.394493";"2015-02-17 16:44:49.400352"
711;"Teófilo Otoni";"teofilo otoni";"minas gerais";"brasil";"brasil";"BR";-17.858;-41.505;"2015-02-17 16:44:49.394493";"2015-02-17 16:44:49.400352"
