Id,Label,Modularity Class,City,State,Country,Latitude,Longitude
1,"florianopolis,santa catarina,brazil",,florianopolis,santa catarina,brazil,-27.597,-48.549
2,"braga,braga,portugal",,braga,braga,portugal,41.55032,-8.42005
3,"sao paulo,sao paulo,brazil",,sao paulo,sao paulo,brazil,-23.548,-46.636
4,"ottawa,ontario,canada",,ottawa,ontario,canada,45.41117,-75.69812
5,"ithaca,new york,united states",,ithaca,new york,united states,42.44063,-76.49661
6,"lavras,minas gerais,brazil",,lavras,minas gerais,brazil,-21.245,-45
7,"alfenas,minas gerais,brazil",,alfenas,minas gerais,brazil,-21.429,-45.947
8,"londrina,parana,brazil",,londrina,parana,brazil,-23.31,-51.163
9,"rio de janeiro,rio de janeiro,brazil",,rio de janeiro,rio de janeiro,brazil,-22.903,-43.208
10,"uberlandia,minas gerais,brazil",,uberlandia,minas gerais,brazil,-18.919,-48.277
11,"niteroi,rio de janeiro,brazil",,niteroi,rio de janeiro,brazil,-22.883,-43.104
12,"santos,sao paulo,brazil",,santos,sao paulo,brazil,-23.961,-46.334
13,"montevideo,montevideo,uruguay",,montevideo,montevideo,uruguay,-34.90328,-56.18816
14,"bauru,sao paulo,brazil",,bauru,sao paulo,brazil,-22.315,-49.061
15,"curitiba,parana,brazil",,curitiba,parana,brazil,-25.428,-49.273
16,"salamanca,madrid,spain",,salamanca,madrid,spain,40.42972,-3.67975
17,"valladolid,castille and león,spain",,valladolid,castille and león,spain,41.65518,-4.72372
18,"vitoria,espirito santo,brazil",,vitoria,espirito santo,brazil,-20.319,-40.338
19,"brasilia,federal district,brazil",,brasilia,federal district,brazil,-15.78,-47.93
20,"pelotas,rio grande do sul,brazil",,pelotas,rio grande do sul,brazil,-31.772,-52.343
21,"sao leopoldo,rio grande do sul,brazil",,sao leopoldo,rio grande do sul,brazil,-29.76,-51.147
22,"taubate,sao paulo,brazil",,taubate,sao paulo,brazil,-23.026,-45.555
23,"cambridge,massachusetts,united states",,cambridge,massachusetts,united states,42.3751,-71.10561
24,"minneapolis,minnesota,united states",,minneapolis,minnesota,united states,44.97997,-93.26384
25,"tokyo,tōkyō,japan",,tokyo,tōkyō,japan,35.6895,139.69171
26,"vitoria da conquista,bahia,brazil",,vitoria da conquista,bahia,brazil,-14.866,-40.839
27,"ilheus,bahia,brazil",,ilheus,bahia,brazil,-14.789,-39.049
28,"salvador,bahia,brazil",,salvador,bahia,brazil,-12.971,-38.511
29,"belo horizonte,minas gerais,brazil",,belo horizonte,minas gerais,brazil,-19.817,-43.956
30,"belem,para,brazil",,belem,para,brazil,-1.456,-48.504
31,"campinas,sao paulo,brazil",,campinas,sao paulo,brazil,-22.906,-47.061
32,"recife,pernambuco,brazil",,recife,pernambuco,brazil,-8.054,-34.881
33,"vicosa,minas gerais,brazil",,vicosa,minas gerais,brazil,-20.754,-42.882
34,"araras,sao paulo,brazil",,araras,sao paulo,brazil,-22.357,-47.384
35,"guarulhos,sao paulo,brazil",,guarulhos,sao paulo,brazil,-23.463,-46.533
36,"porto alegre,rio grande do sul,brazil",,porto alegre,rio grande do sul,brazil,-30.033,-51.23
37,"cambridge,england,united kingdom",,cambridge,england,united kingdom,52.2,0.11667
38,"los angeles,california,united states",,los angeles,california,united states,34.05223,-118.24368
39,"new york city,new york,united states",,new york city,new york,united states,40.71427,-74.00597
40,"riverside,california,united states",,riverside,california,united states,33.95335,-117.39616
41,"baltimore,maryland,united states",,baltimore,maryland,united states,39.29038,-76.61219
42,"berlin,berlin,germany",,berlin,berlin,germany,52.52437,13.41053
43,"medellin,departamento de antioquia,colombia",,medellin,departamento de antioquia,colombia,6.25184,-75.56359
44,"guarapuava,parana,brazil",,guarapuava,parana,brazil,-25.395,-51.458
45,"santa maria,rio grande do sul,brazil",,santa maria,rio grande do sul,brazil,-29.684,-53.807
46,"new haven,connecticut,united states",,new haven,connecticut,united states,41.30815,-72.92816
47,"ribeirao preto,sao paulo,brazil",,ribeirao preto,sao paulo,brazil,-21.178,-47.81
48,"paris,île-de-france,france",,paris,île-de-france,france,48.85341,2.3488
49,"lorena,sao paulo,brazil",,lorena,sao paulo,brazil,-22.731,-45.125
50,"barcelona,catalonia,spain",,barcelona,catalonia,spain,41.38879,2.15899
51,"palo alto,california,united states",,palo alto,california,united states,37.44188,-122.14302
52,"santiago,santiago,chile",,santiago,santiago,chile,-33.45694,-70.64827
53,"macapa,amapa,brazil",,macapa,amapa,brazil,0.039,-51.066
54,"juiz de fora,minas gerais,brazil",,juiz de fora,minas gerais,brazil,-21.764,-43.35
55,"chatenay malabry,île-de-france,france",,chatenay malabry,île-de-france,france,48.76507,2.26655
56,"seropedica,rio de janeiro,brazil",,seropedica,rio de janeiro,brazil,-22.744,-43.708
57,"madrid,madrid,spain",,madrid,madrid,spain,40.4165,-3.70256
58,"la plata,buenos aires,argentina",,la plata,buenos aires,argentina,-34.92145,-57.95453
59,"joao pessoa,paraiba,brazil",,joao pessoa,paraiba,brazil,-7.115,-34.863
60,"fortaleza,ceara,brazil",,fortaleza,ceara,brazil,-3.717,-38.543
61,"buenos aires,buenos aires f.d.,argentina",,buenos aires,buenos aires f.d.,argentina,-34.61315,-58.37723
62,"rome,latium,italy",,rome,latium,italy,41.89193,12.51133
63,"cuiaba,mato grosso,brazil",,cuiaba,mato grosso,brazil,-15.596,-56.097
64,"cascavel,parana,brazil",,cascavel,parana,brazil,-24.956,-53.455
65,"barretos,sao paulo,brazil",,barretos,sao paulo,brazil,-20.557,-48.568
66,"joliet,illinois,united states",,joliet,illinois,united states,41.52519,-88.0834
67,"albany,new york,united states",,albany,new york,united states,42.65258,-73.75623
68,"campo grande,mato grosso do sul,brazil",,campo grande,mato grosso do sul,brazil,-20.443,-54.646
69,"porto,porto,portugal",,porto,porto,portugal,41.14961,-8.61099
70,"london,england,united kingdom",,london,england,united kingdom,51.50853,-0.12574
71,"goiania,goias,brazil",,goiania,goias,brazil,-16.679,-49.254
72,"maceio,alagoas,brazil",,maceio,alagoas,brazil,-9.666,-35.735
73,"leuven,flanders,belgium",,leuven,flanders,belgium,50.87959,4.70093
74,"wageningen,gelderland,netherlands",,wageningen,gelderland,netherlands,51.97,5.66667
75,"feira de santana,bahia,brazil",,feira de santana,bahia,brazil,-12.267,-38.967
76,"philadelphia,pennsylvania,united states",,philadelphia,pennsylvania,united states,39.95233,-75.16379
77,"natal,rio grande do norte,brazil",,natal,rio grande do norte,brazil,-5.795,-35.209
78,"sheffield,england,united kingdom",,sheffield,england,united kingdom,53.38297,-1.4659
79,"manizales,caldas,colombia",,manizales,caldas,colombia,5.06889,-75.51738
80,"toronto,ontario,canada",,toronto,ontario,canada,43.70011,-79.4163
81,"itajai,santa catarina,brazil",,itajai,santa catarina,brazil,-26.908,-48.662
82,"presidente prudente,sao paulo,brazil",,presidente prudente,sao paulo,brazil,-22.126,-51.389
83,"caxias do sul,rio grande do sul,brazil",,caxias do sul,rio grande do sul,brazil,-29.168,-51.179
84,"iowa city,iowa,united states",,iowa city,iowa,united states,41.66113,-91.53017
85,"sao jose dos campos,sao paulo,brazil",,sao jose dos campos,sao paulo,brazil,-23.179,-45.887
86,"milano,lombardy,italy",,milano,lombardy,italy,45.46427,9.18951
87,"lisbon,lisbon,portugal",,lisbon,lisbon,portugal,38.71667,-9.13333
88,"bento goncalves,rio grande do sul,brazil",,bento goncalves,rio grande do sul,brazil,-29.171,-51.519
89,"boston,massachusetts,united states",,boston,massachusetts,united states,42.35843,-71.05977
90,"denver,colorado,united states",,denver,colorado,united states,39.73915,-104.9847
91,"nottingham,england,united kingdom",,nottingham,england,united kingdom,52.9536,-1.15047
92,"gainesville,florida,united states",,gainesville,florida,united states,29.65163,-82.32483
93,"araraquara,sao paulo,brazil",,araraquara,sao paulo,brazil,-21.794,-48.176
94,"petropolis,rio de janeiro,brazil",,petropolis,rio de janeiro,brazil,-22.505,-43.179
95,"madison,wisconsin,united states",,madison,wisconsin,united states,43.07305,-89.40123
96,"rochester,new york,united states",,rochester,new york,united states,43.15478,-77.61556
97,"duque de caxias,rio de janeiro,brazil",,duque de caxias,rio de janeiro,brazil,-22.786,-43.312
98,"piracicaba,sao paulo,brazil",,piracicaba,sao paulo,brazil,-22.725,-47.649
99,"sao luis,maranhao,brazil",,sao luis,maranhao,brazil,-2.53,-44.303
100,"manaus,amazonas,brazil",,manaus,amazonas,brazil,-3.102,-60.025
101,"edmonton,alberta,canada",,edmonton,alberta,canada,53.55014,-113.46871
102,"new orleans,louisiana,united states",,new orleans,louisiana,united states,29.95465,-90.07507
103,"maringa,parana,brazil",,maringa,parana,brazil,-23.425,-51.939
104,"teresina,piaui,brazil",,teresina,piaui,brazil,-5.089,-42.802
105,"sao jose do rio preto,sao paulo,brazil",,sao jose do rio preto,sao paulo,brazil,-20.82,-49.379
106,"ann arbor,michigan,united states",,ann arbor,michigan,united states,42.27756,-83.74088
107,"rio branco,acre,brazil",,rio branco,acre,brazil,-9.975,-67.81
108,"uberaba,minas gerais,brazil",,uberaba,minas gerais,brazil,-19.748,-47.932
109,"champaign,illinois,united states",,champaign,illinois,united states,40.11642,-88.24338
110,"campo mourao,parana,brazil",,campo mourao,parana,brazil,-24.046,-52.383
111,"pamplona,navarre,spain",,pamplona,navarre,spain,42.81687,-1.64323
112,"sao cristovao,sergipe,brazil",,sao cristovao,sergipe,brazil,-11.015,-37.206
113,"santo andre,sao paulo,brazil",,santo andre,sao paulo,brazil,-23.664,-46.538
114,"franca,sao paulo,brazil",,franca,sao paulo,brazil,-20.539,-47.401
115,"itajuba,minas gerais,brazil",,itajuba,minas gerais,brazil,-22.426,-45.453
116,"sao bernardo do campo,sao paulo,brazil",,sao bernardo do campo,sao paulo,brazil,-23.694,-46.565
117,"ponta grossa,parana,brazil",,ponta grossa,parana,brazil,-25.095,-50.162
118,"cedar rapids,iowa,united states",,cedar rapids,iowa,united states,42.00833,-91.64407
119,"ouro preto,minas gerais,brazil",,ouro preto,minas gerais,brazil,-20.288,-43.508
120,"marilia,sao paulo,brazil",,marilia,sao paulo,brazil,-22.214,-49.946
121,"sao carlos,sao paulo,brazil",,sao carlos,sao paulo,brazil,-22.018,-47.891
122,"reading,england,united kingdom",,reading,england,united kingdom,51.45625,-0.97113
123,"bologna,emilia-romagna,italy",,bologna,emilia-romagna,italy,44.49381,11.33875
124,"washington d c,washington, d.c.,united states",,washington d c,"washington, d.c.",united states,38.89511,-77.03637
125,"mogi das cruzes,sao paulo,brazil",,mogi das cruzes,sao paulo,brazil,-23.523,-46.188
126,"botucatu,sao paulo,brazil",,botucatu,sao paulo,brazil,-22.886,-48.445
127,"santa cruz,california,united states",,santa cruz,california,united states,36.97412,-122.0308
128,"oxford,england,united kingdom",,oxford,england,united kingdom,51.75222,-1.25596
129,"campina grande,paraiba,brazil",,campina grande,paraiba,brazil,-7.231,-35.881
130,"brussels,brussels capital region,belgium",,brussels,brussels capital region,belgium,50.85045,4.34878
131,"edinburgh,scotland,united kingdom",,edinburgh,scotland,united kingdom,55.95206,-3.19648
132,"raleigh,north carolina,united states",,raleigh,north carolina,united states,35.7721,-78.63861
133,"east lansing,michigan,united states",,east lansing,michigan,united states,42.73698,-84.48387
134,"state college,pennsylvania,united states",,state college,pennsylvania,united states,40.79339,-77.86
135,"canoas,rio grande do sul,brazil",,canoas,rio grande do sul,brazil,-29.918,-51.184
136,"waterloo,ontario,canada",,waterloo,ontario,canada,43.4668,-80.51639
137,"glasgow,scotland,united kingdom",,glasgow,scotland,united kingdom,55.86515,-4.25763
138,"porto velho,rondonia,brazil",,porto velho,rondonia,brazil,-8.762,-63.904
139,"skokie,illinois,united states",,skokie,illinois,united states,42.03336,-87.73339
140,"manchester,england,united kingdom",,manchester,england,united kingdom,53.48095,-2.23743
141,"varginha,minas gerais,brazil",,varginha,minas gerais,brazil,-21.551,-45.43
142,"sao goncalo,rio de janeiro,brazil",,sao goncalo,rio de janeiro,brazil,-22.827,-43.054
143,"santiago de compostela,galicia,spain",,santiago de compostela,galicia,spain,42.88052,-8.54569
144,"cordoba,andalusia,spain",,cordoba,andalusia,spain,37.89155,-4.77275
145,"tubarao,santa catarina,brazil",,tubarao,santa catarina,brazil,-28.467,-49.007
146,"rio grande,rio grande do sul,brazil",,rio grande,rio grande do sul,brazil,-32.035,-52.099
147,"jundiai,sao paulo,brazil",,jundiai,sao paulo,brazil,-23.186,-46.884
148,"strasbourg,alsace,france",,strasbourg,alsace,france,48.58392,7.74553
149,"sao joao del rei,minas gerais,brazil",,sao joao del rei,minas gerais,brazil,-21.136,-44.262
150,"braganca paulista,sao paulo,brazil",,braganca paulista,sao paulo,brazil,-22.952,-46.542
151,"pittsburgh,pennsylvania,united states",,pittsburgh,pennsylvania,united states,40.44062,-79.99589
152,"pullman,washington,united states",,pullman,washington,united states,46.73127,-117.17962
153,"providence,rhode island,united states",,providence,rhode island,united states,41.82399,-71.41283
154,"montes claros,minas gerais,brazil",,montes claros,minas gerais,brazil,-16.735,-43.862
155,"vancouver,british columbia,canada",,vancouver,british columbia,canada,49.24966,-123.11934
156,"granada,andalusia,spain",,granada,andalusia,spain,37.18817,-3.60667
157,"evanston,illinois,united states",,evanston,illinois,united states,42.04114,-87.69006
158,"rio claro,sao paulo,brazil",,rio claro,sao paulo,brazil,-22.411,-47.561
159,"ames,iowa,united states",,ames,iowa,united states,42.03471,-93.61994
160,"leeds,england,united kingdom",,leeds,england,united kingdom,53.79648,-1.54785
161,"ijui,rio grande do sul,brazil",,ijui,rio grande do sul,brazil,-28.388,-53.915
162,"saint denis,île-de-france,france",,saint denis,île-de-france,france,48.93333,2.36667
163,"florence,tuscany,italy",,florence,tuscany,italy,43.77925,11.24626
164,"bordeaux,aquitaine,france",,bordeaux,aquitaine,france,44.84044,-0.5805
165,"west lafayette,indiana,united states",,west lafayette,indiana,united states,40.42587,-86.90807
166,"apucarana,parana,brazil",,apucarana,parana,brazil,-23.551,-51.461
167,"cachoeiro de itapemirim,espirito santo,brazil",,cachoeiro de itapemirim,espirito santo,brazil,-20.849,-41.113
168,"south bend,indiana,united states",,south bend,indiana,united states,41.68338,-86.25001
169,"geneva,illinois,united states",,geneva,illinois,united states,41.88753,-88.30535
170,"new brunswick,new jersey,united states",,new brunswick,new jersey,united states,40.48622,-74.45182
171,"college station,texas,united states",,college station,texas,united states,30.62798,-96.33441
172,"santa cruz do sul,rio grande do sul,brazil",,santa cruz do sul,rio grande do sul,brazil,-29.718,-52.426
173,"caratinga,minas gerais,brazil",,caratinga,minas gerais,brazil,-19.79,-42.139
174,"princeton,florida,united states",,princeton,florida,united states,25.53844,-80.40894
175,"austin,texas,united states",,austin,texas,united states,30.26715,-97.74306
176,"paranavai,parana,brazil",,paranavai,parana,brazil,-23.073,-52.465
177,"nashville,tennessee,united states",,nashville,tennessee,united states,36.16589,-86.78444
178,"sydney,new south wales,australia",,sydney,new south wales,australia,-33.86785,151.20732
179,"campos dos goytacazes,rio de janeiro,brazil",,campos dos goytacazes,rio de janeiro,brazil,-21.754,-41.324
180,"sobral,ceara,brazil",,sobral,ceara,brazil,-3.674,-40.239
181,"lima,provincia de lima,peru",,lima,provincia de lima,peru,-12.04318,-77.02824
182,"garca,sao paulo,brazil",,garca,sao paulo,brazil,-22.211,-49.656
183,"tucson,arizona,united states",,tucson,arizona,united states,32.22174,-110.92648
184,"norwich,england,united kingdom",,norwich,england,united kingdom,52.62783,1.29834
185,"garching bei munchen,bavaria,germany",,garching bei munchen,bavaria,germany,48.24896,11.65101
186,"hannover,lower saxony,germany",,hannover,lower saxony,germany,52.37052,9.73322
187,"coventry,england,united kingdom",,coventry,england,united kingdom,52.40656,-1.51217
188,"palmas,parana,brazil",,palmas,parana,brazil,-26.484,-51.991
189,"berkeley,california,united states",,berkeley,california,united states,37.87159,-122.27275
190,"stillwater,oklahoma,united states",,stillwater,oklahoma,united states,36.11561,-97.05837
191,"liverpool,england,united kingdom",,liverpool,england,united kingdom,53.41058,-2.97794
192,"atlanta,georgia,united states",,atlanta,georgia,united states,33.749,-84.38798
193,"logan,utah,united states",,logan,utah,united states,41.73549,-111.83439
194,"cerdanyola del valles,catalonia,spain",,cerdanyola del valles,catalonia,spain,41.49109,2.14079
195,"birmingham,england,united kingdom",,birmingham,england,united kingdom,52.48142,-1.89983
196,"salt lake city,utah,united states",,salt lake city,utah,united states,40.76078,-111.89105
197,"brisbane,queensland,australia",,brisbane,queensland,australia,-27.46794,153.02809
198,"quebec,quebec,canada",,quebec,quebec,canada,46.81228,-71.21454
199,"dourados,mato grosso do sul,brazil",,dourados,mato grosso do sul,brazil,-22.221,-54.806
200,"creteil,île-de-france,france",,creteil,île-de-france,france,48.78333,2.46667
201,"valencia,valencia,spain",,valencia,valencia,spain,39.46975,-0.37739
202,"calgary,alberta,canada",,calgary,alberta,canada,51.05011,-114.08529
203,"sao caetano do sul,sao paulo,brazil",,sao caetano do sul,sao paulo,brazil,-23.623,-46.551
204,"araguaina,tocantins,brazil",,araguaina,tocantins,brazil,-7.191,-48.207
205,"san ignacio,cayo,belize",,san ignacio,cayo,belize,17.15297,-89.08058
206,"bethesda,maryland,united states",,bethesda,maryland,united states,38.98067,-77.10026
207,"boulder,colorado,united states",,boulder,colorado,united states,40.01499,-105.27055
208,"olinda,pernambuco,brazil",,olinda,pernambuco,brazil,-8.009,-34.855
209,"varzea grande,mato grosso,brazil",,varzea grande,mato grosso,brazil,-15.647,-56.133
210,"montreal,quebec,canada",,montreal,quebec,canada,45.50884,-73.58781
211,"nanterre,île-de-france,france",,nanterre,île-de-france,france,48.89198,2.20675
212,"sorocaba,sao paulo,brazil",,sorocaba,sao paulo,brazil,-23.502,-47.458
213,"votuporanga,sao paulo,brazil",,votuporanga,sao paulo,brazil,-20.423,-49.973
214,"copenhagen,capital region,denmark",,copenhagen,capital region,denmark,55.67594,12.56553
215,"heidelberg,baden-württemberg region,germany",,heidelberg,baden-württemberg region,germany,49.40768,8.69079
216,"catanduva,sao paulo,brazil",,catanduva,sao paulo,brazil,-21.138,-48.973
217,"villeurbanne,rhône-alpes,france",,villeurbanne,rhône-alpes,france,45.76667,4.88333
218,"karlsruhe,baden-württemberg region,germany",,karlsruhe,baden-württemberg region,germany,49.00937,8.40444
219,"brighton,england,united kingdom",,brighton,england,united kingdom,50.82838,-0.13947
220,"cali,valle del cauca,colombia",,cali,valle del cauca,colombia,3.43722,-76.5225
221,"governador valadares,minas gerais,brazil",,governador valadares,minas gerais,brazil,-18.851,-41.949
222,"joinville,santa catarina,brazil",,joinville,santa catarina,brazil,-26.304,-48.846
223,"pompeia,sao paulo,brazil",,pompeia,sao paulo,brazil,-22.109,-50.172
224,"leiden,south holland,netherlands",,leiden,south holland,netherlands,52.15833,4.49306
225,"sete lagoas,minas gerais,brazil",,sete lagoas,minas gerais,brazil,-19.466,-44.247
226,"suzano,sao paulo,brazil",,suzano,sao paulo,brazil,-23.543,-46.311
227,"medianeira,parana,brazil",,medianeira,parana,brazil,-25.295,-54.094
228,"vassouras,rio de janeiro,brazil",,vassouras,rio de janeiro,brazil,-22.404,-43.663
229,"santa rita,paraiba,brazil",,santa rita,paraiba,brazil,-7.114,-34.978
230,"ituverava,sao paulo,brazil",,ituverava,sao paulo,brazil,-20.339,-47.781
231,"bucaramanga,santander,colombia",,bucaramanga,santander,colombia,7.12539,-73.1198
232,"sapporo,hokkaidō,japan",,sapporo,hokkaidō,japan,43.06417,141.34695
233,"caruaru,pernambuco,brazil",,caruaru,pernambuco,brazil,-8.283,-35.976
234,"golden,colorado,united states",,golden,colorado,united states,39.75554,-105.2211
235,"osasco,sao paulo,brazil",,osasco,sao paulo,brazil,-23.533,-46.792
236,"cachoeira,bahia,brazil",,cachoeira,bahia,brazil,-12.618,-38.956
237,"belo jardim,pernambuco,brazil",,belo jardim,pernambuco,brazil,-8.336,-36.424
238,"araripina,pernambuco,brazil",,araripina,pernambuco,brazil,-7.576,-40.498
239,"sao jose do rio pardo,sao paulo,brazil",,sao jose do rio pardo,sao paulo,brazil,-21.596,-46.889
240,"london,ontario,canada",,london,ontario,canada,42.98339,-81.23304
241,"sao luis de montes belos,goias,brazil",,sao luis de montes belos,goias,brazil,-16.525,-50.372
242,"colchester,england,united kingdom",,colchester,england,united kingdom,51.88921,0.90421
243,"pirassununga,sao paulo,brazil",,pirassununga,sao paulo,brazil,-21.996,-47.426
244,"bogota,bogota d.c.,colombia",,bogota,bogota d.c.,colombia,4.60971,-74.08175
245,"houston,texas,united states",,houston,texas,united states,29.76328,-95.36327
246,"saint andrews,scotland,united kingdom",,saint andrews,scotland,united kingdom,56.33871,-2.79902
247,"trujillo,la libertad,peru",,trujillo,la libertad,peru,-8.11599,-79.02998
248,"assis chateaubriand,parana,brazil",,assis chateaubriand,parana,brazil,-24.42,-53.521
249,"jau,sao paulo,brazil",,jau,sao paulo,brazil,-22.296,-48.558
250,"umuarama,parana,brazil",,umuarama,parana,brazil,-23.766,-53.325
251,"medford,massachusetts,united states",,medford,massachusetts,united states,42.41843,-71.10616
252,"tres coracoes,minas gerais,brazil",,tres coracoes,minas gerais,brazil,-21.697,-45.253
253,"kyoto,kyōto,japan",,kyoto,kyōto,japan,35.02107,135.75385
254,"padova,veneto,italy",,padova,veneto,italy,45.40797,11.88586
255,"centro habana,ciudad de la habana,cuba",,centro habana,ciudad de la habana,cuba,23.13833,-82.36417
256,"aveiro,aveiro,portugal",,aveiro,aveiro,portugal,40.64427,-8.64554
257,"davis,california,united states",,davis,california,united states,38.54491,-121.74052
258,"valparaiso,valparaíso,chile",,valparaiso,valparaíso,chile,-33.03932,-71.62725
259,"pouso alegre,minas gerais,brazil",,pouso alegre,minas gerais,brazil,-22.23,-45.936
260,"juina,mato grosso,brazil",,juina,mato grosso,brazil,-11.378,-58.741
261,"palmas,tocantins,brazil",,palmas,tocantins,brazil,-10.167,-48.333
262,"diamantina,minas gerais,brazil",,diamantina,minas gerais,brazil,-18.249,-43.6
263,"foz do iguacu,parana,brazil",,foz do iguacu,parana,brazil,-25.548,-54.588
264,"cachoeira do sul,rio grande do sul,brazil",,cachoeira do sul,rio grande do sul,brazil,-30.039,-52.894
265,"petrolina,pernambuco,brazil",,petrolina,pernambuco,brazil,-9.393,-40.508
266,"sao sebastiao,sao paulo,brazil",,sao sebastiao,sao paulo,brazil,-23.76,-45.41
267,"inconfidentes,minas gerais,brazil",,inconfidentes,minas gerais,brazil,-22.317,-46.328
268,"caceres,mato grosso,brazil",,caceres,mato grosso,brazil,-16.071,-57.679
269,"diadema,sao paulo,brazil",,diadema,sao paulo,brazil,-23.686,-46.623
270,"chicago,illinois,united states",,chicago,illinois,united states,41.85003,-87.65005
271,"nilopolis,rio de janeiro,brazil",,nilopolis,rio de janeiro,brazil,-22.808,-43.414
272,"campo limpo paulista,sao paulo,brazil",,campo limpo paulista,sao paulo,brazil,-23.206,-46.784
273,"munster,lower saxony,germany",,munster,lower saxony,germany,52.98569,10.08756
274,"lexington,kentucky,united states",,lexington,kentucky,united states,37.98869,-84.47772
275,"la jolla,california,united states",,la jolla,california,united states,32.84727,-117.2742
276,"santarem,para,brazil",,santarem,para,brazil,-2.443,-54.708
277,"guaruja,sao paulo,brazil",,guaruja,sao paulo,brazil,-23.993,-46.256
278,"aracaju,sergipe,brazil",,aracaju,sergipe,brazil,-10.911,-37.072
279,"nazare paulista,sao paulo,brazil",,nazare paulista,sao paulo,brazil,-23.181,-46.395
280,"eldorado do sul,rio grande do sul,brazil",,eldorado do sul,rio grande do sul,brazil,-30.084,-51.616
281,"americana,sao paulo,brazil",,americana,sao paulo,brazil,-22.739,-47.331
282,"vila velha,espirito santo,brazil",,vila velha,espirito santo,brazil,-20.33,-40.292
283,"itapecerica da serra,sao paulo,brazil",,itapecerica da serra,sao paulo,brazil,-23.717,-46.849
284,"carapicuiba,sao paulo,brazil",,carapicuiba,sao paulo,brazil,-23.523,-46.836
285,"jaboticabal,sao paulo,brazil",,jaboticabal,sao paulo,brazil,-21.255,-48.322
286,"adamantina,sao paulo,brazil",,adamantina,sao paulo,brazil,-21.685,-51.073
287,"canoinhas,santa catarina,brazil",,canoinhas,santa catarina,brazil,-26.177,-50.39
288,"salto,sao paulo,brazil",,salto,sao paulo,brazil,-23.201,-47.287
289,"ivatuba,parana,brazil",,ivatuba,parana,brazil,-23.619,-52.221
290,"chapeco,santa catarina,brazil",,chapeco,santa catarina,brazil,-27.096,-52.618
291,"anapolis,goias,brazil",,anapolis,goias,brazil,-16.327,-48.953
292,"maua,sao paulo,brazil",,maua,sao paulo,brazil,-23.668,-46.461
293,"cruz das almas,bahia,brazil",,cruz das almas,bahia,brazil,-12.67,-39.102
294,"blumenau,santa catarina,brazil",,blumenau,santa catarina,brazil,-26.919,-49.066
295,"taboao da serra,sao paulo,brazil",,taboao da serra,sao paulo,brazil,-23.602,-46.753
296,"seattle,washington,united states",,seattle,washington,united states,47.60621,-122.33207
297,"aberdeen,scotland,united kingdom",,aberdeen,scotland,united kingdom,57.14369,-2.09814
298,"breves,para,brazil",,breves,para,brazil,-1.682,-50.48
299,"melbourne,victoria,australia",,melbourne,victoria,australia,-37.814,144.96332
300,"guanambi,bahia,brazil",,guanambi,bahia,brazil,-14.223,-42.781
301,"criciuma,santa catarina,brazil",,criciuma,santa catarina,brazil,-28.678,-49.37
302,"athens,georgia,united states",,athens,georgia,united states,33.96095,-83.37794
303,"avare,sao paulo,brazil",,avare,sao paulo,brazil,-23.099,-48.926
304,"mossoro,rio grande do norte,brazil",,mossoro,rio grande do norte,brazil,-5.188,-37.344
305,"utrecht,utrecht,netherlands",,utrecht,utrecht,netherlands,52.09083,5.12222
306,"boa vista,roraima,brazil",,boa vista,roraima,brazil,2.82,-60.673
307,"nova iguacu,rio de janeiro,brazil",,nova iguacu,rio de janeiro,brazil,-22.759,-43.451
308,"bebedouro,sao paulo,brazil",,bebedouro,sao paulo,brazil,-20.949,-48.479
309,"pindamonhangaba,sao paulo,brazil",,pindamonhangaba,sao paulo,brazil,-22.924,-45.462
310,"batatais,sao paulo,brazil",,batatais,sao paulo,brazil,-20.891,-47.585
311,"campos gerais,minas gerais,brazil",,campos gerais,minas gerais,brazil,-21.235,-45.759
312,"araxa,minas gerais,brazil",,araxa,minas gerais,brazil,-19.593,-46.941
313,"charqueadas,rio grande do sul,brazil",,charqueadas,rio grande do sul,brazil,-29.955,-51.625
314,"jequie,bahia,brazil",,jequie,bahia,brazil,-13.858,-40.084
315,"saquarema,rio de janeiro,brazil",,saquarema,rio de janeiro,brazil,-22.92,-42.51
316,"cafelandia,sao paulo,brazil",,cafelandia,sao paulo,brazil,-21.803,-49.61
317,"aurora,ceara,brazil",,aurora,ceara,brazil,-6.943,-38.968
318,"maputo,maputo city,mozambique",,maputo,maputo city,mozambique,-25.96553,32.58322
319,"quito,pichincha,ecuador",,quito,pichincha,ecuador,-0.22985,-78.52495
320,"cusco,cusco,peru",,cusco,cusco,peru,-13.52264,-71.96734
321,"borrazopolis,parana,brazil",,borrazopolis,parana,brazil,-23.941,-51.588
322,"sao jose,santa catarina,brazil",,sao jose,santa catarina,brazil,-27.615,-48.628
323,"coimbra,coimbra,portugal",,coimbra,coimbra,portugal,40.20564,-8.41955
324,"fernandopolis,sao paulo,brazil",,fernandopolis,sao paulo,brazil,-20.284,-50.246
325,"peshawar,north-west frontier province,pakistan",,peshawar,north-west frontier province,pakistan,34.008,71.57849
326,"caracas,distrito federal,venezuela",,caracas,distrito federal,venezuela,10.48801,-66.87919
327,"ica,ica,peru",,ica,ica,peru,-14.06777,-75.72861
328,"cornelio procopio,parana,brazil",,cornelio procopio,parana,brazil,-23.181,-50.647
329,"cordoba,córdoba,argentina",,cordoba,córdoba,argentina,-31.4135,-64.18105
330,"havana,ciudad de la habana,cuba",,havana,ciudad de la habana,cuba,23.13302,-82.38304
331,"calarca,quindío,colombia",,calarca,quindío,colombia,4.52949,-75.64091
332,"franco da rocha,sao paulo,brazil",,franco da rocha,sao paulo,brazil,-23.322,-46.727
333,"santiago de cuba,santiago de cuba,cuba",,santiago de cuba,santiago de cuba,cuba,20.02472,-75.82194
334,"chiclayo,lambayeque,peru",,chiclayo,lambayeque,peru,-6.77137,-79.84088
335,"formosa do oeste,parana,brazil",,formosa do oeste,parana,brazil,-24.293,-53.313
336,"formigueiro,rio grande do sul,brazil",,formigueiro,rio grande do sul,brazil,-30,-53.499
337,"visconde do rio branco,minas gerais,brazil",,visconde do rio branco,minas gerais,brazil,-21.01,-42.841
338,"sao joao de meriti,rio de janeiro,brazil",,sao joao de meriti,rio de janeiro,brazil,-22.804,-43.372
339,"catalao,goias,brazil",,catalao,goias,brazil,-18.17,-47.942
340,"conchas,sao paulo,brazil",,conchas,sao paulo,brazil,-23.015,-48.011
341,"alcobaca,bahia,brazil",,alcobaca,bahia,brazil,-17.519,-39.196
342,"juliaca,puno,peru",,juliaca,puno,peru,-15.5,-70.13333
343,"covilha,castelo branco,portugal",,covilha,castelo branco,portugal,40.28601,-7.50396
344,"limeira,sao paulo,brazil",,limeira,sao paulo,brazil,-22.565,-47.402
345,"espirito santo do pinhal,sao paulo,brazil",,espirito santo do pinhal,sao paulo,brazil,-22.191,-46.741
346,"pojuca,bahia,brazil",,pojuca,bahia,brazil,-12.431,-38.328
347,"promissao,sao paulo,brazil",,promissao,sao paulo,brazil,-21.537,-49.858
348,"santo domingo,distrito nacional,dominican republic",,santo domingo,distrito nacional,dominican republic,18.50012,-69.98857
349,"pontevedra,galicia,spain",,pontevedra,galicia,spain,42.431,-8.64435
350,"paranagua,parana,brazil",,paranagua,parana,brazil,-25.52,-48.509
351,"arica,arica y parinacota,chile",,arica,arica y parinacota,chile,-18.4746,-70.29792
352,"mandaguacu,parana,brazil",,mandaguacu,parana,brazil,-23.347,-52.095
353,"vila rica,mato grosso,brazil",,vila rica,mato grosso,brazil,-10.012,-51.116
354,"san francisco,california,united states",,san francisco,california,united states,37.77493,-122.41942
355,"mainz,rheinland-pfalz,germany",,mainz,rheinland-pfalz,germany,49.98419,8.2791
356,"cruz alta,rio grande do sul,brazil",,cruz alta,rio grande do sul,brazil,-28.639,-53.606
357,"envigado,departamento de antioquia,colombia",,envigado,departamento de antioquia,colombia,6.17591,-75.59174
358,"maracas,bahia,brazil",,maracas,bahia,brazil,-13.441,-40.431
359,"santa barbara d oeste,sao paulo,brazil",,santa barbara d oeste,sao paulo,brazil,-22.754,-47.414
360,"guantanamo,guantánamo,cuba",,guantanamo,guantánamo,cuba,20.14444,-75.20917
361,"jaragua do sul,santa catarina,brazil",,jaragua do sul,santa catarina,brazil,-26.486,-49.067
362,"cacapava do sul,rio grande do sul,brazil",,cacapava do sul,rio grande do sul,brazil,-30.512,-53.491
363,"pinar del rio,pinar del río,cuba",,pinar del rio,pinar del río,cuba,22.4175,-83.69806
364,"salerno,campania,italy",,salerno,campania,italy,40.67545,14.79328
365,"mar del plata,buenos aires,argentina",,mar del plata,buenos aires,argentina,-38.00228,-57.55754
366,"votorantim,sao paulo,brazil",,votorantim,sao paulo,brazil,-23.547,-47.438
367,"campo largo,parana,brazil",,campo largo,parana,brazil,-25.459,-49.528
368,"malta,paraiba,brazil",,malta,paraiba,brazil,-6.904,-37.522
369,"toulouse,midi-pyrénées,france",,toulouse,midi-pyrénées,france,43.60426,1.44367
370,"holguin,holguín,cuba",,holguin,holguín,cuba,20.88722,-76.26306
371,"valenca,rio de janeiro,brazil",,valenca,rio de janeiro,brazil,-22.246,-43.7
372,"crissiumal,rio grande do sul,brazil",,crissiumal,rio grande do sul,brazil,-27.5,-54.101
373,"ponte nova,minas gerais,brazil",,ponte nova,minas gerais,brazil,-20.416,-42.909
374,"cambui,minas gerais,brazil",,cambui,minas gerais,brazil,-22.612,-46.058
375,"manacapuru,amazonas,brazil",,manacapuru,amazonas,brazil,-3.3,-60.621
376,"tucunduva,rio grande do sul,brazil",,tucunduva,rio grande do sul,brazil,-27.657,-54.44
377,"codo,maranhao,brazil",,codo,maranhao,brazil,-4.455,-43.886
378,"andradina,sao paulo,brazil",,andradina,sao paulo,brazil,-20.896,-51.379
379,"tres rios,rio de janeiro,brazil",,tres rios,rio de janeiro,brazil,-22.117,-43.209
380,"baependi,minas gerais,brazil",,baependi,minas gerais,brazil,-21.959,-44.89
381,"olimpia,sao paulo,brazil",,olimpia,sao paulo,brazil,-20.737,-48.915
382,"quetzaltenango,quetzaltenango,guatemala",,quetzaltenango,quetzaltenango,guatemala,14.83472,-91.51806
383,"cedral,sao paulo,brazil",,cedral,sao paulo,brazil,-20.903,-49.268
384,"freiburg,baden-württemberg region,germany",,freiburg,baden-württemberg region,germany,47.9959,7.85222
385,"santa clara,villa clara,cuba",,santa clara,villa clara,cuba,22.4,-79.96667
386,"ervalia,minas gerais,brazil",,ervalia,minas gerais,brazil,-20.84,-42.657
387,"nova cruz,rio grande do norte,brazil",,nova cruz,rio grande do norte,brazil,-6.478,-35.434
388,"juazeiro,bahia,brazil",,juazeiro,bahia,brazil,-9.414,-40.503
389,"itumirim,minas gerais,brazil",,itumirim,minas gerais,brazil,-21.317,-44.871
390,"goiandira,goias,brazil",,goiandira,goias,brazil,-18.133,-48.085
391,"esperanca,paraiba,brazil",,esperanca,paraiba,brazil,-7.023,-35.86
392,"parnaiba,piaui,brazil",,parnaiba,piaui,brazil,-2.905,-41.777
393,"sao joao da boa vista,sao paulo,brazil",,sao joao da boa vista,sao paulo,brazil,-21.969,-46.798
394,"cambe,parana,brazil",,cambe,parana,brazil,-23.276,-51.278
395,"rosario,santa fe,argentina",,rosario,santa fe,argentina,-32.94682,-60.63932
396,"juara,mato grosso,brazil",,juara,mato grosso,brazil,-11.255,-57.52
397,"humaita,rio grande do sul,brazil",,humaita,rio grande do sul,brazil,-27.563,-53.974
398,"jales,sao paulo,brazil",,jales,sao paulo,brazil,-20.269,-50.546
399,"santa fe do sul,sao paulo,brazil",,santa fe do sul,sao paulo,brazil,-20.211,-50.926
400,"campo belo,minas gerais,brazil",,campo belo,minas gerais,brazil,-20.897,-45.277
401,"ipira,santa catarina,brazil",,ipira,santa catarina,brazil,-27.404,-51.773
402,"sao manuel,sao paulo,brazil",,sao manuel,sao paulo,brazil,-22.731,-48.571
403,"huancayo,junín,peru",,huancayo,junín,peru,-12.06513,-75.20486
404,"pirajui,sao paulo,brazil",,pirajui,sao paulo,brazil,-21.999,-49.457
405,"carmo do paranaiba,minas gerais,brazil",,carmo do paranaiba,minas gerais,brazil,-19.001,-46.316
406,"carazinho,rio grande do sul,brazil",,carazinho,rio grande do sul,brazil,-28.284,-52.786
407,"passo fundo,rio grande do sul,brazil",,passo fundo,rio grande do sul,brazil,-28.263,-52.407
408,"garibaldi,rio grande do sul,brazil",,garibaldi,rio grande do sul,brazil,-29.256,-51.534
409,"adolfo,sao paulo,brazil",,adolfo,sao paulo,brazil,-21.235,-49.644
410,"joacaba,santa catarina,brazil",,joacaba,santa catarina,brazil,-27.178,-51.505
411,"piumhi,minas gerais,brazil",,piumhi,minas gerais,brazil,-20.465,-45.958
412,"patos,paraiba,brazil",,patos,paraiba,brazil,-7.024,-37.28
413,"alexandria,alexandria,egypt",,alexandria,alexandria,egypt,31.21564,29.95527
414,"carius,ceara,brazil",,carius,ceara,brazil,-6.537,-39.497
415,"raul soares,minas gerais,brazil",,raul soares,minas gerais,brazil,-20.102,-42.453
416,"assis,sao paulo,brazil",,assis,sao paulo,brazil,-22.662,-50.412
417,"sao luiz,roraima,brazil",,sao luiz,roraima,brazil,1.005,-60.159
418,"camaragibe,pernambuco,brazil",,camaragibe,pernambuco,brazil,-8.022,-34.981
419,"caete,minas gerais,brazil",,caete,minas gerais,brazil,-19.88,-43.67
420,"jacarezinho,parana,brazil",,jacarezinho,parana,brazil,-23.161,-49.969
421,"porto ferreira,sao paulo,brazil",,porto ferreira,sao paulo,brazil,-21.854,-47.479
422,"palmital,sao paulo,brazil",,palmital,sao paulo,brazil,-22.789,-50.218
423,"guaratingueta,sao paulo,brazil",,guaratingueta,sao paulo,brazil,-22.816,-45.193
424,"guararema,sao paulo,brazil",,guararema,sao paulo,brazil,-23.415,-46.035
425,"bom jesus,rio grande do sul,brazil",,bom jesus,rio grande do sul,brazil,-28.668,-50.417
426,"bela vista do paraiso,parana,brazil",,bela vista do paraiso,parana,brazil,-22.997,-51.191
427,"joao alfredo,pernambuco,brazil",,joao alfredo,pernambuco,brazil,-7.856,-35.588
428,"crato,ceara,brazil",,crato,ceara,brazil,-7.234,-39.409
429,"santa cruz do rio pardo,sao paulo,brazil",,santa cruz do rio pardo,sao paulo,brazil,-22.899,-49.633
430,"porto uniao,santa catarina,brazil",,porto uniao,santa catarina,brazil,-26.238,-51.078
431,"presidente bernardes,sao paulo,brazil",,presidente bernardes,sao paulo,brazil,-22.006,-51.553
432,"faxinal do soturno,rio grande do sul,brazil",,faxinal do soturno,rio grande do sul,brazil,-29.575,-53.445
433,"lages,santa catarina,brazil",,lages,santa catarina,brazil,-27.816,-50.326
434,"sao borja,rio grande do sul,brazil",,sao borja,rio grande do sul,brazil,-28.661,-56.004
435,"itapetininga,sao paulo,brazil",,itapetininga,sao paulo,brazil,-23.592,-48.053
436,"rio pomba,minas gerais,brazil",,rio pomba,minas gerais,brazil,-21.275,-43.179
437,"senhor do bonfim,bahia,brazil",,senhor do bonfim,bahia,brazil,-10.463,-40.191
438,"mombaca,ceara,brazil",,mombaca,ceara,brazil,-5.743,-39.628
439,"vila real,vila real,portugal",,vila real,vila real,portugal,41.30062,-7.74413
440,"vigo,galicia,spain",,vigo,galicia,spain,42.23282,-8.72264
441,"frederico westphalen,rio grande do sul,brazil",,frederico westphalen,rio grande do sul,brazil,-27.359,-53.394
442,"santiago,rio grande do sul,brazil",,santiago,rio grande do sul,brazil,-29.192,-54.867
443,"lyon,rhône-alpes,france",,lyon,rhône-alpes,france,45.74846,4.84671
444,"sao pedro do sul,rio grande do sul,brazil",,sao pedro do sul,rio grande do sul,brazil,-29.621,-54.179
445,"rolandia,parana,brazil",,rolandia,parana,brazil,-23.31,-51.369
446,"bacabal,maranhao,brazil",,bacabal,maranhao,brazil,-4.225,-44.78
447,"baturite,ceara,brazil",,baturite,ceara,brazil,-4.329,-38.885
448,"orlandia,sao paulo,brazil",,orlandia,sao paulo,brazil,-20.72,-47.887
449,"santo angelo,rio grande do sul,brazil",,santo angelo,rio grande do sul,brazil,-28.299,-54.263
450,"rio do sul,santa catarina,brazil",,rio do sul,santa catarina,brazil,-27.214,-49.643
451,"santa barbara do sul,rio grande do sul,brazil",,santa barbara do sul,rio grande do sul,brazil,-28.358,-53.247
452,"boa esperanca do sul,sao paulo,brazil",,boa esperanca do sul,sao paulo,brazil,-21.993,-48.391
453,"irituia,para,brazil",,irituia,para,brazil,-1.769,-47.439
454,"lambari,minas gerais,brazil",,lambari,minas gerais,brazil,-21.976,-45.35
455,"capivari,sao paulo,brazil",,capivari,sao paulo,brazil,-22.995,-47.508
456,"sapeacu,bahia,brazil",,sapeacu,bahia,brazil,-12.728,-39.182
457,"barra mansa,rio de janeiro,brazil",,barra mansa,rio de janeiro,brazil,-22.544,-44.171
458,"pocos de caldas,minas gerais,brazil",,pocos de caldas,minas gerais,brazil,-21.788,-46.561
459,"paramaribo,paramaribo,suriname",,paramaribo,paramaribo,suriname,5.86638,-55.16682
460,"leon,castille and león,spain",,leon,castille and león,spain,42.60003,-5.57032
461,"laguna,santa catarina,brazil",,laguna,santa catarina,brazil,-28.483,-48.781
462,"anicuns,goias,brazil",,anicuns,goias,brazil,-16.461,-49.962
463,"uruguaiana,rio grande do sul,brazil",,uruguaiana,rio grande do sul,brazil,-29.755,-57.088
464,"tupa,sao paulo,brazil",,tupa,sao paulo,brazil,-21.935,-50.514
465,"oruro,oruro,bolivia",,oruro,oruro,bolivia,-17.98333,-67.15
466,"sao martinho,santa catarina,brazil",,sao martinho,santa catarina,brazil,-28.165,-48.979
467,"quirinopolis,goias,brazil",,quirinopolis,goias,brazil,-18.448,-50.452
468,"santa teresa,espirito santo,brazil",,santa teresa,espirito santo,brazil,-19.936,-40.6
469,"cartagena,bolívar,colombia",,cartagena,bolívar,colombia,10.39972,-75.51444
470,"rondinha,rio grande do sul,brazil",,rondinha,rio grande do sul,brazil,-27.828,-52.91
471,"aguas da prata,sao paulo,brazil",,aguas da prata,sao paulo,brazil,-21.937,-46.717
472,"taipei,taipei,taiwan",,taipei,taipei,taiwan,25.04776,121.53185
473,"cosmopolis,sao paulo,brazil",,cosmopolis,sao paulo,brazil,-22.646,-47.196
474,"campina das missoes,rio grande do sul,brazil",,campina das missoes,rio grande do sul,brazil,-27.989,-54.839
475,"mage,rio de janeiro,brazil",,mage,rio de janeiro,brazil,-22.653,-43.041
476,"martins,rio grande do norte,brazil",,martins,rio grande do norte,brazil,-6.088,-37.911
477,"cangucu,rio grande do sul,brazil",,cangucu,rio grande do sul,brazil,-31.395,-52.676
478,"monte aprazivel,sao paulo,brazil",,monte aprazivel,sao paulo,brazil,-20.773,-49.714
479,"tiete,sao paulo,brazil",,tiete,sao paulo,brazil,-23.102,-47.715
480,"tacaratu,pernambuco,brazil",,tacaratu,pernambuco,brazil,-9.106,-38.15
481,"mogi guacu,sao paulo,brazil",,mogi guacu,sao paulo,brazil,-22.372,-46.942
482,"guararapes,sao paulo,brazil",,guararapes,sao paulo,brazil,-21.261,-50.643
483,"ipameri,goias,brazil",,ipameri,goias,brazil,-17.722,-48.16
484,"joao neiva,espirito santo,brazil",,joao neiva,espirito santo,brazil,-19.758,-40.386
485,"nepomuceno,minas gerais,brazil",,nepomuceno,minas gerais,brazil,-21.236,-45.236
486,"iquitos,loreto,peru",,iquitos,loreto,peru,-3.74912,-73.25383
487,"san salvador,san salvador,el salvador",,san salvador,san salvador,el salvador,13.68935,-89.18718
488,"sao vicente,sao paulo,brazil",,sao vicente,sao paulo,brazil,-23.963,-46.392
489,"aracatuba,sao paulo,brazil",,aracatuba,sao paulo,brazil,-21.209,-50.433
490,"nova palma,rio grande do sul,brazil",,nova palma,rio grande do sul,brazil,-29.472,-53.469
491,"pereira barreto,sao paulo,brazil",,pereira barreto,sao paulo,brazil,-20.638,-51.109
492,"floriano,piaui,brazil",,floriano,piaui,brazil,-6.767,-43.023
493,"santana do livramento,rio grande do sul,brazil",,santana do livramento,rio grande do sul,brazil,-30.891,-55.533
494,"lajeado,rio grande do sul,brazil",,lajeado,rio grande do sul,brazil,-29.467,-51.961
495,"birigui,sao paulo,brazil",,birigui,sao paulo,brazil,-21.289,-50.34
496,"marlieria,minas gerais,brazil",,marlieria,minas gerais,brazil,-19.712,-42.732
497,"palmira,valle del cauca,colombia",,palmira,valle del cauca,colombia,3.53944,-76.30361
498,"santa cruz de la sierra,santa cruz,bolivia",,santa cruz de la sierra,santa cruz,bolivia,-17.78629,-63.18117
499,"venancio aires,rio grande do sul,brazil",,venancio aires,rio grande do sul,brazil,-29.606,-52.192
500,"delhi,nct,india",,delhi,nct,india,28.65381,77.22897
501,"bela vista,mato grosso do sul,brazil",,bela vista,mato grosso do sul,brazil,-22.109,-56.521
502,"contagem,minas gerais,brazil",,contagem,minas gerais,brazil,-19.932,-44.054
503,"ipatinga,minas gerais,brazil",,ipatinga,minas gerais,brazil,-19.468,-42.537
504,"coronel fabriciano,minas gerais,brazil",,coronel fabriciano,minas gerais,brazil,-19.519,-42.629
505,"mococa,sao paulo,brazil",,mococa,sao paulo,brazil,-21.468,-47.005
506,"ibitinga,sao paulo,brazil",,ibitinga,sao paulo,brazil,-21.758,-48.829
507,"barbacena,minas gerais,brazil",,barbacena,minas gerais,brazil,-21.226,-43.774
508,"budapest,budapest,hungary",,budapest,budapest,hungary,47.49801,19.03991
509,"formiga,minas gerais,brazil",,formiga,minas gerais,brazil,-20.464,-45.426
510,"matanzas,matanzas,cuba",,matanzas,matanzas,cuba,23.04111,-81.5775
511,"san salvador de jujuy,jujuy,argentina",,san salvador de jujuy,jujuy,argentina,-24.19457,-65.29712
512,"christchurch,canterbury,new zealand",,christchurch,canterbury,new zealand,-43.53333,172.63333
513,"riga,rīga,latvia",,riga,rīga,latvia,56.946,24.10589
514,"tres passos,rio grande do sul,brazil",,tres passos,rio grande do sul,brazil,-27.456,-53.932
515,"huancavelica,huancavelica,peru",,huancavelica,huancavelica,peru,-12.78261,-74.97266
516,"palencia,castille and león,spain",,palencia,castille and león,spain,42.00955,-4.52406
517,"colina,sao paulo,brazil",,colina,sao paulo,brazil,-20.713,-48.541
518,"quixeramobim,ceara,brazil",,quixeramobim,ceara,brazil,-5.199,-39.293
519,"tres lagoas,mato grosso do sul,brazil",,tres lagoas,mato grosso do sul,brazil,-20.751,-51.678
520,"cajazeiras,paraiba,brazil",,cajazeiras,paraiba,brazil,-6.89,-38.562
521,"guarabira,paraiba,brazil",,guarabira,paraiba,brazil,-6.855,-35.49
522,"geneve,geneva,switzerland",,geneve,geneva,switzerland,46.20222,6.14569
523,"tandil,buenos aires,argentina",,tandil,buenos aires,argentina,-37.32167,-59.13316
524,"arequipa,arequipa,peru",,arequipa,arequipa,peru,-16.39889,-71.535
525,"leiria,leiria,portugal",,leiria,leiria,portugal,39.74362,-8.80705
526,"nancy,lorraine,france",,nancy,lorraine,france,48.68439,6.18496
527,"campo formoso,bahia,brazil",,campo formoso,bahia,brazil,-10.509,-40.321
528,"carangola,minas gerais,brazil",,carangola,minas gerais,brazil,-20.733,-42.029
529,"modena,emilia-romagna,italy",,modena,emilia-romagna,italy,44.64783,10.92539
530,"sao gotardo,minas gerais,brazil",,sao gotardo,minas gerais,brazil,-19.311,-46.049
531,"goiatuba,goias,brazil",,goiatuba,goias,brazil,-18.013,-49.357
532,"sao simao,sao paulo,brazil",,sao simao,sao paulo,brazil,-21.479,-47.551
533,"santa tereza,rio grande do sul,brazil",,santa tereza,rio grande do sul,brazil,-29.169,-51.735
534,"merida,estado mérida,venezuela",,merida,estado mérida,venezuela,8.59524,-71.1434
535,"itapui,sao paulo,brazil",,itapui,sao paulo,brazil,-22.233,-48.719
536,"itanhomi,minas gerais,brazil",,itanhomi,minas gerais,brazil,-19.172,-41.865
537,"guaira,parana,brazil",,guaira,parana,brazil,-24.08,-54.256
538,"ribeirao vermelho,minas gerais,brazil",,ribeirao vermelho,minas gerais,brazil,-21.191,-45.062
539,"cochabamba,cochabamba,bolivia",,cochabamba,cochabamba,bolivia,-17.3895,-66.1568
540,"ibague,tolima,colombia",,ibague,tolima,colombia,4.43889,-75.23222
541,"jacarei,sao paulo,brazil",,jacarei,sao paulo,brazil,-23.305,-45.966
542,"sao sebastiao do paraiso,minas gerais,brazil",,sao sebastiao do paraiso,minas gerais,brazil,-20.917,-46.991
543,"pasto,nariño,colombia",,pasto,nariño,colombia,1.21361,-77.28111
544,"ipiau,bahia,brazil",,ipiau,bahia,brazil,-14.137,-39.734
545,"mantena,minas gerais,brazil",,mantena,minas gerais,brazil,-18.782,-40.98
546,"la paz,la paz,bolivia",,la paz,la paz,bolivia,-16.5,-68.15
547,"colonia,new jersey,united states",,colonia,new jersey,united states,40.57455,-74.30209
548,"chimbote,ancash,peru",,chimbote,ancash,peru,-9.08528,-78.57833
549,"graneros,o'higgins,chile",,graneros,o'higgins,chile,-34.06863,-70.72747
550,"luanda,luanda,angola",,luanda,luanda,angola,-8.83682,13.23432
551,"lins,sao paulo,brazil",,lins,sao paulo,brazil,-21.679,-49.743
552,"capinzal,santa catarina,brazil",,capinzal,santa catarina,brazil,-27.344,-51.612
553,"tomsk,tomsk,russia",,tomsk,tomsk,russia,56.49771,84.97437
554,"tocantins,minas gerais,brazil",,tocantins,minas gerais,brazil,-21.175,-43.018
555,"cajamarca,cajamarca,peru",,cajamarca,cajamarca,peru,-7.16378,-78.50027
556,"concordia,santa catarina,brazil",,concordia,santa catarina,brazil,-27.234,-52.028
557,"nova friburgo,rio de janeiro,brazil",,nova friburgo,rio de janeiro,brazil,-22.282,-42.531
558,"vitoria de santo antao,pernambuco,brazil",,vitoria de santo antao,pernambuco,brazil,-8.118,-35.291
559,"quixada,ceara,brazil",,quixada,ceara,brazil,-4.971,-39.015
560,"taua,ceara,brazil",,taua,ceara,brazil,-6.003,-40.293
561,"santo augusto,rio grande do sul,brazil",,santo augusto,rio grande do sul,brazil,-27.851,-53.777
562,"coroata,maranhao,brazil",,coroata,maranhao,brazil,-4.13,-44.124
563,"antonina,parana,brazil",,antonina,parana,brazil,-25.429,-48.712
564,"santos dumont,minas gerais,brazil",,santos dumont,minas gerais,brazil,-21.457,-43.553
565,"guaiba,rio grande do sul,brazil",,guaiba,rio grande do sul,brazil,-30.114,-51.325
566,"dolcinopolis,sao paulo,brazil",,dolcinopolis,sao paulo,brazil,-20.123,-50.513
567,"ipora,parana,brazil",,ipora,parana,brazil,-24.003,-53.704
568,"concepcion,biobío,chile",,concepcion,biobío,chile,-36.82699,-73.04977
569,"cipolletti,río negro,argentina",,cipolletti,río negro,argentina,-38.93392,-67.99032
570,"manhumirim,minas gerais,brazil",,manhumirim,minas gerais,brazil,-20.358,-41.958
571,"pereira,risaralda,colombia",,pereira,risaralda,colombia,4.81333,-75.69611
572,"jerez de la frontera,andalusia,spain",,jerez de la frontera,andalusia,spain,36.68645,-6.13606
573,"timoteo,minas gerais,brazil",,timoteo,minas gerais,brazil,-19.583,-42.644
574,"pires do rio,goias,brazil",,pires do rio,goias,brazil,-17.301,-48.28
575,"mariana,minas gerais,brazil",,mariana,minas gerais,brazil,-20.378,-43.416
576,"nampula,nampula,mozambique",,nampula,nampula,mozambique,-15.11646,39.2666
577,"ituiutaba,minas gerais,brazil",,ituiutaba,minas gerais,brazil,-18.969,-49.465
578,"itabuna,bahia,brazil",,itabuna,bahia,brazil,-14.786,-39.28
579,"igarapava,sao paulo,brazil",,igarapava,sao paulo,brazil,-20.038,-47.747
580,"barreiras,bahia,brazil",,barreiras,bahia,brazil,-12.153,-44.99
581,"melo,cerro largo,uruguay",,melo,cerro largo,uruguay,-32.36667,-54.18333
582,"bage,rio grande do sul,brazil",,bage,rio grande do sul,brazil,-31.331,-54.107
583,"bilac,sao paulo,brazil",,bilac,sao paulo,brazil,-21.403,-50.471
584,"sertaozinho,sao paulo,brazil",,sertaozinho,sao paulo,brazil,-21.138,-47.99
585,"jaguarao,rio grande do sul,brazil",,jaguarao,rio grande do sul,brazil,-32.566,-53.376
586,"vinhedo,sao paulo,brazil",,vinhedo,sao paulo,brazil,-23.03,-46.975
587,"pinhal,rio grande do sul,brazil",,pinhal,rio grande do sul,brazil,-27.511,-53.215
588,"itapolis,sao paulo,brazil",,itapolis,sao paulo,brazil,-21.596,-48.813
589,"fatima do sul,mato grosso do sul,brazil",,fatima do sul,mato grosso do sul,brazil,-22.374,-54.514
590,"patrocinio,minas gerais,brazil",,patrocinio,minas gerais,brazil,-18.944,-46.993
591,"balneario camboriu,santa catarina,brazil",,balneario camboriu,santa catarina,brazil,-26.991,-48.635
592,"senador firmino,minas gerais,brazil",,senador firmino,minas gerais,brazil,-20.912,-43.097
593,"itapetinga,bahia,brazil",,itapetinga,bahia,brazil,-15.249,-40.248
594,"alem paraiba,minas gerais,brazil",,alem paraiba,minas gerais,brazil,-21.888,-42.704
595,"erlangen,bavaria,germany",,erlangen,bavaria,germany,49.59099,11.00783
596,"campo do brito,sergipe,brazil",,campo do brito,sergipe,brazil,-10.733,-37.493
597,"itabira,minas gerais,brazil",,itabira,minas gerais,brazil,-19.619,-43.227
598,"sao geraldo,minas gerais,brazil",,sao geraldo,minas gerais,brazil,-20.923,-42.834
599,"picui,paraiba,brazil",,picui,paraiba,brazil,-6.555,-36.349
600,"aimores,minas gerais,brazil",,aimores,minas gerais,brazil,-19.496,-41.064
601,"orleans,centre,france",,orleans,centre,france,47.90289,1.90389
602,"tacna,tacna,peru",,tacna,tacna,peru,-18.01465,-70.25362
603,"simao dias,sergipe,brazil",,simao dias,sergipe,brazil,-10.738,-37.811
604,"colatina,espirito santo,brazil",,colatina,espirito santo,brazil,-19.539,-40.631
605,"araguari,minas gerais,brazil",,araguari,minas gerais,brazil,-18.649,-48.187
606,"bandeirantes,parana,brazil",,bandeirantes,parana,brazil,-23.11,-50.368
607,"lauro muller,santa catarina,brazil",,lauro muller,santa catarina,brazil,-28.393,-49.397
608,"tegucigalpa,francisco morazán,honduras",,tegucigalpa,francisco morazán,honduras,14.0818,-87.20681
609,"alto rio doce,minas gerais,brazil",,alto rio doce,minas gerais,brazil,-21.026,-43.411
610,"logrono,la rioja,spain",,logrono,la rioja,spain,42.46667,-2.45
611,"itatiba,sao paulo,brazil",,itatiba,sao paulo,brazil,-23.006,-46.839
612,"concepcion,concepción,paraguay",,concepcion,concepción,paraguay,-23.39985,-57.43236
613,"huanuco,huanuco,peru",,huanuco,huanuco,peru,-9.93062,-76.24223
614,"tehran,tehrān,iran",,tehran,tehrān,iran,35.69439,51.42151
615,"soledade,rio grande do sul,brazil",,soledade,rio grande do sul,brazil,-28.818,-52.51
616,"piedade,sao paulo,brazil",,piedade,sao paulo,brazil,-23.712,-47.428
617,"porecatu,parana,brazil",,porecatu,parana,brazil,-22.756,-51.379
618,"valdivia,los ríos,chile",,valdivia,los ríos,chile,-39.81422,-73.24589
619,"obidos,para,brazil",,obidos,para,brazil,-1.918,-55.518
620,"tanabi,sao paulo,brazil",,tanabi,sao paulo,brazil,-20.626,-49.649
621,"cotia,sao paulo,brazil",,cotia,sao paulo,brazil,-23.604,-46.919
622,"montenegro,rio grande do sul,brazil",,montenegro,rio grande do sul,brazil,-29.689,-51.461
623,"vina del mar,valparaíso,chile",,vina del mar,valparaíso,chile,-33.02457,-71.55183
624,"temuco,araucanía,chile",,temuco,araucanía,chile,-38.73965,-72.59842
625,"tenente portela,rio grande do sul,brazil",,tenente portela,rio grande do sul,brazil,-27.371,-53.758
626,"resende,rio de janeiro,brazil",,resende,rio de janeiro,brazil,-22.469,-44.447
627,"punta arenas,magallanes,chile",,punta arenas,magallanes,chile,-53.15483,-70.91129
628,"santa helena,parana,brazil",,santa helena,parana,brazil,-24.86,-54.333
629,"arroio do meio,rio grande do sul,brazil",,arroio do meio,rio grande do sul,brazil,-29.401,-51.945
630,"resende costa,minas gerais,brazil",,resende costa,minas gerais,brazil,-20.922,-44.238
631,"cerro largo,rio grande do sul,brazil",,cerro largo,rio grande do sul,brazil,-28.149,-54.738
632,"ceres,goias,brazil",,ceres,goias,brazil,-15.308,-49.598
633,"muriae,minas gerais,brazil",,muriae,minas gerais,brazil,-21.131,-42.366
634,"guayaquil,guayas,ecuador",,guayaquil,guayas,ecuador,-2.20584,-79.90795
635,"besancon,franche-comté,france",,besancon,franche-comté,france,47.24878,6.01815
636,"schwerin,mecklenburg-vorpommern,germany",,schwerin,mecklenburg-vorpommern,germany,53.62937,11.41316
637,"pirai do sul,parana,brazil",,pirai do sul,parana,brazil,-24.526,-49.949
638,"sofia,sofia-capital,bulgaria",,sofia,sofia-capital,bulgaria,42.69751,23.32415
639,"jaguari,rio grande do sul,brazil",,jaguari,rio grande do sul,brazil,-29.497,-54.69
640,"caconde,sao paulo,brazil",,caconde,sao paulo,brazil,-21.529,-46.644
641,"jacutinga,rio grande do sul,brazil",,jacutinga,rio grande do sul,brazil,-27.729,-52.535
642,"castanhal,para,brazil",,castanhal,para,brazil,-1.297,-47.922
643,"leopoldina,minas gerais,brazil",,leopoldina,minas gerais,brazil,-21.532,-42.643
644,"arapiraca,alagoas,brazil",,arapiraca,alagoas,brazil,-9.752,-36.661
645,"leme,sao paulo,brazil",,leme,sao paulo,brazil,-22.186,-47.39
646,"pedra,pernambuco,brazil",,pedra,pernambuco,brazil,-8.497,-36.941
647,"alagoa grande,paraiba,brazil",,alagoa grande,paraiba,brazil,-7.089,-35.635
648,"penapolis,sao paulo,brazil",,penapolis,sao paulo,brazil,-21.42,-50.078
649,"mafra,santa catarina,brazil",,mafra,santa catarina,brazil,-26.111,-49.805
650,"toledo,parana,brazil",,toledo,parana,brazil,-24.714,-53.743
651,"conselheiro lafaiete,minas gerais,brazil",,conselheiro lafaiete,minas gerais,brazil,-20.66,-43.786
652,"barra do corda,maranhao,brazil",,barra do corda,maranhao,brazil,-5.506,-45.243
653,"foggia,apulia,italy",,foggia,apulia,italy,41.45845,15.55188
654,"sacramento,minas gerais,brazil",,sacramento,minas gerais,brazil,-19.865,-47.44
655,"jandaia do sul,parana,brazil",,jandaia do sul,parana,brazil,-23.603,-51.643
656,"morteros,córdoba,argentina",,morteros,córdoba,argentina,-30.71164,-61.99862
657,"januaria,minas gerais,brazil",,januaria,minas gerais,brazil,-15.488,-44.362
658,"sao lourenco,minas gerais,brazil",,sao lourenco,minas gerais,brazil,-22.116,-45.054
659,"gloria de dourados,mato grosso do sul,brazil",,gloria de dourados,mato grosso do sul,brazil,-22.418,-54.233
660,"amargosa,bahia,brazil",,amargosa,bahia,brazil,-13.03,-39.605
661,"uniao da vitoria,parana,brazil",,uniao da vitoria,parana,brazil,-26.23,-51.086
662,"amsterdam,north holland,netherlands",,amsterdam,north holland,netherlands,52.37403,4.88969
663,"xanxere,santa catarina,brazil",,xanxere,santa catarina,brazil,-26.877,-52.404
664,"itarare,sao paulo,brazil",,itarare,sao paulo,brazil,-24.115,-49.341
665,"volta redonda,rio de janeiro,brazil",,volta redonda,rio de janeiro,brazil,-22.523,-44.104
666,"alegre,espirito santo,brazil",,alegre,espirito santo,brazil,-20.764,-41.533
667,"monte alto,sao paulo,brazil",,monte alto,sao paulo,brazil,-21.261,-48.496
668,"princesa isabel,paraiba,brazil",,princesa isabel,paraiba,brazil,-7.737,-37.993
669,"dois corregos,sao paulo,brazil",,dois corregos,sao paulo,brazil,-22.366,-48.38
670,"cameta,para,brazil",,cameta,para,brazil,-2.244,-49.496
671,"parnamirim,rio grande do norte,brazil",,parnamirim,rio grande do norte,brazil,-5.916,-35.263
672,"metz,lorraine,france",,metz,lorraine,france,49.11911,6.17269
673,"bayamo,granma,cuba",,bayamo,granma,cuba,20.37917,-76.64333
674,"santa rita do passa quatro,sao paulo,brazil",,santa rita do passa quatro,sao paulo,brazil,-21.71,-47.478
675,"santa rita de caldas,minas gerais,brazil",,santa rita de caldas,minas gerais,brazil,-22.029,-46.337
676,"paracatu,minas gerais,brazil",,paracatu,minas gerais,brazil,-17.222,-46.875
677,"vargem grande do sul,sao paulo,brazil",,vargem grande do sul,sao paulo,brazil,-21.832,-46.894
678,"novo hamburgo,rio grande do sul,brazil",,novo hamburgo,rio grande do sul,brazil,-29.678,-51.131
679,"xambre,parana,brazil",,xambre,parana,brazil,-23.736,-53.49
680,"barra do pirai,rio de janeiro,brazil",,barra do pirai,rio de janeiro,brazil,-22.47,-43.826
681,"urucui,piaui,brazil",,urucui,piaui,brazil,-7.229,-44.556
682,"caraguatatuba,sao paulo,brazil",,caraguatatuba,sao paulo,brazil,-23.62,-45.413
683,"santo anastacio,sao paulo,brazil",,santo anastacio,sao paulo,brazil,-21.977,-51.652
684,"sao luiz gonzaga,rio grande do sul,brazil",,sao luiz gonzaga,rio grande do sul,brazil,-28.408,-54.961
685,"descalvado,sao paulo,brazil",,descalvado,sao paulo,brazil,-21.904,-47.619
686,"indaiatuba,sao paulo,brazil",,indaiatuba,sao paulo,brazil,-23.09,-47.218
687,"colorado,parana,brazil",,colorado,parana,brazil,-22.838,-51.973
688,"sao miguel dos campos,alagoas,brazil",,sao miguel dos campos,alagoas,brazil,-9.781,-36.094
689,"antonio prado,rio grande do sul,brazil",,antonio prado,rio grande do sul,brazil,-28.858,-51.283
690,"uba,minas gerais,brazil",,uba,minas gerais,brazil,-21.12,-42.943
691,"itapitanga,bahia,brazil",,itapitanga,bahia,brazil,-14.423,-39.565
692,"sao carlos,santa catarina,brazil",,sao carlos,santa catarina,brazil,-27.078,-53.004
693,"manaira,paraiba,brazil",,manaira,paraiba,brazil,-7.706,-38.154
694,"erechim,rio grande do sul,brazil",,erechim,rio grande do sul,brazil,-27.634,-52.274
695,"cianorte,parana,brazil",,cianorte,parana,brazil,-23.663,-52.605
696,"alegrete,rio grande do sul,brazil",,alegrete,rio grande do sul,brazil,-29.783,-55.792
697,"novo horizonte,sao paulo,brazil",,novo horizonte,sao paulo,brazil,-21.468,-49.221
698,"paysandu,paysandú,uruguay",,paysandu,paysandú,uruguay,-32.32139,-58.07556
699,"caxias,maranhao,brazil",,caxias,maranhao,brazil,-4.859,-43.356
700,"passos,minas gerais,brazil",,passos,minas gerais,brazil,-20.719,-46.61
701,"rancho alegre,parana,brazil",,rancho alegre,parana,brazil,-23.07,-50.913
702,"tatui,sao paulo,brazil",,tatui,sao paulo,brazil,-23.356,-47.857
703,"farroupilha,rio grande do sul,brazil",,farroupilha,rio grande do sul,brazil,-29.225,-51.348
704,"jaboatao dos guararapes,pernambuco,brazil",,jaboatao dos guararapes,pernambuco,brazil,-8.113,-35.015
705,"itapira,sao paulo,brazil",,itapira,sao paulo,brazil,-22.436,-46.822
706,"piura,piura,peru",,piura,piura,peru,-5.19449,-80.63282
707,"teofilo otoni,minas gerais,brazil",,teofilo otoni,minas gerais,brazil,-17.858,-41.505
708,"macae,rio de janeiro,brazil",,macae,rio de janeiro,brazil,-22.371,-41.787
709,"taiacu,sao paulo,brazil",,taiacu,sao paulo,brazil,-21.144,-48.513
710,"linhares,espirito santo,brazil",,linhares,espirito santo,brazil,-19.391,-40.072
711,"marilandia do sul,parana,brazil",,marilandia do sul,parana,brazil,-23.745,-51.308
712,"tabapua,sao paulo,brazil",,tabapua,sao paulo,brazil,-20.964,-49.032
713,"barra bonita,sao paulo,brazil",,barra bonita,sao paulo,brazil,-22.495,-48.558
714,"palmeira das missoes,rio grande do sul,brazil",,palmeira das missoes,rio grande do sul,brazil,-27.899,-53.314
715,"serrinha,bahia,brazil",,serrinha,bahia,brazil,-11.664,-39.008
716,"indiapora,sao paulo,brazil",,indiapora,sao paulo,brazil,-19.98,-50.29
717,"pitangueiras,sao paulo,brazil",,pitangueiras,sao paulo,brazil,-21.009,-48.222
718,"imperatriz,maranhao,brazil",,imperatriz,maranhao,brazil,-5.526,-47.476
719,"bom sucesso,minas gerais,brazil",,bom sucesso,minas gerais,brazil,-21.033,-44.758
720,"urandi,bahia,brazil",,urandi,bahia,brazil,-14.771,-42.655
721,"altonia,parana,brazil",,altonia,parana,brazil,-23.874,-53.902
722,"irece,bahia,brazil",,irece,bahia,brazil,-11.304,-41.856
723,"caxambu,minas gerais,brazil",,caxambu,minas gerais,brazil,-21.977,-44.933
724,"conselheiro pena,minas gerais,brazil",,conselheiro pena,minas gerais,brazil,-19.172,-41.472
725,"sao fidelis,rio de janeiro,brazil",,sao fidelis,rio de janeiro,brazil,-21.646,-41.747
726,"catole do rocha,paraiba,brazil",,catole do rocha,paraiba,brazil,-6.344,-37.747
727,"regente feijo,sao paulo,brazil",,regente feijo,sao paulo,brazil,-22.221,-51.303
728,"penedo,alagoas,brazil",,penedo,alagoas,brazil,-10.29,-36.586
729,"valenca do piaui,piaui,brazil",,valenca do piaui,piaui,brazil,-6.408,-41.746
730,"sao luis do curu,ceara,brazil",,sao luis do curu,ceara,brazil,-3.67,-39.243
731,"julio mesquita,sao paulo,brazil",,julio mesquita,sao paulo,brazil,-22.009,-49.787
732,"sao joao batista do gloria,minas gerais,brazil",,sao joao batista do gloria,minas gerais,brazil,-20.641,-46.506
733,"para de minas,minas gerais,brazil",,para de minas,minas gerais,brazil,-19.86,-44.608
734,"guajara mirim,rondonia,brazil",,guajara mirim,rondonia,brazil,-10.783,-65.339
735,"itaju,sao paulo,brazil",,itaju,sao paulo,brazil,-21.981,-48.805
736,"manhuacu,minas gerais,brazil",,manhuacu,minas gerais,brazil,-20.258,-42.034
737,"arari,maranhao,brazil",,arari,maranhao,brazil,-3.454,-44.78
738,"sao miguel do oeste,santa catarina,brazil",,sao miguel do oeste,santa catarina,brazil,-26.725,-53.518
739,"rio bonito,rio de janeiro,brazil",,rio bonito,rio de janeiro,brazil,-22.708,-42.626
740,"mondai,santa catarina,brazil",,mondai,santa catarina,brazil,-27.103,-53.402
741,"candido mota,sao paulo,brazil",,candido mota,sao paulo,brazil,-22.746,-50.387
742,"ararangua,santa catarina,brazil",,ararangua,santa catarina,brazil,-28.935,-49.486
743,"itacoatiara,amazonas,brazil",,itacoatiara,amazonas,brazil,-3.143,-58.444
744,"sao jeronimo,rio grande do sul,brazil",,sao jeronimo,rio grande do sul,brazil,-29.959,-51.722
745,"matelandia,parana,brazil",,matelandia,parana,brazil,-25.241,-53.996
746,"curvelo,minas gerais,brazil",,curvelo,minas gerais,brazil,-18.756,-44.431
747,"pedreiras,maranhao,brazil",,pedreiras,maranhao,brazil,-4.574,-44.597
748,"canaa,minas gerais,brazil",,canaa,minas gerais,brazil,-20.686,-42.62
749,"santa adelia,sao paulo,brazil",,santa adelia,sao paulo,brazil,-21.243,-48.804
750,"sobradinho,rio grande do sul,brazil",,sobradinho,rio grande do sul,brazil,-29.421,-53.029
751,"guarani das missoes,rio grande do sul,brazil",,guarani das missoes,rio grande do sul,brazil,-28.141,-54.558
752,"alagoinhas,bahia,brazil",,alagoinhas,bahia,brazil,-12.136,-38.419
753,"abaetetuba,para,brazil",,abaetetuba,para,brazil,-1.718,-48.883
754,"caiaponia,goias,brazil",,caiaponia,goias,brazil,-16.957,-51.81
755,"boa vista do burica,rio grande do sul,brazil",,boa vista do burica,rio grande do sul,brazil,-27.669,-54.11
756,"divinopolis,minas gerais,brazil",,divinopolis,minas gerais,brazil,-20.139,-44.884
757,"caxambu do sul,santa catarina,brazil",,caxambu do sul,santa catarina,brazil,-27.161,-52.879
758,"sao francisco,minas gerais,brazil",,sao francisco,minas gerais,brazil,-15.949,-44.864
759,"areia,paraiba,brazil",,areia,paraiba,brazil,-6.963,-35.692
760,"sao jose dos pinhais,parana,brazil",,sao jose dos pinhais,parana,brazil,-25.535,-49.206
761,"macaparana,pernambuco,brazil",,macaparana,pernambuco,brazil,-7.555,-35.453
762,"agudos,sao paulo,brazil",,agudos,sao paulo,brazil,-22.469,-48.988
763,"aratiba,rio grande do sul,brazil",,aratiba,rio grande do sul,brazil,-27.394,-52.3
764,"cacapava,sao paulo,brazil",,cacapava,sao paulo,brazil,-23.101,-45.707
765,"piraju,sao paulo,brazil",,piraju,sao paulo,brazil,-23.194,-49.384
766,"conceicao da barra,espirito santo,brazil",,conceicao da barra,espirito santo,brazil,-18.593,-39.732
767,"nova prata,rio grande do sul,brazil",,nova prata,rio grande do sul,brazil,-28.784,-51.61
768,"patos de minas,minas gerais,brazil",,patos de minas,minas gerais,brazil,-18.579,-46.518
769,"campos novos,santa catarina,brazil",,campos novos,santa catarina,brazil,-27.402,-51.225
770,"limoeiro do norte,ceara,brazil",,limoeiro do norte,ceara,brazil,-5.146,-38.098
771,"ronda alta,rio grande do sul,brazil",,ronda alta,rio grande do sul,brazil,-27.767,-52.802
772,"tesouro,mato grosso,brazil",,tesouro,mato grosso,brazil,-16.079,-53.553
773,"jatai,goias,brazil",,jatai,goias,brazil,-17.881,-51.714
774,"malhador,sergipe,brazil",,malhador,sergipe,brazil,-10.658,-37.305
775,"guape,minas gerais,brazil",,guape,minas gerais,brazil,-20.762,-45.918
776,"itabirito,minas gerais,brazil",,itabirito,minas gerais,brazil,-20.253,-43.801
777,"tres de maio,rio grande do sul,brazil",,tres de maio,rio grande do sul,brazil,-27.773,-54.24
778,"ourinhos,sao paulo,brazil",,ourinhos,sao paulo,brazil,-22.979,-49.871
779,"tupancireta,rio grande do sul,brazil",,tupancireta,rio grande do sul,brazil,-29.081,-53.836
780,"itapiranga,santa catarina,brazil",,itapiranga,santa catarina,brazil,-27.169,-53.712
781,"corbelia,parana,brazil",,corbelia,parana,brazil,-24.799,-53.307
782,"ponta pora,mato grosso do sul,brazil",,ponta pora,mato grosso do sul,brazil,-22.536,-55.726
783,"presidente venceslau,sao paulo,brazil",,presidente venceslau,sao paulo,brazil,-21.876,-51.844
784,"frutal,minas gerais,brazil",,frutal,minas gerais,brazil,-20.025,-48.941
785,"potirendaba,sao paulo,brazil",,potirendaba,sao paulo,brazil,-21.043,-49.377
786,"sao roque,sao paulo,brazil",,sao roque,sao paulo,brazil,-23.529,-47.135
787,"nova esperanca,parana,brazil",,nova esperanca,parana,brazil,-23.184,-52.205
788,"paraguacu paulista,sao paulo,brazil",,paraguacu paulista,sao paulo,brazil,-22.413,-50.576
789,"goiatins,tocantins,brazil",,goiatins,tocantins,brazil,-7.71,-47.314
790,"urussanga,santa catarina,brazil",,urussanga,santa catarina,brazil,-28.518,-49.321
791,"sao tomas de aquino,minas gerais,brazil",,sao tomas de aquino,minas gerais,brazil,-20.784,-47.098
792,"guarani,minas gerais,brazil",,guarani,minas gerais,brazil,-21.352,-43.047
793,"ibiraci,minas gerais,brazil",,ibiraci,minas gerais,brazil,-20.462,-47.122
794,"campestre,minas gerais,brazil",,campestre,minas gerais,brazil,-21.711,-46.246
795,"sao sebastiao da grama,sao paulo,brazil",,sao sebastiao da grama,sao paulo,brazil,-21.711,-46.821
796,"garanhuns,pernambuco,brazil",,garanhuns,pernambuco,brazil,-8.89,-36.493
797,"juquia,sao paulo,brazil",,juquia,sao paulo,brazil,-24.321,-47.635
798,"aracati,ceara,brazil",,aracati,ceara,brazil,-4.562,-37.77
799,"floreal,sao paulo,brazil",,floreal,sao paulo,brazil,-20.677,-50.145
800,"itaperuna,rio de janeiro,brazil",,itaperuna,rio de janeiro,brazil,-21.205,-41.888
801,"cassia,minas gerais,brazil",,cassia,minas gerais,brazil,-20.583,-46.922
802,"terra roxa,parana,brazil",,terra roxa,parana,brazil,-24.157,-54.097
803,"itarantim,bahia,brazil",,itarantim,bahia,brazil,-15.66,-40.066
804,"jardim do serido,rio grande do norte,brazil",,jardim do serido,rio grande do norte,brazil,-6.584,-36.774
805,"rio largo,alagoas,brazil",,rio largo,alagoas,brazil,-9.478,-35.853
806,"santo antonio do sudoeste,parana,brazil",,santo antonio do sudoeste,parana,brazil,-26.07,-53.723
807,"santa vitoria do palmar,rio grande do sul,brazil",,santa vitoria do palmar,rio grande do sul,brazil,-33.519,-53.368
808,"boqueirao,paraiba,brazil",,boqueirao,paraiba,brazil,-7.482,-36.135
809,"tupaciguara,minas gerais,brazil",,tupaciguara,minas gerais,brazil,-18.593,-48.705
810,"uibai,bahia,brazil",,uibai,bahia,brazil,-11.337,-42.133
811,"jabora,santa catarina,brazil",,jabora,santa catarina,brazil,-27.176,-51.734
812,"sousa,paraiba,brazil",,sousa,paraiba,brazil,-6.761,-38.231
813,"esplanada,bahia,brazil",,esplanada,bahia,brazil,-11.796,-37.945
814,"rondonopolis,mato grosso,brazil",,rondonopolis,mato grosso,brazil,-16.471,-54.636
815,"sabara,minas gerais,brazil",,sabara,minas gerais,brazil,-19.886,-43.807
816,"sao goncalo do sapucai,minas gerais,brazil",,sao goncalo do sapucai,minas gerais,brazil,-21.892,-45.595
817,"seara,santa catarina,brazil",,seara,santa catarina,brazil,-27.149,-52.311
818,"estancia,sergipe,brazil",,estancia,sergipe,brazil,-11.268,-37.438
819,"recreio,minas gerais,brazil",,recreio,minas gerais,brazil,-21.525,-42.469
820,"andradas,minas gerais,brazil",,andradas,minas gerais,brazil,-22.068,-46.569
821,"joao monlevade,minas gerais,brazil",,joao monlevade,minas gerais,brazil,-19.81,-43.174
822,"osvaldo cruz,sao paulo,brazil",,osvaldo cruz,sao paulo,brazil,-21.797,-50.89
823,"brusque,santa catarina,brazil",,brusque,santa catarina,brazil,-27.098,-48.918
824,"palmeira d oeste,sao paulo,brazil",,palmeira d oeste,sao paulo,brazil,-20.416,-50.762
825,"valente,bahia,brazil",,valente,bahia,brazil,-11.412,-39.462
826,"mirandopolis,sao paulo,brazil",,mirandopolis,sao paulo,brazil,-21.134,-51.102
827,"tel aviv,tel aviv,israel",,tel aviv,tel aviv,israel,32.08088,34.78057
828,"centenario do sul,parana,brazil",,centenario do sul,parana,brazil,-22.821,-51.595
829,"propria,sergipe,brazil",,propria,sergipe,brazil,-10.211,-36.84
830,"atibaia,sao paulo,brazil",,atibaia,sao paulo,brazil,-23.117,-46.55
831,"kobe,hyōgo,japan",,kobe,hyōgo,japan,34.6913,135.183
832,"independencia,ceara,brazil",,independencia,ceara,brazil,-5.396,-40.309
833,"paula candido,minas gerais,brazil",,paula candido,minas gerais,brazil,-20.874,-42.98
834,"mazagao,amapa,brazil",,mazagao,amapa,brazil,-0.115,-51.289
835,"agua preta,pernambuco,brazil",,agua preta,pernambuco,brazil,-8.707,-35.531
836,"orleans,santa catarina,brazil",,orleans,santa catarina,brazil,-28.359,-49.291
837,"taio,santa catarina,brazil",,taio,santa catarina,brazil,-27.116,-49.998
838,"irai,rio grande do sul,brazil",,irai,rio grande do sul,brazil,-27.194,-53.251
839,"gaurama,rio grande do sul,brazil",,gaurama,rio grande do sul,brazil,-27.584,-52.094
840,"veranopolis,rio grande do sul,brazil",,veranopolis,rio grande do sul,brazil,-28.936,-51.549
841,"campos sales,ceara,brazil",,campos sales,ceara,brazil,-7.074,-40.376
842,"amambai,mato grosso do sul,brazil",,amambai,mato grosso do sul,brazil,-23.104,-55.226
843,"tabira,pernambuco,brazil",,tabira,pernambuco,brazil,-7.591,-37.539
844,"murutinga do sul,sao paulo,brazil",,murutinga do sul,sao paulo,brazil,-20.993,-51.278
845,"sume,paraiba,brazil",,sume,paraiba,brazil,-7.672,-36.88
846,"urutai,goias,brazil",,urutai,goias,brazil,-17.464,-48.203
847,"itirapina,sao paulo,brazil",,itirapina,sao paulo,brazil,-22.253,-47.823
848,"benedito novo,santa catarina,brazil",,benedito novo,santa catarina,brazil,-26.783,-49.364
849,"uruburetama,ceara,brazil",,uruburetama,ceara,brazil,-3.625,-39.508
850,"itabaiana,paraiba,brazil",,itabaiana,paraiba,brazil,-7.329,-35.333
851,"faxinal dos guedes,santa catarina,brazil",,faxinal dos guedes,santa catarina,brazil,-26.853,-52.26
852,"constantina,rio grande do sul,brazil",,constantina,rio grande do sul,brazil,-27.735,-52.992
853,"pariquera acu,sao paulo,brazil",,pariquera acu,sao paulo,brazil,-24.715,-47.881
854,"guapore,rio grande do sul,brazil",,guapore,rio grande do sul,brazil,-28.846,-51.89
855,"tuneiras do oeste,parana,brazil",,tuneiras do oeste,parana,brazil,-23.871,-52.876
856,"matao,sao paulo,brazil",,matao,sao paulo,brazil,-21.603,-48.366
857,"planalto,parana,brazil",,planalto,parana,brazil,-25.716,-53.766
858,"ananindeua,para,brazil",,ananindeua,para,brazil,-1.366,-48.372
859,"grajau,maranhao,brazil",,grajau,maranhao,brazil,-5.819,-46.139
860,"pato branco,parana,brazil",,pato branco,parana,brazil,-26.229,-52.671
861,"viamao,rio grande do sul,brazil",,viamao,rio grande do sul,brazil,-30.081,-51.023
862,"jacui,minas gerais,brazil",,jacui,minas gerais,brazil,-21.017,-46.741
863,"candido godoi,rio grande do sul,brazil",,candido godoi,rio grande do sul,brazil,-27.952,-54.752
864,"sertania,pernambuco,brazil",,sertania,pernambuco,brazil,-8.074,-37.264
865,"bicas,minas gerais,brazil",,bicas,minas gerais,brazil,-21.725,-43.059
866,"castelo,espirito santo,brazil",,castelo,espirito santo,brazil,-20.604,-41.185
867,"clementina,sao paulo,brazil",,clementina,sao paulo,brazil,-21.56,-50.449
868,"bariri,sao paulo,brazil",,bariri,sao paulo,brazil,-22.074,-48.74
869,"esteio,rio grande do sul,brazil",,esteio,rio grande do sul,brazil,-29.861,-51.179
870,"pao de acucar,alagoas,brazil",,pao de acucar,alagoas,brazil,-9.748,-37.437
871,"sape,paraiba,brazil",,sape,paraiba,brazil,-7.095,-35.233
872,"arcoverde,pernambuco,brazil",,arcoverde,pernambuco,brazil,-8.419,-37.054
873,"tefe,amazonas,brazil",,tefe,amazonas,brazil,-3.354,-64.711
874,"sao vicente do sul,rio grande do sul,brazil",,sao vicente do sul,rio grande do sul,brazil,-29.692,-54.679
875,"nova granada,sao paulo,brazil",,nova granada,sao paulo,brazil,-20.534,-49.314
876,"ibipora,parana,brazil",,ibipora,parana,brazil,-23.269,-51.048
877,"jaguaribe,ceara,brazil",,jaguaribe,ceara,brazil,-5.891,-38.622
878,"sao gabriel,rio grande do sul,brazil",,sao gabriel,rio grande do sul,brazil,-30.336,-54.32
879,"gravatai,rio grande do sul,brazil",,gravatai,rio grande do sul,brazil,-29.944,-50.992
880,"casa branca,sao paulo,brazil",,casa branca,sao paulo,brazil,-21.774,-47.086
881,"pombal,paraiba,brazil",,pombal,paraiba,brazil,-6.77,-37.802
882,"mirassol,sao paulo,brazil",,mirassol,sao paulo,brazil,-20.819,-49.521
883,"morada nova,ceara,brazil",,morada nova,ceara,brazil,-5.107,-38.373
884,"santopolis do aguapei,sao paulo,brazil",,santopolis do aguapei,sao paulo,brazil,-21.638,-50.5
885,"piranhas,goias,brazil",,piranhas,goias,brazil,-16.427,-51.822
886,"ibirarema,sao paulo,brazil",,ibirarema,sao paulo,brazil,-22.818,-50.073
887,"sao felix,bahia,brazil",,sao felix,bahia,brazil,-12.605,-38.972
888,"oriente,sao paulo,brazil",,oriente,sao paulo,brazil,-22.153,-50.091
889,"palmeira,parana,brazil",,palmeira,parana,brazil,-25.429,-50.006
890,"itaporanga,paraiba,brazil",,itaporanga,paraiba,brazil,-7.304,-38.15
891,"ribeirao bonito,sao paulo,brazil",,ribeirao bonito,sao paulo,brazil,-22.067,-48.176
892,"campina verde,minas gerais,brazil",,campina verde,minas gerais,brazil,-19.536,-49.486
893,"itaguai,rio de janeiro,brazil",,itaguai,rio de janeiro,brazil,-22.852,-43.775
894,"urai,parana,brazil",,urai,parana,brazil,-23.198,-50.796
895,"marau,rio grande do sul,brazil",,marau,rio grande do sul,brazil,-28.449,-52.2
896,"aquidauana,mato grosso do sul,brazil",,aquidauana,mato grosso do sul,brazil,-20.471,-55.787
897,"uruana,goias,brazil",,uruana,goias,brazil,-15.498,-49.688
898,"ribeirao do pinhal,parana,brazil",,ribeirao do pinhal,parana,brazil,-23.408,-50.357
899,"balsamo,sao paulo,brazil",,balsamo,sao paulo,brazil,-20.735,-49.584
900,"cabo frio,rio de janeiro,brazil",,cabo frio,rio de janeiro,brazil,-22.879,-42.019
901,"marumbi,parana,brazil",,marumbi,parana,brazil,-23.706,-51.639
902,"surubim,pernambuco,brazil",,surubim,pernambuco,brazil,-7.832,-35.756
903,"corumba,mato grosso do sul,brazil",,corumba,mato grosso do sul,brazil,-18.507,-54.76
904,"itu,sao paulo,brazil",,itu,sao paulo,brazil,-23.264,-47.299
905,"sao tome,parana,brazil",,sao tome,parana,brazil,-23.538,-52.591
906,"carpina,pernambuco,brazil",,carpina,pernambuco,brazil,-7.851,-35.255
907,"rio tinto,paraiba,brazil",,rio tinto,paraiba,brazil,-6.803,-35.081
908,"boa esperanca,minas gerais,brazil",,boa esperanca,minas gerais,brazil,-21.09,-45.566
909,"asuncion,asunción,paraguay",,asuncion,asunción,paraguay,-25.30066,-57.63591
910,"acarau,ceara,brazil",,acarau,ceara,brazil,-2.886,-40.12
911,"rancharia,sao paulo,brazil",,rancharia,sao paulo,brazil,-22.229,-50.893
912,"campo maior,piaui,brazil",,campo maior,piaui,brazil,-4.828,-42.169
913,"bocaiuva,minas gerais,brazil",,bocaiuva,minas gerais,brazil,-17.108,-43.815
914,"martinopolis,sao paulo,brazil",,martinopolis,sao paulo,brazil,-22.146,-51.171
915,"guaraciaba do norte,ceara,brazil",,guaraciaba do norte,ceara,brazil,-4.167,-40.748
916,"tuparendi,rio grande do sul,brazil",,tuparendi,rio grande do sul,brazil,-27.756,-54.482
917,"cachoeira paulista,sao paulo,brazil",,cachoeira paulista,sao paulo,brazil,-22.665,-45.009
918,"cacador,santa catarina,brazil",,cacador,santa catarina,brazil,-26.775,-51.015
919,"cipotanea,minas gerais,brazil",,cipotanea,minas gerais,brazil,-20.905,-43.366
920,"bom sucesso,parana,brazil",,bom sucesso,parana,brazil,-23.71,-51.764
921,"caico,rio grande do norte,brazil",,caico,rio grande do norte,brazil,-6.458,-37.098
922,"barao de cocais,minas gerais,brazil",,barao de cocais,minas gerais,brazil,-19.946,-43.487
923,"serro,minas gerais,brazil",,serro,minas gerais,brazil,-18.605,-43.379
924,"palmitos,santa catarina,brazil",,palmitos,santa catarina,brazil,-27.068,-53.161
925,"guaira,sao paulo,brazil",,guaira,sao paulo,brazil,-20.318,-48.311
926,"palmeira dos indios,alagoas,brazil",,palmeira dos indios,alagoas,brazil,-9.407,-36.628
927,"trieste,friuli venezia giulia,italy",,trieste,friuli venezia giulia,italy,45.64325,13.7903
928,"bora,sao paulo,brazil",,bora,sao paulo,brazil,-22.27,-50.534
929,"arapongas,parana,brazil",,arapongas,parana,brazil,-23.419,-51.424
930,"indiana,sao paulo,brazil",,indiana,sao paulo,brazil,-22.174,-51.252
931,"rio negro,parana,brazil",,rio negro,parana,brazil,-26.106,-49.798
932,"sao joao nepomuceno,minas gerais,brazil",,sao joao nepomuceno,minas gerais,brazil,-21.54,-43.011
933,"inhumas,goias,brazil",,inhumas,goias,brazil,-16.358,-49.496
934,"catende,pernambuco,brazil",,catende,pernambuco,brazil,-8.667,-35.717
935,"paulista,pernambuco,brazil",,paulista,pernambuco,brazil,-7.941,-34.873
936,"mendes,rio de janeiro,brazil",,mendes,rio de janeiro,brazil,-22.527,-43.733
937,"timbauba,pernambuco,brazil",,timbauba,pernambuco,brazil,-7.505,-35.318
938,"jacobina,bahia,brazil",,jacobina,bahia,brazil,-11.181,-40.518
939,"cabinda,cabinda,angola",,cabinda,cabinda,angola,-5.55,12.2
940,"paranaiba,mato grosso do sul,brazil",,paranaiba,mato grosso do sul,brazil,-19.677,-51.191
941,"ubatuba,sao paulo,brazil",,ubatuba,sao paulo,brazil,-23.434,-45.071
942,"sao joaquim,santa catarina,brazil",,sao joaquim,santa catarina,brazil,-28.294,-49.932
943,"angra dos reis,rio de janeiro,brazil",,angra dos reis,rio de janeiro,brazil,-23.007,-44.318
944,"ilha solteira,sao paulo,brazil",,ilha solteira,sao paulo,brazil,-20.433,-51.343
945,"bananal,sao paulo,brazil",,bananal,sao paulo,brazil,-22.684,-44.323
946,"silvania,goias,brazil",,silvania,goias,brazil,-16.659,-48.608
947,"julio de castilhos,rio grande do sul,brazil",,julio de castilhos,rio grande do sul,brazil,-29.227,-53.682
948,"taquaritinga,sao paulo,brazil",,taquaritinga,sao paulo,brazil,-21.406,-48.505
949,"cravinhos,sao paulo,brazil",,cravinhos,sao paulo,brazil,-21.34,-47.729
950,"vacaria,rio grande do sul,brazil",,vacaria,rio grande do sul,brazil,-28.512,-50.934
951,"florida paulista,sao paulo,brazil",,florida paulista,sao paulo,brazil,-21.615,-51.174
952,"barras,piaui,brazil",,barras,piaui,brazil,-4.247,-42.296
953,"monte azul paulista,sao paulo,brazil",,monte azul paulista,sao paulo,brazil,-20.907,-48.641
954,"viadutos,rio grande do sul,brazil",,viadutos,rio grande do sul,brazil,-27.569,-52.02
955,"vera cruz,sao paulo,brazil",,vera cruz,sao paulo,brazil,-22.22,-49.819
956,"lagoa vermelha,rio grande do sul,brazil",,lagoa vermelha,rio grande do sul,brazil,-28.209,-51.526
957,"nova fatima,parana,brazil",,nova fatima,parana,brazil,-23.432,-50.564
958,"roca sales,rio grande do sul,brazil",,roca sales,rio grande do sul,brazil,-29.284,-51.868
959,"entre rios,bahia,brazil",,entre rios,bahia,brazil,-11.942,-38.084
960,"perdoes,minas gerais,brazil",,perdoes,minas gerais,brazil,-21.091,-45.091
961,"marechal candido rondon,parana,brazil",,marechal candido rondon,parana,brazil,-24.556,-54.057
962,"ibitiara,bahia,brazil",,ibitiara,bahia,brazil,-12.652,-42.218
963,"pedralva,minas gerais,brazil",,pedralva,minas gerais,brazil,-22.243,-45.466
964,"palotina,parana,brazil",,palotina,parana,brazil,-24.284,-53.84
965,"martinho campos,minas gerais,brazil",,martinho campos,minas gerais,brazil,-19.332,-45.237
966,"cruzeiro do sul,acre,brazil",,cruzeiro do sul,acre,brazil,-7.631,-72.67
967,"cataguases,minas gerais,brazil",,cataguases,minas gerais,brazil,-21.389,-42.697
968,"arroio trinta,santa catarina,brazil",,arroio trinta,santa catarina,brazil,-26.933,-51.339
969,"quata,sao paulo,brazil",,quata,sao paulo,brazil,-22.248,-50.698
970,"brasilia de minas,minas gerais,brazil",,brasilia de minas,minas gerais,brazil,-16.208,-44.429
971,"estrela d oeste,sao paulo,brazil",,estrela d oeste,sao paulo,brazil,-20.288,-50.401
972,"japura,parana,brazil",,japura,parana,brazil,-23.47,-52.553
973,"muritiba,bahia,brazil",,muritiba,bahia,brazil,-12.626,-38.99
974,"francisco sa,minas gerais,brazil",,francisco sa,minas gerais,brazil,-16.476,-43.488
975,"guaranesia,minas gerais,brazil",,guaranesia,minas gerais,brazil,-21.299,-46.803
976,"ipua,sao paulo,brazil",,ipua,sao paulo,brazil,-20.438,-48.012
977,"barra de santa rosa,paraiba,brazil",,barra de santa rosa,paraiba,brazil,-6.72,-36.061
978,"brejo do cruz,paraiba,brazil",,brejo do cruz,paraiba,brazil,-6.349,-37.498
979,"sao lourenco do sul,rio grande do sul,brazil",,sao lourenco do sul,rio grande do sul,brazil,-31.365,-51.978
980,"douradina,parana,brazil",,douradina,parana,brazil,-23.381,-53.292
981,"francisco beltrao,parana,brazil",,francisco beltrao,parana,brazil,-26.081,-53.055
982,"cariacica,espirito santo,brazil",,cariacica,espirito santo,brazil,-20.264,-40.42
983,"altamira,para,brazil",,altamira,para,brazil,-3.203,-52.206
984,"pastos bons,maranhao,brazil",,pastos bons,maranhao,brazil,-6.602,-44.077
985,"tapejara,rio grande do sul,brazil",,tapejara,rio grande do sul,brazil,-28.068,-52.014
986,"alto garcas,mato grosso,brazil",,alto garcas,mato grosso,brazil,-16.944,-53.528
987,"independencia,rio grande do sul,brazil",,independencia,rio grande do sul,brazil,-27.833,-54.188
988,"boa nova,bahia,brazil",,boa nova,bahia,brazil,-14.363,-40.208
989,"brejo santo,ceara,brazil",,brejo santo,ceara,brazil,-7.493,-38.985
990,"registro,sao paulo,brazil",,registro,sao paulo,brazil,-24.488,-47.844
991,"goioere,parana,brazil",,goioere,parana,brazil,-24.185,-53.028
992,"santo antonio da alegria,sao paulo,brazil",,santo antonio da alegria,sao paulo,brazil,-21.087,-47.151
993,"irapuru,sao paulo,brazil",,irapuru,sao paulo,brazil,-21.571,-51.345
994,"quebrangulo,alagoas,brazil",,quebrangulo,alagoas,brazil,-9.319,-36.471
995,"taquara,rio grande do sul,brazil",,taquara,rio grande do sul,brazil,-29.651,-50.781
996,"cruzeiro,sao paulo,brazil",,cruzeiro,sao paulo,brazil,-22.576,-44.963
997,"cumari,goias,brazil",,cumari,goias,brazil,-18.263,-48.151
998,"urania,sao paulo,brazil",,urania,sao paulo,brazil,-20.246,-50.643
999,"santa isabel,sao paulo,brazil",,santa isabel,sao paulo,brazil,-23.316,-46.221
1000,"iracemapolis,sao paulo,brazil",,iracemapolis,sao paulo,brazil,-22.581,-47.519
1001,"moji mirim,sao paulo,brazil",,moji mirim,sao paulo,brazil,-22.432,-46.958
1002,"santa maria da vitoria,bahia,brazil",,santa maria da vitoria,bahia,brazil,-13.398,-44.198
1003,"capinopolis,minas gerais,brazil",,capinopolis,minas gerais,brazil,-18.682,-49.57
1004,"sao bento do sul,santa catarina,brazil",,sao bento do sul,santa catarina,brazil,-26.25,-49.379
1005,"sao mateus do sul,parana,brazil",,sao mateus do sul,parana,brazil,-25.874,-50.383
1006,"caibate,rio grande do sul,brazil",,caibate,rio grande do sul,brazil,-28.288,-54.638
1007,"sao benedito,ceara,brazil",,sao benedito,ceara,brazil,-4.049,-40.865
1008,"tiangua,ceara,brazil",,tiangua,ceara,brazil,-3.732,-40.992
1009,"aguas de lindoia,sao paulo,brazil",,aguas de lindoia,sao paulo,brazil,-22.476,-46.633
1010,"tapera,rio grande do sul,brazil",,tapera,rio grande do sul,brazil,-28.626,-52.87
1011,"guiratinga,mato grosso,brazil",,guiratinga,mato grosso,brazil,-16.349,-53.758
1012,"panambi,rio grande do sul,brazil",,panambi,rio grande do sul,brazil,-28.293,-53.502
1013,"pederneiras,sao paulo,brazil",,pederneiras,sao paulo,brazil,-22.352,-48.775
1014,"sao paulo das missoes,rio grande do sul,brazil",,sao paulo das missoes,rio grande do sul,brazil,-28.021,-54.936
1015,"firminopolis,goias,brazil",,firminopolis,goias,brazil,-16.582,-50.305
1016,"aracruz,espirito santo,brazil",,aracruz,espirito santo,brazil,-19.82,-40.273
1017,"videira,santa catarina,brazil",,videira,santa catarina,brazil,-27.008,-51.152
1018,"estrela,rio grande do sul,brazil",,estrela,rio grande do sul,brazil,-29.502,-51.966
1019,"currais novos,rio grande do norte,brazil",,currais novos,rio grande do norte,brazil,-6.261,-36.515
1020,"andira,parana,brazil",,andira,parana,brazil,-23.051,-50.229
1021,"marialva,parana,brazil",,marialva,parana,brazil,-23.485,-51.792
1022,"ouvidor,goias,brazil",,ouvidor,goias,brazil,-18.234,-47.839
1023,"cubatao,sao paulo,brazil",,cubatao,sao paulo,brazil,-23.895,-46.425
1024,"ubaitaba,bahia,brazil",,ubaitaba,bahia,brazil,-14.313,-39.323
1025,"ituporanga,santa catarina,brazil",,ituporanga,santa catarina,brazil,-27.414,-49.601
1026,"igarassu,pernambuco,brazil",,igarassu,pernambuco,brazil,-7.834,-34.906
1027,"pocone,mato grosso,brazil",,pocone,mato grosso,brazil,-16.257,-56.623
1028,"sao jose de ribamar,maranhao,brazil",,sao jose de ribamar,maranhao,brazil,-2.562,-44.054
1029,"sao sepe,rio grande do sul,brazil",,sao sepe,rio grande do sul,brazil,-30.161,-53.565
1030,"rincao,sao paulo,brazil",,rincao,sao paulo,brazil,-21.587,-48.071
1031,"ivaipora,parana,brazil",,ivaipora,parana,brazil,-24.248,-51.685
1032,"americo brasiliense,sao paulo,brazil",,americo brasiliense,sao paulo,brazil,-21.724,-48.102
1033,"alto araguaia,mato grosso,brazil",,alto araguaia,mato grosso,brazil,-17.315,-53.215
1034,"serra negra,sao paulo,brazil",,serra negra,sao paulo,brazil,-22.612,-46.701
1035,"santo antonio da platina,parana,brazil",,santo antonio da platina,parana,brazil,-23.295,-50.077
1036,"trombudo central,santa catarina,brazil",,trombudo central,santa catarina,brazil,-27.299,-49.79
1037,"pinhalzinho,santa catarina,brazil",,pinhalzinho,santa catarina,brazil,-26.848,-52.992
1038,"pinheiro machado,rio grande do sul,brazil",,pinheiro machado,rio grande do sul,brazil,-31.578,-53.381
1039,"quipapa,pernambuco,brazil",,quipapa,pernambuco,brazil,-8.828,-36.012
1040,"apiai,sao paulo,brazil",,apiai,sao paulo,brazil,-24.509,-48.843
1041,"macau,rio grande do norte,brazil",,macau,rio grande do norte,brazil,-5.115,-36.634
1042,"paraiba do sul,rio de janeiro,brazil",,paraiba do sul,rio de janeiro,brazil,-22.162,-43.293
1043,"curitibanos,santa catarina,brazil",,curitibanos,santa catarina,brazil,-27.283,-50.584
1044,"cachoeiras de macacu,rio de janeiro,brazil",,cachoeiras de macacu,rio de janeiro,brazil,-22.463,-42.653
1045,"le vesinet,île-de-france,france",,le vesinet,île-de-france,france,48.89281,2.13308
1046,"simonesia,minas gerais,brazil",,simonesia,minas gerais,brazil,-20.124,-42.001
1047,"porto nacional,tocantins,brazil",,porto nacional,tocantins,brazil,-10.708,-48.417
1048,"torrinha,sao paulo,brazil",,torrinha,sao paulo,brazil,-22.426,-48.169
1049,"taiuva,sao paulo,brazil",,taiuva,sao paulo,brazil,-21.124,-48.452
1050,"coronel freitas,santa catarina,brazil",,coronel freitas,santa catarina,brazil,-26.909,-52.703
1051,"auriflama,sao paulo,brazil",,auriflama,sao paulo,brazil,-20.686,-50.555
1052,"girua,rio grande do sul,brazil",,girua,rio grande do sul,brazil,-28.028,-54.35
1053,"prata,minas gerais,brazil",,prata,minas gerais,brazil,-19.307,-48.924
1054,"sao jose do cedro,santa catarina,brazil",,sao jose do cedro,santa catarina,brazil,-26.455,-53.494
1055,"sao goncalo do abaete,minas gerais,brazil",,sao goncalo do abaete,minas gerais,brazil,-18.338,-45.833
1056,"seoul,seoul,south korea",,seoul,seoul,south korea,37.566,126.9784
1057,"piracanjuba,goias,brazil",,piracanjuba,goias,brazil,-17.303,-49.018
1058,"carapebus,rio de janeiro,brazil",,carapebus,rio de janeiro,brazil,-22.187,-41.661
1059,"rivera,rivera,uruguay",,rivera,rivera,uruguay,-30.90534,-55.55076
1060,"taperoa,paraiba,brazil",,taperoa,paraiba,brazil,-7.207,-36.827
1061,"jose bonifacio,sao paulo,brazil",,jose bonifacio,sao paulo,brazil,-21.053,-49.688
1062,"alexandria,rio grande do norte,brazil",,alexandria,rio grande do norte,brazil,-6.413,-38.016
1063,"russas,ceara,brazil",,russas,ceara,brazil,-4.94,-37.976
1064,"muqui,espirito santo,brazil",,muqui,espirito santo,brazil,-20.952,-41.346
1065,"rio espera,minas gerais,brazil",,rio espera,minas gerais,brazil,-20.855,-43.474
1066,"campo ere,santa catarina,brazil",,campo ere,santa catarina,brazil,-26.394,-53.078
1067,"jaguapita,parana,brazil",,jaguapita,parana,brazil,-23.113,-51.532
1068,"iguatu,ceara,brazil",,iguatu,ceara,brazil,-6.359,-39.299
1069,"bodoco,pernambuco,brazil",,bodoco,pernambuco,brazil,-7.778,-39.941
1070,"itaqui,rio grande do sul,brazil",,itaqui,rio grande do sul,brazil,-29.125,-56.553
1071,"bastos,sao paulo,brazil",,bastos,sao paulo,brazil,-21.922,-50.734
1072,"boituva,sao paulo,brazil",,boituva,sao paulo,brazil,-23.283,-47.672
1073,"espumoso,rio grande do sul,brazil",,espumoso,rio grande do sul,brazil,-28.725,-52.85
1074,"lago da pedra,maranhao,brazil",,lago da pedra,maranhao,brazil,-4.57,-45.132
1075,"barbalha,ceara,brazil",,barbalha,ceara,brazil,-7.305,-39.302
1076,"taquarituba,sao paulo,brazil",,taquarituba,sao paulo,brazil,-23.533,-49.244
1077,"rosario do sul,rio grande do sul,brazil",,rosario do sul,rio grande do sul,brazil,-30.258,-54.914
1078,"lavinia,sao paulo,brazil",,lavinia,sao paulo,brazil,-21.168,-51.04
1079,"cruzalia,sao paulo,brazil",,cruzalia,sao paulo,brazil,-22.677,-50.794
1080,"eldorado,sao paulo,brazil",,eldorado,sao paulo,brazil,-24.52,-48.108
1081,"piacatu,sao paulo,brazil",,piacatu,sao paulo,brazil,-21.592,-50.599
1082,"alvinopolis,minas gerais,brazil",,alvinopolis,minas gerais,brazil,-20.107,-43.049
1083,"santana do acarau,ceara,brazil",,santana do acarau,ceara,brazil,-3.461,-40.212
1084,"getulio vargas,rio grande do sul,brazil",,getulio vargas,rio grande do sul,brazil,-27.89,-52.228
1085,"nanuque,minas gerais,brazil",,nanuque,minas gerais,brazil,-17.839,-40.354
1086,"sao tome,rio grande do norte,brazil",,sao tome,rio grande do norte,brazil,-5.973,-36.075
1087,"guiricema,minas gerais,brazil",,guiricema,minas gerais,brazil,-21.008,-42.718
1088,"dona francisca,rio grande do sul,brazil",,dona francisca,rio grande do sul,brazil,-29.622,-53.357
1089,"paulo afonso,bahia,brazil",,paulo afonso,bahia,brazil,-9.408,-38.222
1090,"sao joaquim da barra,sao paulo,brazil",,sao joaquim da barra,sao paulo,brazil,-20.581,-47.855
1091,"pianco,paraiba,brazil",,pianco,paraiba,brazil,-7.198,-37.929
1092,"valinhos,sao paulo,brazil",,valinhos,sao paulo,brazil,-22.971,-46.996
1093,"cardoso,sao paulo,brazil",,cardoso,sao paulo,brazil,-20.082,-49.914
1094,"duartina,sao paulo,brazil",,duartina,sao paulo,brazil,-22.414,-49.404
1095,"nova iorque,maranhao,brazil",,nova iorque,maranhao,brazil,-6.734,-44.044
1096,"cambara,parana,brazil",,cambara,parana,brazil,-23.046,-50.074
1097,"pedras grandes,santa catarina,brazil",,pedras grandes,santa catarina,brazil,-28.436,-49.185
1098,"juazeiro do norte,ceara,brazil",,juazeiro do norte,ceara,brazil,-7.213,-39.315
1099,"lencois paulista,sao paulo,brazil",,lencois paulista,sao paulo,brazil,-22.599,-48.8
1100,"inga,paraiba,brazil",,inga,paraiba,brazil,-7.268,-35.613
1101,"laranjal paulista,sao paulo,brazil",,laranjal paulista,sao paulo,brazil,-23.05,-47.837
1102,"sao gabriel da palha,espirito santo,brazil",,sao gabriel da palha,espirito santo,brazil,-19.017,-40.536
1103,"cordeiro,rio de janeiro,brazil",,cordeiro,rio de janeiro,brazil,-22.029,-42.361
1104,"pirai,rio de janeiro,brazil",,pirai,rio de janeiro,brazil,-22.629,-43.898
1105,"imbituba,santa catarina,brazil",,imbituba,santa catarina,brazil,-28.24,-48.67
1106,"saltinho,sao paulo,brazil",,saltinho,sao paulo,brazil,-22.847,-47.677
1107,"coromandel,minas gerais,brazil",,coromandel,minas gerais,brazil,-18.473,-47.2
1108,"rinopolis,sao paulo,brazil",,rinopolis,sao paulo,brazil,-21.726,-50.722
1109,"carmo do cajuru,minas gerais,brazil",,carmo do cajuru,minas gerais,brazil,-20.184,-44.771
1110,"jacinto,minas gerais,brazil",,jacinto,minas gerais,brazil,-16.144,-40.293
1111,"porto firme,minas gerais,brazil",,porto firme,minas gerais,brazil,-20.673,-43.084
1112,"nazare,bahia,brazil",,nazare,bahia,brazil,-13.035,-39.014
1113,"santa rosa,rio grande do sul,brazil",,santa rosa,rio grande do sul,brazil,-27.871,-54.481
1114,"lagarto,sergipe,brazil",,lagarto,sergipe,brazil,-10.917,-37.65
1115,"cajobi,sao paulo,brazil",,cajobi,sao paulo,brazil,-20.88,-48.809
1116,"manduri,sao paulo,brazil",,manduri,sao paulo,brazil,-23.003,-49.322
1117,"quatigua,parana,brazil",,quatigua,parana,brazil,-23.567,-49.914
1118,"peixe boi,para,brazil",,peixe boi,para,brazil,-1.192,-47.314
1119,"pirapora,minas gerais,brazil",,pirapora,minas gerais,brazil,-17.345,-44.942
1120,"sarandi,rio grande do sul,brazil",,sarandi,rio grande do sul,brazil,-27.944,-52.923
1121,"sales oliveira,sao paulo,brazil",,sales oliveira,sao paulo,brazil,-20.772,-47.838
1122,"divinolandia,sao paulo,brazil",,divinolandia,sao paulo,brazil,-21.661,-46.739
1123,"tarumirim,minas gerais,brazil",,tarumirim,minas gerais,brazil,-19.281,-42.007
1124,"santa barbara,minas gerais,brazil",,santa barbara,minas gerais,brazil,-19.959,-43.415
1125,"queluz,sao paulo,brazil",,queluz,sao paulo,brazil,-22.537,-44.774
1126,"turvo,santa catarina,brazil",,turvo,santa catarina,brazil,-28.926,-49.679
1127,"loreto,maranhao,brazil",,loreto,maranhao,brazil,-7.084,-45.141
1128,"taquari,rio grande do sul,brazil",,taquari,rio grande do sul,brazil,-29.8,-51.864
1129,"brejo,maranhao,brazil",,brejo,maranhao,brazil,-3.684,-42.75
1130,"itaberaba,bahia,brazil",,itaberaba,bahia,brazil,-12.528,-40.307
1131,"santa juliana,minas gerais,brazil",,santa juliana,minas gerais,brazil,-19.309,-47.525
1132,"lagoa formosa,minas gerais,brazil",,lagoa formosa,minas gerais,brazil,-18.779,-46.408
1133,"monteiro,paraiba,brazil",,monteiro,paraiba,brazil,-7.889,-37.12
1134,"flores da cunha,rio grande do sul,brazil",,flores da cunha,rio grande do sul,brazil,-29.029,-51.182
1135,"serrana,sao paulo,brazil",,serrana,sao paulo,brazil,-21.211,-47.596
1136,"areia branca,rio grande do norte,brazil",,areia branca,rio grande do norte,brazil,-4.956,-37.137
1137,"assai,parana,brazil",,assai,parana,brazil,-23.373,-50.841
1138,"itauna,minas gerais,brazil",,itauna,minas gerais,brazil,-20.075,-44.576
1139,"sao joao,parana,brazil",,sao joao,parana,brazil,-25.828,-52.725
1140,"rio verde,goias,brazil",,rio verde,goias,brazil,-17.798,-50.928
1141,"muzambinho,minas gerais,brazil",,muzambinho,minas gerais,brazil,-21.376,-46.526
1142,"sao francisco do sul,santa catarina,brazil",,sao francisco do sul,santa catarina,brazil,-26.243,-48.638
1143,"bocaina,sao paulo,brazil",,bocaina,sao paulo,brazil,-22.136,-48.518
1144,"pacajus,ceara,brazil",,pacajus,ceara,brazil,-4.173,-38.461
1145,"paripiranga,bahia,brazil",,paripiranga,bahia,brazil,-10.688,-37.862
1146,"cupira,pernambuco,brazil",,cupira,pernambuco,brazil,-8.617,-35.95
1147,"santa mariana,parana,brazil",,santa mariana,parana,brazil,-23.151,-50.519
1148,"jaragua,goias,brazil",,jaragua,goias,brazil,-15.757,-49.334
1149,"ceu azul,parana,brazil",,ceu azul,parana,brazil,-25.147,-53.849
1150,"santo antonio da patrulha,rio grande do sul,brazil",,santo antonio da patrulha,rio grande do sul,brazil,-29.818,-50.52
1151,"jussara,parana,brazil",,jussara,parana,brazil,-23.621,-52.469
1152,"borborema,sao paulo,brazil",,borborema,sao paulo,brazil,-21.62,-49.074
1153,"palmares,pernambuco,brazil",,palmares,pernambuco,brazil,-8.683,-35.592
1154,"pedregulho,sao paulo,brazil",,pedregulho,sao paulo,brazil,-20.257,-47.477
1155,"alvares machado,sao paulo,brazil",,alvares machado,sao paulo,brazil,-22.079,-51.472
1156,"itapeva,sao paulo,brazil",,itapeva,sao paulo,brazil,-23.982,-48.876
1157,"praia grande,sao paulo,brazil",,praia grande,sao paulo,brazil,-24.006,-46.403
1158,"pontal,sao paulo,brazil",,pontal,sao paulo,brazil,-21.023,-48.037
1159,"pauliceia,sao paulo,brazil",,pauliceia,sao paulo,brazil,-21.318,-51.831
1160,"angatuba,sao paulo,brazil",,angatuba,sao paulo,brazil,-23.49,-48.413
1161,"cajati,sao paulo,brazil",,cajati,sao paulo,brazil,-24.736,-48.123
1162,"jarinu,sao paulo,brazil",,jarinu,sao paulo,brazil,-23.101,-46.728
1163,"cruzeiro do oeste,parana,brazil",,cruzeiro do oeste,parana,brazil,-23.785,-53.073
1164,"buritama,sao paulo,brazil",,buritama,sao paulo,brazil,-21.066,-50.147
1165,"centralina,minas gerais,brazil",,centralina,minas gerais,brazil,-18.584,-49.199
1166,"andrelandia,minas gerais,brazil",,andrelandia,minas gerais,brazil,-21.74,-44.309
1167,"carmopolis,sergipe,brazil",,carmopolis,sergipe,brazil,-10.648,-36.989
1168,"vila maria,rio grande do sul,brazil",,vila maria,rio grande do sul,brazil,-28.535,-52.154
1169,"neves paulista,sao paulo,brazil",,neves paulista,sao paulo,brazil,-20.846,-49.63
1170,"guaracai,sao paulo,brazil",,guaracai,sao paulo,brazil,-21.028,-51.207
1171,"augusto correa,para,brazil",,augusto correa,para,brazil,-1.022,-46.645
1172,"itapecerica,minas gerais,brazil",,itapecerica,minas gerais,brazil,-20.473,-45.126
1173,"alecrim,rio grande do sul,brazil",,alecrim,rio grande do sul,brazil,-27.655,-54.764
1174,"mandaguari,parana,brazil",,mandaguari,parana,brazil,-23.548,-51.671
1175,"roque gonzales,rio grande do sul,brazil",,roque gonzales,rio grande do sul,brazil,-28.131,-55.026
1176,"tijucas,santa catarina,brazil",,tijucas,santa catarina,brazil,-27.241,-48.634
1177,"bambui,minas gerais,brazil",,bambui,minas gerais,brazil,-20.006,-45.977
1178,"borda da mata,minas gerais,brazil",,borda da mata,minas gerais,brazil,-22.274,-46.165
1179,"presidente dutra,maranhao,brazil",,presidente dutra,maranhao,brazil,-5.29,-44.49
1180,"chapel hill,north carolina,united states",,chapel hill,north carolina,united states,35.9132,-79.05584
1181,"tangara,santa catarina,brazil",,tangara,santa catarina,brazil,-27.105,-51.247
1182,"areado,minas gerais,brazil",,areado,minas gerais,brazil,-21.359,-46.146
1183,"macaubal,sao paulo,brazil",,macaubal,sao paulo,brazil,-20.806,-49.964
1184,"barra de sao francisco,espirito santo,brazil",,barra de sao francisco,espirito santo,brazil,-18.755,-40.891
1185,"dores do indaia,minas gerais,brazil",,dores do indaia,minas gerais,brazil,-19.463,-45.602
1186,"pouso alto,minas gerais,brazil",,pouso alto,minas gerais,brazil,-22.194,-44.973
1187,"rodeio bonito,rio grande do sul,brazil",,rodeio bonito,rio grande do sul,brazil,-27.471,-53.169
1188,"jardim alegre,parana,brazil",,jardim alegre,parana,brazil,-24.179,-51.692
1189,"araioses,maranhao,brazil",,araioses,maranhao,brazil,-2.89,-41.903
1190,"alto alegre,sao paulo,brazil",,alto alegre,sao paulo,brazil,-21.581,-50.164
1191,"mimoso do sul,espirito santo,brazil",,mimoso do sul,espirito santo,brazil,-21.064,-41.366
1192,"ivinhema,mato grosso do sul,brazil",,ivinhema,mato grosso do sul,brazil,-22.305,-53.815
1193,"trindade,goias,brazil",,trindade,goias,brazil,-16.649,-49.489
1194,"camocim,ceara,brazil",,camocim,ceara,brazil,-2.902,-40.841
1195,"conceicao do castelo,espirito santo,brazil",,conceicao do castelo,espirito santo,brazil,-20.368,-41.244
1196,"santo estevao,bahia,brazil",,santo estevao,bahia,brazil,-12.43,-39.251
1197,"bom conselho,pernambuco,brazil",,bom conselho,pernambuco,brazil,-9.17,-36.68
1198,"serra talhada,pernambuco,brazil",,serra talhada,pernambuco,brazil,-7.986,-38.296
1199,"caetite,bahia,brazil",,caetite,bahia,brazil,-14.069,-42.475
1200,"macatuba,sao paulo,brazil",,macatuba,sao paulo,brazil,-22.502,-48.711
1201,"ocaucu,sao paulo,brazil",,ocaucu,sao paulo,brazil,-22.439,-49.923
1202,"missao velha,ceara,brazil",,missao velha,ceara,brazil,-7.25,-39.143
1203,"guacui,espirito santo,brazil",,guacui,espirito santo,brazil,-20.776,-41.679
1204,"coracao de jesus,minas gerais,brazil",,coracao de jesus,minas gerais,brazil,-16.685,-44.365
1205,"porangatu,goias,brazil",,porangatu,goias,brazil,-13.441,-49.149
1206,"brotas,sao paulo,brazil",,brotas,sao paulo,brazil,-22.284,-48.127
1207,"iguape,sao paulo,brazil",,iguape,sao paulo,brazil,-24.708,-47.555
1208,"porto feliz,sao paulo,brazil",,porto feliz,sao paulo,brazil,-23.215,-47.524
1209,"terra boa,parana,brazil",,terra boa,parana,brazil,-23.768,-52.444
1210,"itumbiara,goias,brazil",,itumbiara,goias,brazil,-18.42,-49.218
1211,"cabedelo,paraiba,brazil",,cabedelo,paraiba,brazil,-6.981,-34.834
1212,"cordeiropolis,sao paulo,brazil",,cordeiropolis,sao paulo,brazil,-22.482,-47.457
1213,"goa,bicol,philippines",,goa,bicol,philippines,13.6978,123.4892
1214,"ibira,sao paulo,brazil",,ibira,sao paulo,brazil,-21.08,-49.241
1215,"espinosa,minas gerais,brazil",,espinosa,minas gerais,brazil,-14.926,-42.819
